ID,Severity,Start_Time,End_Time,Start_Lat,Start_Lng,End_Lat,End_Lng,Distance(mi),Description,Number,Street,Side,City,County,State,Zipcode,Country,Timezone,Airport_Code,Weather_Timestamp,Temperature(F),Wind_Chill(F),Humidity(%),Pressure(in),Visibility(mi),Wind_Direction,Wind_Speed(mph),Precipitation(in),Weather_Condition,Amenity,Bump,Crossing,Give_Way,Junction,No_Exit,Railway,Roundabout,Station,Stop,Traffic_Calming,Traffic_Signal,Turning_Loop,Sunrise_Sunset,Civil_Twilight,Nautical_Twilight,Astronomical_Twilight
C-5808390,2,2019-05-16 07:00:00.000000000,2019-05-17 19:00:00.000000000,37.281163,-107.878136,37.28177,-107.87794,0.0433017771413,At Park Ave/W 17th St - Construction work.,1577.0,Main Ave,L,Durango,La Plata,CO,81301-5142,US,US/Mountain,KDRO,2019-05-16 06:53:00,46.0,46.0,71.0,23.49,10.0,ENE,3.0,0.0,Fair,False,False,False,False,False,False,False,False,False,False,False,False,False,Day,Day,Day,Day
C-5808391,2,2019-05-20 20:00:00.000000000,2019-05-21 05:00:00.000000000,43.035339,-89.407257,,,0.40000000596,Entry ramp to Us-12 Westbound from CR-D Fish Hatchery Rd Southbound closed due to construction work.,1400.0,Damon Rd,L,Madison,Dane,WI,53713-2354,US,US/Central,KMSN,2019-05-20 19:53:00,53.0,53.0,61.0,29.19,10.0,ESE,7.0,0.0,Cloudy,False,False,False,False,False,False,False,False,False,False,False,False,False,Day,Day,Day,Day
C-5808392,2,2021-07-01 14:06:30.000000000,2021-07-01 14:44:30.000000000,39.664934,-104.996899,39.66053400000001,-104.998732,0.319261846538,Stationary traffic on US-85 S from W Evans Ave (S Santa Fe Dr/US-85) to US-285/W Hampden Ave (S Santa Fe Dr/US-85) due to roadwork.,2825.0,S Santa Fe Dr,R,Englewood,Arapahoe,CO,80110-1410,US,US/Mountain,KAPA,2021-07-01 14:15:00,72.0,72.0,53.0,24.31,10.0,SSE,16.0,0.0,T-Storm,False,False,False,False,False,False,False,False,False,False,False,True,False,Day,Day,Day,Day
C-5808393,4,2018-09-28 02:53:29.000000000,2018-10-12 23:59:00.000000000,40.129349,-85.550371,40.129888,-85.549801,0.0478920585441,Closed at Raintree Ct - Closed due to roadwork.,13934.0,W Main St,L,Daleville,Delaware,IN,47334-9662,US,US/Eastern,KAID,2018-09-28 02:55:00,45.9,,98.0,30.07,7.0,Calm,,,Clear,False,False,False,False,False,False,False,False,False,False,False,False,False,Night,Night,Night,Night
C-5808394,4,2017-11-15 22:00:53.000000000,2017-11-16 04:00:53.000000000,25.78582,-80.25215,25.78582,-80.25215,0.0,At SR-836/Dolphin Expy/NW 14th St - Exit ramp closed. Construction work.,,Dolphin Expy W,R,Miami,Miami-Dade,FL,33125,US,US/Eastern,KMIA,2017-11-15 21:53:00,75.0,,79.0,29.94,10.0,North,4.6,,Partly Cloudy,False,False,False,False,False,False,False,False,False,False,False,False,False,Night,Night,Night,Night
C-5808395,2,2021-12-22 10:48:00.000000000,2021-12-22 12:50:01.000000000,29.722947,-95.427773,29.72529500000001,-95.42773,0.162251864528,Slow traffic from W Holcombe Blvd (Buffalo Speedway) to Bissonnet St (Buffalo Speedway) due to roadwork.,5501.0,Buffalo Speedway,L,Houston,Harris,TX,77005-2201,US,US/Central,KMCJ,2021-12-22 10:53:00,68.0,68.0,50.0,30.08,10.0,SSE,9.0,0.0,Fair,False,False,False,False,False,False,False,False,False,False,False,True,False,Day,Day,Day,Day
C-5808396,2,2021-09-23 16:34:19.000000000,2021-09-23 18:28:21.000000000,26.095648,-80.136577,26.100293,-80.137945,0.331974244164,Stationary traffic on US-1 N - FL-A1A - FL-5 from SE 21st St to SE 4th Ave due to roadwork.,2098.0,S Federal Hwy,L,Fort Lauderdale,Broward,FL,33316-3547,US,US/Eastern,KFLL,2021-09-23 16:32:00,87.0,87.0,72.0,29.82,10.0,SSE,14.0,0.0,Thunder,False,False,False,False,False,False,False,False,False,False,False,False,False,Day,Day,Day,Day
C-5808397,2,2020-05-10 23:33:27.000000000,2020-05-10 23:48:27.000000000,38.87932,-77.25435,38.8774,-77.27478,1.10686452079,Between I-495/Exit 64 and Vaden Dr/Exit 62 - Roadwork.,,I-66 W,R,Fairfax,Fairfax County,VA,22031,US,US/Eastern,KDAA,2020-05-10 23:56:00,44.0,44.0,83.0,29.87,10.0,CALM,0.0,0.0,Fair,False,False,False,False,False,False,False,False,False,False,False,False,False,Night,Night,Night,Night
C-5808398,2,2021-06-18 15:00:00.000000000,2021-06-18 17:04:27.000000000,26.033517,-80.144244,26.03354,-80.142212,0.126162703796,Slow traffic on FL-822 - FL-A1A from N Dixie Hwy (Sheridan St) to FL-A1A/N Ocean Dr (SE 16th St/Sheridan St) due to roadwork.,1844.0,Sheridan St,L,Hollywood,Broward,FL,33020-2117,US,US/Eastern,KFLL,2021-06-18 14:53:00,85.0,85.0,80.0,30.04,10.0,ESE,14.0,0.0,Mostly Cloudy,False,False,True,False,False,False,False,False,False,False,False,False,False,Day,Day,Day,Day
C-5808399,2,2020-09-17 12:28:30.000000000,2020-09-17 14:25:30.000000000,36.893956,-119.989872,36.938138,-120.03576499999998,3.96813267284,Slow traffic on CA-99 from Avenue 9/2nd (CA-99) to Gateway Dr (CA-99) due to roadwork.,10061.0,Highway 99,R,Madera,Madera,CA,93636,US,US/Pacific,KFAT,2020-09-17 12:22:00,83.0,83.0,37.0,29.6,2.0,CALM,0.0,0.0,Smoke,False,False,False,False,False,False,False,False,False,False,False,False,False,Day,Day,Day,Day
C-5808400,2,2021-03-11 14:23:32.000000000,2021-12-14 16:46:00.000000000,33.390915,-112.099131,33.39309,-112.099141,0.150279294756,Slow traffic from W Baseline Rd (S 19th Ave) to W Broadway Rd (S 19th Ave) due to roadwork.,6080.0,S 19th Ave,R,Phoenix,Maricopa,AZ,85041,US,US/Mountain,KPHX,2021-07-07 14:51:00,109.0,109.0,14.0,28.55,10.0,WSW,9.0,0.0,Fair,True,False,False,False,False,False,False,False,True,True,False,False,False,Day,Day,Day,Day
C-5808401,2,2021-09-27 10:31:00.000000000,2021-09-27 11:48:00.000000000,39.953625,-82.958955,39.955513,-82.98083199999998,1.16600967425,Slow traffic on I-70 W - East Fwy W from Alum Creek Dr/Exit 103 (I-70) to I-71/Exit 101 (I-70) due to roadwork.,,East Fwy W,R,Columbus,Franklin,OH,43205,US,US/Eastern,KCMH,2021-09-27 10:51:00,70.0,70.0,55.0,29.1,10.0,SSW,9.0,0.0,Partly Cloudy,False,False,False,False,False,False,False,False,False,False,False,False,False,Day,Day,Day,Day
C-5808403,2,2018-12-06 09:42:57.000000000,2018-12-10 09:42:57.000000000,40.43582,-79.96601,40.444649,-79.943111,1.3498665176700002,Between Birmingham Brg and Beeler St - Roadwork. Traffic problem.,2713.0,Forbes Ave,L,Pittsburgh,Allegheny,PA,15213,US,US/Eastern,KAGC,2018-12-06 09:53:00,28.9,19.2,72.0,30.27,10.0,SSW,11.5,,Mostly Cloudy,True,False,True,False,False,False,False,False,False,False,False,True,False,Day,Day,Day,Day
C-5808404,2,2021-02-25 03:48:30.000000000,2021-02-25 10:18:47.000000000,25.778343,-80.23922900000002,25.779423,-80.240125,0.0931448362022,Stationary traffic on FL-9 from NW 5th St to NW 27th Ct due to roadwork.,567.0,NW 27th Ave,L,Miami,Miami-Dade,FL,33125-3034,US,US/Eastern,KMIA,2021-02-25 03:53:00,71.0,71.0,90.0,30.11,10.0,CALM,0.0,0.0,Partly Cloudy,False,False,False,False,False,False,False,False,False,False,False,False,False,Night,Night,Night,Night
C-5808405,2,2020-07-03 02:00:00.000000000,2020-07-03 13:45:00.000000000,35.557583,-82.596641,35.55877299999999,-82.543751,2.97404425995,Construction on I-40 EB near MM 49 Expect delays.,,I-40 E,R,Asheville,Buncombe,NC,28806,US,US/Eastern,KAVL,2020-07-03 01:54:00,69.0,69.0,81.0,27.79,10.0,SW,3.0,0.0,Mostly Cloudy,False,False,False,False,True,False,False,False,False,False,False,False,False,Night,Night,Night,Night
C-5808406,3,2021-07-27 21:30:00.000000000,2021-07-27 22:30:00.000000000,26.165003,-80.160416,,,3.26999998093,One lane closed due to construction work on I-95 Northbound from Exit 29 FL-838 Sunrise Blvd to Exit 31 FL-816 Oakland Park Blvd.,,I-95 N,R,Fort Lauderdale,Broward,FL,33311,US,US/Eastern,KFXE,2021-07-27 21:53:00,77.0,77.0,94.0,30.0,10.0,S,5.0,0.0,Fair,False,False,False,False,False,False,False,False,False,False,False,False,False,Night,Night,Night,Day
C-5808407,4,2021-09-20 21:00:00.000000000,2021-09-23 23:59:59.000000000,39.761251,-75.30325699999999,39.763452,-75.313602,0.5701047159570001,NJ DOT - TOC South: construction on US 322 westbound CR 653/Swedesboro Rd (Woolwich Twp) to West of CR 671/Oak Grove Rd (Woolwich Twp) Monday September 20th 2021 thru Friday September 24th 2021 Monday/Tuesday/Wednesday/Thursday 09:00 PM thru 06:00 AM,1639.0,US Highway 322,R,Swedesboro,Gloucester,NJ,08085-3751,US,US/Eastern,KPHL,2021-09-20 20:54:00,65.0,65.0,75.0,30.34,10.0,ESE,6.0,0.0,Mostly Cloudy,False,False,False,False,False,False,False,False,False,False,False,False,False,Night,Night,Night,Night
C-5808408,4,2019-09-28 00:03:42.000000000,2019-09-28 05:03:19.000000000,33.8296,-84.488845,33.831139,-84.484011,0.297127306255,Closed at Holland Rd SE - Closed due to roadwork.,100.0,Tibarron Pkwy SE,R,Smyrna,Cobb,GA,30080-7257,US,US/Eastern,KMGE,2019-09-28 01:56:00,78.0,78.0,74.0,28.9,10.0,WNW,9.0,0.0,Partly Cloudy,False,False,False,False,False,False,False,False,False,False,False,False,False,Night,Night,Night,Night
C-5808409,2,2020-11-24 06:54:26.000000000,2020-11-24 13:45:00.000000000,40.737079,-73.93220500000002,40.733749,-73.921575,0.602210894154,Construction construction on I-495 upper level eastbound just past Exit 17E - I-278 (New York) 2 Left Lanes closed until 5:00 A.M.,,Long Island Expy E,R,Long Island City,Queens,NY,11101,US,US/Eastern,KNYC,2020-11-24 06:51:00,41.0,38.0,60.0,30.17,10.0,VAR,5.0,0.0,Cloudy,False,False,False,False,False,False,False,False,False,False,False,False,False,Day,Day,Day,Day
C-5808410,4,2019-07-16 06:04:01.000000000,2019-07-20 06:01:00.000000000,34.06371,-117.81482,34.06357,-117.81027,0.26061289123,Ramp closed to CA-57/Orange Fwy - Closed due to roadwork.,,I-10 E,R,San Dimas,Los Angeles,CA,91773,US,US/Pacific,KPOC,2019-07-16 06:47:00,68.0,68.0,78.0,28.8,6.0,CALM,0.0,,Fair,False,False,False,False,False,False,False,False,False,False,False,False,False,Day,Day,Day,Day
C-5808411,2,2021-11-17 15:14:00.000000000,2021-11-17 17:15:46.000000000,30.419335,-91.097584,30.419416,-91.095601,0.118283960579,Stationary traffic on LA-73 from Corporate Blvd (Jefferson Hwy/LA-73) to I-12/Drusilla Dr (Jefferson Hwy/LA-73) due to roadwork.,8517.0,Jefferson Hwy,L,Baton Rouge,East Baton Rouge,LA,70809-2231,US,US/Central,KBTR,2021-11-17 14:53:00,69.0,69.0,96.0,30.02,3.0,ESE,9.0,0.0,Light Rain,False,False,False,False,False,False,False,False,False,False,False,False,False,Day,Day,Day,Day
C-5808412,2,2020-09-02 09:45:30.000000000,2020-09-02 14:37:14.000000000,40.884844,-74.167159,40.893654,-74.16814000000002,0.61086589645,Roadwork on NJ-19 from US-46/Broad St (NJ-19) to Valley Rd (NJ-19).,,US Highway 46,R,Clifton,Passaic,NJ,07013,US,US/Eastern,KCDW,2020-09-02 09:53:00,73.0,73.0,90.0,29.75,10.0,ESE,3.0,0.01,Cloudy,False,False,False,False,False,False,False,False,False,False,False,False,False,Day,Day,Day,Day
C-5808413,2,2019-07-21 23:00:00.000000000,2020-07-31 23:45:00.000000000,39.334005,-83.00429399999999,39.333425,-83.007374,0.1694079293589999,Construction on US-50 WB near UNIVERSITY DR Construction. Expect long delays.,754.0,Western Ave,R,Chillicothe,Ross,OH,45601-2138,US,US/Eastern,KLCK,2019-07-21 22:55:00,78.0,78.0,89.0,29.09,10.0,S,7.0,0.0,Mostly Cloudy,False,False,False,False,False,False,False,False,False,False,False,False,False,Night,Night,Night,Night
C-5808414,2,2021-05-10 05:39:43.000000000,2021-05-15 16:58:53.000000000,40.877612,-73.86725799999998,40.878852,-73.873488,0.336553512025,Slow traffic from US-1/Boston Rd/Hering Ave (E Gun Hill Rd) to Jerome Ave (Gun Hill Rd) due to roadwork.,694.0,E Gun Hill Rd,R,Bronx,Bronx,NY,10467-5620,US,US/Eastern,KLGA,2021-05-10 05:51:00,48.0,43.0,86.0,29.76,5.0,N,10.0,0.0,Cloudy,False,False,False,False,False,False,False,False,False,False,False,True,False,Night,Day,Day,Day
C-5808415,2,2021-04-01 08:08:00.000000000,2021-11-02 13:45:13.000000000,29.751303000000004,-98.701848,29.744442,-98.694196,0.659871889552,Stationary traffic from Scenic Loop Rd to Interstate 10 W due to roadwork.,31223.0,IH 10 W,L,Boerne,Kendall,TX,78006-9280,US,US/Central,K5C1,2021-04-01 08:15:00,45.0,45.0,61.0,29.02,10.0,CALM,0.0,0.0,Fair,False,False,False,False,False,False,False,False,False,False,False,False,False,Day,Day,Day,Day
C-5808416,2,2021-10-19 09:24:30.000000000,2021-10-19 11:32:27.000000000,33.407315999999994,-111.979845,33.407919,-111.97817,0.105210591367,Stationary traffic on AZ-143 from S 47th St to AZ-143 N due to roadwork.,4710.0,E Broadway Rd,L,Phoenix,Maricopa,AZ,85040-8813,US,US/Mountain,KPHX,2021-10-19 09:51:00,67.0,67.0,44.0,28.77,10.0,ESE,3.0,0.0,Fair,False,False,False,False,False,True,False,False,False,False,False,False,False,Day,Day,Day,Day
C-5808418,2,2021-03-11 09:59:00.000000000,2021-09-07 06:18:00.000000000,45.680476,-121.904908,45.678596,-121.90758,0.1830587541609999,Stationary traffic on WA-14 from Wind River Rd (WA-14) to Salmon Falls Rd (WA-14) due to roadwork.,42866.0,State Road 14,R,Stevenson,Skamania,WA,98648,US,US/Pacific,KCZK,2021-03-11 09:53:00,45.0,45.0,71.0,30.22,10.0,CALM,0.0,0.0,Fair,False,False,False,False,False,False,False,False,False,False,False,False,False,Day,Day,Day,Day
C-5808419,2,2021-08-02 07:46:30.000000000,2021-08-02 10:07:50.000000000,41.11606,-85.147586,41.117958,-85.150335,0.194095739877,Stationary traffic on US-27 N - IN-930 from Ice Way to Arizona Ave due to roadwork.,4092.0,Lima Rd,R,Fort Wayne,Allen,IN,46805-1033,US,US/Eastern,KFWA,2021-08-02 07:54:00,59.0,59.0,87.0,29.29,10.0,CALM,0.0,0.0,Fair,False,False,False,False,False,False,False,False,False,False,False,False,False,Day,Day,Day,Day
C-5808420,2,2021-09-21 15:21:00.000000000,2021-09-21 15:42:30.000000000,25.939714,-80.280117,25.93958,-80.285752,0.350239733328,Stationary traffic on FL-860 from FL-847/47th Ave (FL-860) to FL-823/57th Ave/Red Rd (FL-860) due to roadwork.,4793.0,NW 183rd St,L,Miami Gardens,Miami-Dade,FL,33055-2933,US,US/Eastern,KOPF,2021-09-21 15:23:00,86.0,86.0,63.0,29.99,10.0,SE,8.0,0.0,Thunder in the Vicinity,False,False,False,False,False,False,False,False,True,False,False,True,False,Day,Day,Day,Day
C-5808421,2,2021-04-09 04:44:00.000000000,2021-04-09 18:00:39.000000000,25.800173,-80.240015,25.794255,-80.23989499999998,0.408962992019,Stationary traffic on FL-9 from US-27 (FL-9) to 20th St (FL-9) due to roadwork.,2576.0,NW 27th Ave,L,Miami,Miami-Dade,FL,33142-6535,US,US/Eastern,KMIA,2021-04-09 04:53:00,68.0,68.0,81.0,29.98,10.0,CALM,0.0,0.0,Fair,False,False,False,False,False,False,False,False,True,False,False,True,False,Night,Night,Night,Night
C-5808422,3,2020-05-15 11:16:49.000000000,2020-05-17 11:31:49.000000000,41.48924,-88.17118,41.511,-88.1299,2.61219569866,Between I-55/Exit 126 and IL-7/Larkin Ave/Exit 130 - Construction work.,,I-80 E,R,Joliet,Will,IL,60431,US,US/Central,KJOT,2020-05-15 11:15:00,67.0,67.0,91.0,29.28,10.0,NW,3.0,0.0,Cloudy,False,False,False,False,False,False,False,False,False,False,False,False,False,Day,Day,Day,Day
C-5808423,2,2020-12-31 13:09:30.000000000,2020-12-31 22:02:26.000000000,26.681627,-80.248603,26.682293,-80.246923,0.113466075317,Slow traffic on FL-80 - FL-700 - US-98 E - FL-882 - US-441 S from Palms West Pkwy to Folsom Rd / Crestwood Ct N due to roadwork.,12272.0,Southern Blvd,R,Wellington,Palm Beach,FL,33414,US,US/Eastern,KPBI,2020-12-31 12:53:00,81.0,81.0,62.0,30.09,10.0,SSE,22.0,0.0,Partly Cloudy / Windy,False,False,False,False,False,False,False,False,False,False,False,False,False,Day,Day,Day,Day
C-5808424,2,2021-08-15 15:06:00.000000000,2021-08-15 15:24:00.000000000,42.073055,-122.605857,42.060434,-122.607421,0.875710230219,Slow traffic on OR-99 S - Pacific Highway 1 S - I-5 S from Old Siskiyou Hwy/Exit 6 (I-5) to OR-99/Exit 1 (I-5) due to roadwork.,,I-5 S,R,Ashland,Jackson,OR,97520,US,US/Pacific,KMFR,2021-08-15 15:02:00,98.0,98.0,25.0,28.56,2.0,CALM,0.0,0.0,Smoke,False,False,False,False,False,False,False,False,False,False,False,False,False,Day,Day,Day,Day
C-5808425,3,2019-07-24 22:00:00.000000000,2019-07-25 05:00:00.000000000,42.350574,-71.210526,,,1.20000004768,2 right lane closed due to maintenance work on I-90 Eastbound from Chestnut St overpass to Lowell Ave overpass.,,I-90 W,R,Newtonville,Middlesex,MA,02460,US,US/Eastern,KBED,2019-07-24 21:56:00,67.0,67.0,76.0,29.83,10.0,CALM,0.0,0.0,Fair,False,False,False,False,False,False,False,False,False,False,False,False,False,Night,Night,Night,Day
C-5808426,2,2020-04-20 07:01:43.000000000,2020-07-22 18:59:59.000000000,39.66138,-83.26850999999998,39.71585,-83.2683,3.76353512566,At US-62/OH-3/W Columbus St - Roadwork. Roadway reduced to 1 lane.,,Cook Yankeetown Rd NE,R,Mount Sterling,Fayette,OH,43143,US,US/Eastern,KTZR,2020-04-23 18:45:00,52.0,52.0,100.0,28.64,10.0,E,10.0,0.0,Cloudy,False,False,False,False,False,False,False,False,False,False,False,False,False,Day,Day,Day,Day
C-5808427,2,2021-11-08 07:11:00.000000000,2021-11-12 10:27:59.000000000,45.937692,-119.603085,45.936978,-119.60286200000002,0.0504829971566999,Roadwork on Horrigan Rd (WA-221) from WA-14 (WA-221) to WA-221.,163397.0,State Route 221,R,Prosser,Benton,WA,99350,US,US/Pacific,KHMS,2021-11-08 06:53:00,28.0,22.0,100.0,28.99,10.0,W,6.0,0.0,Fair,False,False,False,False,False,False,False,False,False,False,False,False,False,Day,Day,Day,Day
C-5808428,2,2020-11-20 05:05:35.000000000,2020-11-20 11:12:16.000000000,40.987792,-73.6701,40.993346,-73.677916,0.5598393552049999,Road maintenance operations right lane closed on I-287 - Cross Westchester Expwy eastbound from After Exit 11 (I-287) - Portchester- Rye (US 1) to 10.9 until 7:00 AM 11/20/2020 [CARS CAD-203240328],,New England Trwy S,R,Rye,Westchester,NY,10580,US,US/Eastern,KHPN,2020-11-20 04:56:00,43.0,39.0,65.0,29.87,10.0,SW,7.0,0.0,Fair,False,False,False,False,False,False,False,False,False,False,False,False,False,Night,Night,Night,Night
C-5808429,2,2021-08-24 15:05:30.000000000,2021-08-24 15:33:30.000000000,33.494715,-112.06158,33.49476,-112.067969,0.368144277257,Slow traffic from AZ-51 (E Indian School Rd) to N Central Ave (Indian School Rd) due to roadwork.,967.0,E Indian School Rd,R,Phoenix,Maricopa,AZ,85014-4745,US,US/Mountain,KPHX,2021-08-24 14:51:00,103.0,103.0,16.0,28.68,10.0,VAR,3.0,0.0,Fair,True,False,False,False,False,False,False,False,True,True,False,False,False,Day,Day,Day,Day
C-5808430,2,2020-11-03 13:34:30.000000000,2020-11-04 01:07:36.000000000,25.809301,-80.261413,25.808557,-80.260075,0.0978213100075,Stationary traffic on US-27 from FL-953/8th Ave/Le Jeune Rd (US-27) to NW 37th Ave/N Douglas Rd/SE 12th St (US-27) due to roadwork.,,E Okeechobee Rd,R,Hialeah,Miami-Dade,FL,33010,US,US/Eastern,KMIA,2020-11-03 13:53:00,78.0,78.0,52.0,30.08,10.0,ENE,21.0,0.0,Mostly Cloudy / Windy,False,False,False,False,False,False,False,False,False,False,False,True,False,Day,Day,Day,Day
C-5808431,2,2021-02-19 05:06:00.000000000,2021-02-19 18:11:45.000000000,28.811366,-81.357574,28.812612,-81.363043,0.342103079033,Slow traffic on FL-46 from Integra Village Trl to Westlake Ln due to roadwork.,5492.0,W State Road 46,L,Sanford,Seminole,FL,32771,US,US/Eastern,KSFB,2021-02-19 04:53:00,72.0,72.0,84.0,29.94,10.0,S,8.0,0.0,Fair,False,False,False,False,False,False,False,False,False,False,False,False,False,Night,Night,Night,Night
C-5808432,2,2020-03-19 05:33:00.000000000,2020-03-20 15:00:00.000000000,47.71323,-121.3351,47.71164,-121.30947,1.19658330237,At NF-6066 - Roadwork. Single alternate lane traffic.,74702.0,NE Stevens Pass Hwy,R,Skykomish,King,WA,98288,US,US/Pacific,KSMP,2020-03-19 05:53:00,26.0,26.0,81.0,27.96,10.0,CALM,0.0,0.0,Fair,False,False,False,False,False,False,False,False,False,False,False,False,False,Night,Night,Night,Day
C-5808433,3,2020-09-30 21:30:00.000000000,2020-10-01 05:30:00.000000000,26.086987,-80.206284,,,7.170000076289999,Lane closed due to construction work on I-595 both ways from Anglers Ave to FL-7.,,I-595 W,R,Fort Lauderdale,Broward,FL,33314,US,US/Eastern,KFLL,2020-09-30 21:53:00,79.0,79.0,88.0,29.97,10.0,NNW,6.0,0.0,Mostly Cloudy,False,False,False,False,False,False,False,False,False,False,False,False,False,Night,Night,Night,Night
C-5808434,2,2021-09-14 19:13:32.000000000,2021-09-15 03:13:32.000000000,44.048146,-123.172941,44.051789,-123.208552,1.7862574329799998,Road maintenance operations are occurring causing no to minimum delays. Use caution.,,Beltline Rd,R,Eugene,Lane,OR,97402,US,US/Pacific,KEUG,2021-09-14 18:54:00,81.0,81.0,34.0,29.56,10.0,N,9.0,0.0,Fair,False,False,True,False,False,False,False,False,False,False,False,True,False,Day,Day,Day,Day
C-5808435,2,2019-01-31 05:04:51.000000000,2019-02-28 23:59:00.000000000,42.985149,-71.478638,,,0.0,Restrictions due to paving repairs on Dyson St both ways at Conant St.,201.0,Conant St,R,Manchester,Hillsborough,NH,03102-4307,US,US/Eastern,KMHT,2019-01-31 04:53:00,1.9,-9.2,39.0,30.18,10.0,WSW,5.8,,Clear,False,False,True,False,False,False,False,False,False,False,False,False,False,Night,Night,Night,Night
C-5808436,2,2021-11-15 14:15:00.000000000,2021-11-15 16:16:21.000000000,29.226816,-81.09484,29.220631,-81.09274599999998,0.445606450585,Slow traffic from FL-40/W Granada Blvd (Williamson Blvd/CR-4009) to Dunn Ave (N Williamson Blvd/CR-4009) due to roadwork.,,Williamson Blvd,R,Daytona Beach,Volusia,FL,32117,US,US/Eastern,KDAB,2021-11-15 13:53:00,69.0,69.0,44.0,30.14,10.0,NE,10.0,0.0,Fair,False,False,False,False,False,False,False,False,False,False,False,False,False,Day,Day,Day,Day
C-5808437,2,2020-12-25 18:34:30.000000000,2020-12-25 19:24:30.000000000,27.766681,-82.335132,27.76137,-82.335126,0.366955334582,Stationary traffic on US-301 S - FL-43 - US-301 N from CR-672 (US-301) to FL-674/Sun City Center Blvd (US-301) due to roadwork.,14361.0,S US Highway 301,L,Sun City Center,Hillsborough,FL,33573,US,US/Eastern,KMCF,2020-12-25 18:56:00,51.0,51.0,69.0,30.14,10.0,N,6.0,0.0,Fair,False,False,False,False,False,False,False,False,False,False,False,False,False,Night,Night,Day,Day
C-5808438,2,2021-02-02 18:22:00.000000000,2021-02-03 01:26:20.000000000,41.100537,-81.51106,41.102159,-81.50999,0.125152534668,Slow traffic on OH-261 from E Glenwood Ave (N Main St/OH-261) to OH-59/OH-8/Gorge Blvd (E Tallmadge Ave/OH-261) due to roadwork.,563.0,N Main St,R,Akron,Summit,OH,44310-3147,US,US/Eastern,KAKR,2021-02-02 17:54:00,31.0,19.0,67.0,28.74,10.0,NW,18.0,0.0,Mostly Cloudy,False,False,False,False,False,False,False,False,False,True,False,False,False,Night,Night,Day,Day
C-5808439,2,2019-08-20 19:01:51.000000000,2019-08-25 19:00:55.000000000,34.229539,-77.95761800000002,34.227011,-77.95071300000002,0.431401546484,At US-17/US-74/US-76/Dawson St/Wooster - Construction work. Lane blocked.,,US-17 Bus N,R,Leland,Brunswick,NC,28451,US,US/Eastern,KILM,2019-08-21 18:53:00,86.0,86.0,61.0,29.99,10.0,SW,15.0,0.0,Fair,False,False,False,False,False,False,False,False,False,False,False,False,False,Day,Day,Day,Day
C-5808440,2,2021-12-29 12:19:01.000000000,2021-12-29 13:55:00.000000000,34.845212,-91.433997,34.837455,-91.466497,1.91934414378,Slow traffic on I-40 W - US-63 W from AR-33/Exit 202 (I-40) to AR-11/Exit 193 (I-40) due to roadwork.,,I-40 W,R,Biscoe,Prairie,AR,72017,US,US/Central,KSGT,2021-12-29 12:22:00,64.0,64.0,100.0,29.48,1.0,SW,6.0,0.09,Heavy Rain,False,False,False,False,False,False,False,False,False,False,False,False,False,Day,Day,Day,Day
C-5808441,3,2018-03-21 21:14:38.000000000,2018-03-22 03:55:09.000000000,34.20221,-118.34031,34.19962,-118.33854,0.205559044931,At Buena Vista St - Roadwork.,,Golden State Fwy S,R,Burbank,Los Angeles,CA,91504,US,US/Pacific,KBUR,2018-03-21 20:53:00,59.0,,100.0,29.95,7.0,WSW,3.5,,Clear,False,False,False,False,True,False,False,False,False,False,False,False,False,Night,Night,Night,Night
C-5808442,2,2021-08-02 17:23:59.000000000,2021-08-02 17:53:03.000000000,40.826263,-73.888813,40.82765300000001,-73.88613199999998,0.169914185747,Slow traffic from Southern Blvd (Westchester Ave) to I-895/Sheridan Expy (Westchester Ave) due to roadwork.,1098.0,Bryant Ave,R,Bronx,Bronx,NY,10459-2556,US,US/Eastern,KLGA,2021-08-02 17:51:00,79.0,79.0,40.0,29.95,10.0,N,7.0,0.0,Mostly Cloudy,False,False,False,False,False,False,False,False,True,False,False,True,False,Day,Day,Day,Day
C-5808443,2,2021-11-28 17:44:30.000000000,2021-11-28 19:48:32.000000000,35.162537,-101.883882,35.164151000000004,-101.883906,0.111525018626,Slow traffic from Canyon Dr (N Western St) to SW 45th Ave (N Western St) due to roadwork.,4548.0,S Western St,R,Amarillo,Randall,TX,79109-8042,US,US/Central,KAMA,2021-11-28 17:53:00,52.0,52.0,35.0,26.45,10.0,SSW,8.0,0.0,Fair,False,False,False,False,False,False,False,False,False,False,False,False,False,Night,Day,Day,Day
C-5808444,2,2018-11-23 08:09:35.000000000,2019-01-18 18:00:00.000000000,27.806311,-82.728729,,,0.0,Intermittent lane closures due to long-term construction on US-19A-ALT 66th St both ways at CR-184 38th Ave.,,38th Ave N,R,Saint Petersburg,Pinellas,FL,33710,US,US/Eastern,KSPG,2018-11-23 07:53:00,66.9,,87.0,30.08,10.0,ENE,19.6,,Overcast,False,False,False,False,False,False,False,False,False,False,False,True,False,Day,Day,Day,Day
C-5808445,2,2020-12-21 03:21:30.000000000,2020-12-21 04:15:00.000000000,40.685093,-73.835113,40.683423,-73.834284,0.123290437972,Stationary traffic from 103rd Ave to Liberty Ave due to roadwork.,10298.0,107th St,R,Ozone Park,Queens,NY,11416-2721,US,US/Eastern,KJFK,2020-12-21 02:51:00,36.0,29.0,93.0,29.95,5.0,N,9.0,0.0,Mostly Cloudy,False,False,False,False,False,False,False,False,True,True,False,False,False,Night,Night,Night,Night
C-5808446,2,2021-04-02 10:48:00.000000000,2021-04-06 01:48:37.000000000,42.676422,-90.119136,42.682842,-90.117668,0.449803419637,Roadwork on WI-81/County Shop Rd (WI-23) from CR-G (WI-23) to WI-23 - WI-81.,100.0,Wisconsin St,R,Darlington,Lafayette,WI,53530-1562,US,US/Central,KMRJ,2021-04-02 10:55:00,43.0,35.0,31.0,29.17,10.0,SSE,18.0,0.0,Fair,False,False,False,False,False,False,False,False,False,False,False,False,False,Day,Day,Day,Day
C-5808447,4,2021-11-16 20:00:00.000000000,2021-11-16 23:59:59.000000000,40.28063,-74.50451600000002,40.262102,-74.512182,1.34243849962,NJ Turnpike Auth.: construction on New Jersey Turnpike Inner Roadway southbound between North of Interchange 14 - I-78/US 1&amp;9 (Newark) and Interchange 6 - Pennsylvania Turnpike (Mansfield Twp) Tuesday November 16th 2021 thru Wednesday November 17th 202,,New Jersey Tpke S,R,Hightstown,Mercer,NJ,08520,US,US/Eastern,KTTN,2021-11-16 19:53:00,40.0,37.0,58.0,30.01,10.0,W,5.0,0.0,Fair,False,False,False,False,False,False,False,False,False,False,False,False,False,Night,Night,Night,Night
C-5808448,2,2021-09-24 15:00:05.000000000,2021-09-24 17:01:09.000000000,25.838577,-80.184264,25.847858,-80.184045,0.641400613013,Stationary traffic on US-1 N - FL-934 - US-1 S - FL-5 from NE 68th St to NE 7th Ave due to roadwork.,6810.0,Biscayne Blvd,R,Miami,Miami-Dade,FL,33138-6215,US,US/Eastern,KOPF,2021-09-24 14:53:00,79.0,79.0,88.0,29.94,3.0,WNW,14.0,0.03,Heavy T-Storm,True,False,False,False,False,False,False,False,True,False,False,True,False,Day,Day,Day,Day
C-5808449,2,2021-01-04 12:57:30.000000000,2021-01-05 04:58:30.000000000,39.94205,-75.193951,39.953086,-75.181699,1.00130073339,Slow traffic on Schuylkill Expy W - I-76 W from University Avenue exit [346B] to 30TH St exit [345] due to roadwork.,,I-76 W,R,Philadelphia,Philadelphia,PA,19146,US,US/Eastern,KPHL,2021-01-04 12:54:00,42.0,38.0,73.0,29.96,10.0,NNW,7.0,0.0,Cloudy,False,False,True,False,False,False,False,False,False,False,False,True,False,Day,Day,Day,Day
C-5808450,2,2021-08-12 08:00:00.000000000,2021-10-29 16:00:00.000000000,42.842693,-88.197951,42.894117,-88.208898,3.59604558397,Permit - Mainline Moving Lane Closure from DENOON RD to COUNTY U,,W225S11099 Big Bend Dr,L,Big Bend,Waukesha,WI,53103-9787,US,US/Central,KUES,2021-08-12 07:45:00,66.0,66.0,88.0,28.95,10.0,SW,5.0,0.0,Fair,False,False,False,False,False,False,False,False,False,False,False,False,False,Day,Day,Day,Day
C-5808451,2,2020-07-27 17:15:00.000000000,2020-07-29 02:45:00.000000000,31.56605,-100.084327,31.566211,-100.083365,0.057715223101,Construction on FM-1929 EB near FM-381 Construction. Expect long delays.,11901.0,County Road 1884,R,Rowena,Concho,TX,76875-6116,US,US/Central,KSJT,2020-07-27 16:51:00,97.0,97.0,30.0,27.93,10.0,SSW,7.0,0.0,Fair,False,False,False,False,False,False,False,False,False,False,False,False,False,Day,Day,Day,Day
C-5808452,4,2020-03-26 15:55:23.000000000,2020-03-26 19:25:09.000000000,33.5208,-86.79937,33.52721,-86.80246,0.477314209964,At I-20/I-59 - Roadwork.,,AL-3 N,R,Birmingham,Jefferson,AL,35203,US,US/Central,KBHM,2020-03-26 15:53:00,83.0,83.0,41.0,29.24,10.0,S,9.0,0.0,Partly Cloudy,False,False,False,False,False,False,False,False,False,False,False,True,False,Day,Day,Day,Day
C-5808453,2,2021-05-06 00:17:48.000000000,2021-05-06 05:00:00.000000000,34.080601,-118.294022,,,0.219999998808,Exit ramp from US-101 Southbound at Exit 6A to N New Hampshire Ave Southbound closed due to construction work.,,CA-2 E,R,Los Angeles,Los Angeles,CA,90004,US,US/Pacific,KCQT,2021-05-06 00:19:00,60.0,60.0,78.0,29.82,10.0,CALM,0.0,0.0,Mostly Cloudy,False,False,False,False,False,False,False,False,False,False,False,False,False,Night,Night,Night,Night
C-5808454,2,2020-12-07 17:53:00.000000000,2020-12-07 23:53:24.000000000,40.484424,-80.201961,40.481462,-80.201712,0.205072624652,Roadwork on CARGO RD / BUSINESS 376 eastbound at Exit: EWING ROAD. There is a lane restriction.,,I-376 Bus Loop E,R,Pittsburgh,Allegheny,PA,15231,US,US/Eastern,KAGC,2020-12-07 17:53:00,30.0,21.0,59.0,28.54,10.0,NNW,12.0,0.0,Partly Cloudy,False,False,False,False,True,False,False,False,False,False,False,False,False,Night,Night,Day,Day
C-5808455,2,2021-11-24 12:38:30.000000000,2021-11-24 14:40:58.000000000,44.563369,-123.261371,44.566848,-123.259633,0.255147411063,Slow traffic on OR-34 - US-20 E - OR-99W from OR-34 (OR-99W) to US-20/OR-34/NW Van Buren Ave (OR-99W) due to roadwork.,300.0,SW Madison Ave,L,Corvallis,Benton,OR,97333-4719,US,US/Pacific,KCVO,2021-11-24 12:21:00,39.0,39.0,93.0,30.13,3.0,N,3.0,0.0,Cloudy,True,False,True,False,False,False,False,False,False,False,False,True,False,Day,Day,Day,Day
C-5808456,2,2020-06-12 07:00:00.000000000,2020-07-10 17:00:00.000000000,38.739231,-96.501183,,,22.5599994659,Intermittent lane closures due to long-term construction on KS-177 both ways from KS-4 to Council Grove Wildlife Area.,1000.0,Highway 177,L,Council Grove,Morris,KS,66846,US,US/Central,KEMP,2020-06-12 06:53:00,66.0,66.0,73.0,28.98,10.0,S,6.0,0.0,Mostly Cloudy,False,False,False,False,False,False,False,False,False,False,False,False,False,Day,Day,Day,Day
C-5808457,2,2021-03-30 05:45:30.000000000,2021-03-30 20:30:10.000000000,26.181446,-80.13534399999998,26.183641,-80.13472800000002,0.1563956099939999,Slow traffic on FL-811 from NE 7th Ter to NE 46th Ct due to roadwork.,872.0,NE 44th St,R,Oakland Park,Broward,FL,33334-3151,US,US/Eastern,KFXE,2021-03-30 05:53:00,75.0,75.0,82.0,30.1,10.0,E,7.0,0.0,Partly Cloudy,False,False,False,False,False,False,False,False,False,False,False,False,False,Night,Night,Night,Night
C-5808458,2,2020-10-02 04:00:00.000000000,2020-10-02 12:45:00.000000000,33.72675,-84.76695600000002,33.729,-84.755776,0.66098805946,Construction on I-20 EB near GA-5 Construction. Right lane closed.,,GA-402 E,R,Douglasville,Douglas,GA,30135,US,US/Eastern,KFTY,2020-10-02 03:53:00,54.0,54.0,64.0,29.17,10.0,NNW,5.0,0.0,Fair,False,False,False,False,False,False,False,False,False,False,False,False,False,Night,Night,Night,Night
C-5808459,2,2021-01-21 19:26:43.000000000,2021-01-22 20:11:44.000000000,33.737509,-80.213433,33.707795000000004,-80.241833,2.62271735186,Construction on I-95 SB near EXIT 122 Construction. Left lane closed.,,I-95 S,R,Alcolu,Clarendon,SC,29001,US,US/Eastern,KMNI,2021-01-21 19:35:00,55.0,55.0,82.0,29.76,10.0,WSW,9.0,0.0,Cloudy,False,False,False,False,True,False,False,False,False,False,False,False,False,Night,Night,Night,Night
C-5808460,4,2018-10-02 16:16:45.000000000,2018-10-02 18:16:43.000000000,41.639447,-83.554364,41.64014,-83.55339000000002,0.0694413341182,At Collingwood Blvd - Roadwork.,,Anthony Wayne Trl,R,Toledo,Lucas,OH,43604,US,US/Eastern,KTDZ,2018-10-02 15:53:00,75.0,,71.0,30.01,10.0,West,15.0,,Overcast,False,False,False,False,False,False,False,False,False,False,False,False,False,Day,Day,Day,Day
C-5808461,3,2019-05-13 20:02:58.000000000,2019-05-17 20:02:13.000000000,35.22437,-80.86529,35.2172,-80.84401,1.29929803036,Between I-77/US-21/Exit 1 and Stonewall St/South Blvd/Exit 1 - Construction work.,,I-77 N,R,Charlotte,Mecklenburg,NC,28208,US,US/Eastern,KCLT,2019-05-13 19:52:00,69.0,69.0,39.0,29.03,10.0,NNW,9.0,0.0,Fair,False,False,False,False,True,False,False,False,False,False,False,False,False,Day,Day,Day,Day
C-5808462,2,2021-02-22 21:14:00.000000000,2021-02-22 22:37:00.000000000,35.110107,-81.597048,35.125007000000004,-81.5625,2.20731656575,Stationary traffic on I-85 N from SC-18/Shelby Hwy/Exit 96 (I-85) to SC-5/Exit 99 (I-85) due to roadwork.,,I-85 N,R,Gaffney,Cherokee,SC,29340,US,US/Eastern,KEHO,2021-02-22 21:15:00,44.0,44.0,100.0,29.05,10.0,CALM,0.0,0.0,Fair,False,False,False,False,False,False,False,False,False,False,False,False,False,Night,Night,Night,Night
C-5808463,2,2021-11-23 01:58:21.000000000,2021-11-24 06:48:23.000000000,47.697605,-96.266448,47.716393,-96.266327,1.29813935707,Construction on MN-32 NB near 220TH AVE Allow extra time.,,State Highway 32 SW,R,Mentor,Polk,MN,56736,US,US/Central,KFSE,2021-11-23 01:55:00,21.0,13.0,74.0,28.55,10.0,SSE,7.0,0.0,Fair,False,False,False,False,False,False,False,False,False,False,False,False,False,Night,Night,Night,Night
C-5808464,2,2020-10-21 21:26:30.000000000,2020-10-21 22:41:30.000000000,39.74089,-104.733593,39.74014,-104.71607,0.932424478456,Slow traffic on I-70 from CO-32/Tower Rd/Exit 285 (I-70) to E-470/Exit 289 (I-70) due to roadwork.,,I-70 E,R,Aurora,Adams,CO,80019,US,US/Mountain,KDEN,2020-10-21 21:53:00,51.0,51.0,48.0,24.38,10.0,SW,10.0,0.0,Partly Cloudy,False,False,False,False,False,False,False,False,False,False,False,False,False,Night,Night,Night,Night
C-5808465,2,2021-10-20 11:51:30.000000000,2021-10-20 12:12:30.000000000,27.846191,-82.688796,27.844052,-82.687283,0.1743164081929999,Slow traffic on US-19 S from CR-611/49th St (US-19) to FL-694/Gandy Blvd/Park Blvd (US-19) due to roadwork.,8118.0,US Highway 19 N,L,Pinellas Park,Pinellas,FL,33781-1743,US,US/Eastern,KPIE,2021-10-20 11:53:00,83.0,83.0,49.0,30.2,10.0,E,9.0,0.0,Fair,False,False,True,False,False,False,False,False,False,False,False,False,False,Day,Day,Day,Day
C-5808466,2,2021-09-29 10:39:00.000000000,2021-09-29 12:40:41.000000000,28.999677,-81.302724,28.998909,-81.301778,0.0779993400408999,Slow traffic on FL-15A - US-92 W - US-17 S from W Chipola Ave to Taylor Rd E / S State Road 15A due to roadwork.,1592.0,S Woodland Blvd,R,Deland,Volusia,FL,32720,US,US/Eastern,KDED,2021-09-29 10:30:00,80.0,80.0,62.0,29.97,10.0,W,3.0,0.0,Fair,False,False,False,False,False,False,False,False,False,False,False,False,False,Day,Day,Day,Day
C-5808467,2,2021-07-21 19:28:00.000000000,2021-08-19 21:00:30.000000000,40.3094,-76.880712,40.311356,-76.881091,0.136613975239,Construction on US-22 WB near ELMERTON AVE Allow extra time.,,US-22 W,R,Harrisburg,Dauphin,PA,17110,US,US/Eastern,KCXY,2021-07-28 17:56:00,85.0,85.0,44.0,29.6,10.0,NE,6.0,0.0,Fair,False,False,False,False,False,False,False,False,False,False,False,False,False,Day,Day,Day,Day
C-5808468,2,2020-10-01 10:10:00.000000000,2020-10-05 04:06:07.000000000,40.774196,-74.06002600000002,40.780281,-74.054348,0.514801951129,Queuing traffic on I-95 N - New Jersey Tpke N - NJ-495 E from exit [15X] to NJ-3 W due to roadwork.,,New Jersey Tpke N,R,Secaucus,Hudson,NJ,07094,US,US/Eastern,KTEB,2020-10-01 09:51:00,65.0,65.0,65.0,29.88,10.0,VAR,6.0,0.0,Mostly Cloudy,False,False,False,False,True,False,False,False,False,False,False,False,False,Day,Day,Day,Day
C-5808469,2,2021-05-18 07:17:50.000000000,2021-05-19 08:03:26.000000000,39.328201,-77.667392,39.328317,-77.667602,0.0137915416581,Construction on MD-180 WB near MOUNTAIN RD Expect long delays.,,MD-180,R,Knoxville,Frederick,MD,21758,US,US/Eastern,KFDK,2021-05-18 07:47:00,55.0,55.0,94.0,30.06,7.0,CALM,0.0,0.0,Fair,False,False,False,False,False,False,False,False,False,False,False,False,False,Day,Day,Day,Day
C-5808470,2,2020-11-22 09:18:30.000000000,2020-11-22 16:39:30.000000000,41.668672,-84.858583,41.669906,-84.861071,0.154139700066,Slow traffic on I-90 W - I-80 W - Indiana East-West Toll Rd W from IN--OH State Border (I-90/I-80) to Eastpoint Barrier Toll Plaza (I-90/I-80) due to roadwork.,1786.0,N 700 E,R,Angola,Steuben,IN,46703,US,US/Eastern,KANQ,2020-11-22 09:15:00,32.0,26.0,100.0,29.14,1.0,ENE,7.0,0.0,Light Snow,False,False,False,False,False,False,False,False,False,False,False,False,False,Day,Day,Day,Day
C-5808471,2,2020-08-18 03:00:00.000000000,2020-08-22 12:45:00.000000000,40.738774,-74.076492,40.738643,-74.074555,0.101808278856,Construction moving operation on NJ 7 both directions Charlotte Circle (Jersey City) to Cathedral Av/Glendale St (Nutley Twp) until 5:00 A.M.,,NJ-7,R,Jersey City,Hudson,NJ,07306,US,US/Eastern,KJRB,2020-08-18 02:51:00,68.0,68.0,87.0,29.78,10.0,W,10.0,0.0,Mostly Cloudy,False,False,False,False,False,False,False,False,False,False,False,False,False,Night,Night,Night,Night
C-5808472,2,2020-07-24 11:27:00.000000000,2020-07-24 15:45:00.000000000,34.194818,-81.353398,34.220597,-81.410954,3.74013774682,Construction on I-26 WB near EXIT 91 Construction. Left lane closed.,,I-26 W,R,Chapin,Lexington,SC,29036,US,US/Eastern,KFDW,2020-07-24 11:35:00,86.0,86.0,62.0,29.58,10.0,NNW,6.0,0.0,Fair,False,False,False,False,True,False,False,False,False,False,False,False,False,Day,Day,Day,Day
C-5808473,2,2020-03-18 08:04:29.000000000,2020-03-22 08:06:26.000000000,41.3472,-74.93309,41.34167,-74.91597,0.966758173358,At US-6/Exit 46 - Roadwork. Open.,,I-84 E,R,Milford,Pike,PA,18337,US,US/Eastern,KFWN,2020-03-18 07:53:00,29.0,29.0,89.0,29.98,10.0,CALM,0.0,0.0,Fair,False,False,False,False,False,False,False,False,False,False,False,False,False,Day,Day,Day,Day
C-5808474,2,2017-03-06 07:00:00.000000000,2017-11-08 09:00:00.000000000,38.98941,-95.69648,38.99246,-95.69262,0.295599593862,Ramp to Exit 177 - Construction work.,,I-335 N,R,Topeka,Shawnee,KS,66609,US,US/Central,KFOE,2017-03-06 06:53:00,62.1,,80.0,29.62,10.0,South,20.7,,Overcast,False,False,False,False,False,False,False,False,False,False,False,False,False,Day,Day,Day,Day
C-5808475,2,2021-11-18 16:28:29.000000000,2021-11-18 18:42:13.000000000,32.578426,-97.355517,32.578916,-97.353236,0.1370513713,Slow traffic on FM-731 from Roberts St to E Mission St due to roadwork.,320.0,E Main St,R,Crowley,Tarrant,TX,76036-2677,US,US/Central,KFWS,2021-11-18 16:50:00,57.0,57.0,21.0,29.69,10.0,N,8.0,0.0,Fair,False,False,False,False,False,False,False,False,False,False,False,False,False,Day,Day,Day,Day
C-5808476,3,2019-09-20 04:10:22.000000000,2019-09-20 06:18:07.000000000,41.551472,-73.040237,,,0.0,Two lanes closed due to construction on I-84 Westbound at Exit 21 Field St.,,I-84 W,R,Waterbury,New Haven,CT,06706,US,US/Eastern,KOXC,2019-09-20 03:51:00,40.0,40.0,97.0,29.45,10.0,NNW,3.0,0.0,Fair,False,False,False,False,False,False,False,False,False,False,False,False,False,Night,Night,Night,Night
C-5808477,2,2019-03-02 23:02:13.000000000,2019-04-02 09:04:11.000000000,25.82496,-80.207623,25.82549,-80.18691,1.28872103521,Between 7th Ave and US-1/Biscayne Blvd - Construction work.,674.0,NW 54th St,L,Miami,Miami-Dade,FL,33127,US,US/Eastern,KMIA,2019-03-06 20:53:00,60.1,,64.0,30.29,10.0,North,5.8,,Partly Cloudy,False,False,False,False,False,False,False,False,False,False,False,True,False,Night,Night,Night,Night
C-5808478,2,2021-12-21 16:23:03.000000000,2021-12-21 18:28:17.000000000,25.898625,-80.17969699999998,25.899849,-80.176793,0.199325331155,Slow traffic on FL-916 - FL-909 from NE 133rd St to NE 11th Ave due to roadwork.,13379.0,W Dixie Hwy,R,North Miami,Miami-Dade,FL,33161-4134,US,US/Eastern,KOPF,2021-12-21 16:53:00,74.0,74.0,79.0,29.76,10.0,SW,13.0,0.0,Fair,False,False,False,False,False,False,False,False,False,False,False,False,False,Day,Day,Day,Day
C-5808479,2,2020-09-22 23:13:35.000000000,2020-09-23 00:33:56.000000000,40.692666,-73.856321,40.693692,-73.85206099999998,0.234159076116,Queuing traffic from 75th St (Jamaica Ave) to Woodhaven Blvd (Jamaica Ave) due to resurfacing work.,8703.0,88th St,L,Woodhaven,Queens,NY,11421-2032,US,US/Eastern,KJFK,2020-09-22 22:51:00,64.0,64.0,37.0,29.88,10.0,NW,17.0,0.0,Mostly Cloudy,True,False,False,False,False,False,False,False,True,False,False,True,False,Night,Night,Night,Night
C-5808480,2,2020-09-11 01:01:00.000000000,2020-09-11 18:07:08.000000000,42.760924,-104.438213,42.755684,-104.419183,1.03104965901,Roadwork on US-20 from US-18/Main St/S Cedar St (US-20) to S Van Tassell Rd (US-20).,4200.0,US Highway 20,L,Lusk,Niobrara,WY,82225,US,US/Mountain,KSIB,2020-09-11 00:53:00,47.0,47.0,66.0,25.2,10.0,SE,3.0,0.0,Cloudy,False,False,False,False,False,False,False,False,False,False,False,False,False,Night,Night,Night,Night
C-5808481,1,2020-10-01 10:28:42.000000000,2020-10-31 23:59:00.000000000,39.519939,-87.570442,,,0.0,Road closed due to construction work on Midwestern Gas St both ways between CR-4 and 2075 E.,2834.0,Midwestern Gas St,R,Paris,Edgar,IL,61944-6211,US,US/Central,KPRG,2020-10-01 10:35:00,64.0,,40.0,29.35,10.0,,,0.0,Fair,False,False,False,False,False,False,False,False,False,False,False,False,False,Day,Day,Day,Day
C-5808482,4,2019-05-10 23:34:59.000000000,2019-05-11 04:34:39.000000000,29.698661,-95.284489,29.69677,-95.2912,0.423442722933,Closed at I-45/Exit 32 - Closed due to roadwork.,,I-610 W,R,Houston,Harris,TX,77012,US,US/Central,KHOU,2019-05-10 23:53:00,71.0,71.0,87.0,29.87,8.0,N,5.0,0.0,Partly Cloudy,False,False,False,False,False,False,False,False,False,False,False,False,False,Night,Night,Night,Night
C-5808483,2,2021-02-18 05:38:00.000000000,2021-02-18 12:41:33.000000000,33.480214000000004,-112.045549,33.480207,-112.048283,0.157558950845,Slow traffic from AZ-51 (E Thomas Rd) to N 7th St (E Thomas Rd) due to roadwork.,1698.0,E Thomas Rd,L,Phoenix,Maricopa,AZ,85016-7604,US,US/Mountain,KPHX,2021-02-18 05:51:00,44.0,42.0,28.0,28.95,10.0,SW,5.0,0.0,Fair,True,False,False,False,False,False,False,False,True,False,False,False,False,Night,Night,Night,Night
C-5808484,2,2020-12-29 16:46:00.000000000,2020-12-30 17:39:42.000000000,40.13766,-75.110815,40.130586,-75.110249,0.489680471879,Utility work on PA 63 both directions between DIVISION AV and SILVER AV. There is a traffic disruption.,2062.0,E Moreland Rd,R,Abington,Montgomery,PA,19001-1112,US,US/Eastern,KPNE,2020-12-29 16:54:00,36.0,30.0,36.0,30.37,10.0,NW,7.0,0.0,Fair,False,False,True,False,False,False,False,False,False,False,False,False,False,Night,Day,Day,Day
C-5808485,2,2019-07-02 09:31:28.000000000,2019-07-06 09:31:11.000000000,30.48151,-81.6438,30.481254,-81.642209,0.0963720816527999,At I-95 - Construction work.,,Max Leggett Pkwy,R,Jacksonville,Duval,FL,32218,US,US/Eastern,KJAX,2019-07-02 09:56:00,89.0,89.0,63.0,29.96,10.0,N,6.0,0.0,Mostly Cloudy,False,False,True,False,False,False,False,False,False,False,False,True,False,Day,Day,Day,Day
C-5808486,3,2021-12-06 09:00:00.000000000,2021-12-06 18:00:00.000000000,36.811337,-81.57473,,,0.0,Left hand shoulder closed and left lane closed due to paving repairs on I-81 Northbound after Exit 39 US-11.,,I-81 N,R,Marion,Smyth,VA,24354,US,US/Eastern,KMKJ,2021-12-06 08:55:00,,,,27.26,10.0,CALM,0.0,0.0,Fair,False,False,False,False,False,False,False,False,False,False,False,False,False,Day,Day,Day,Day
C-5808487,2,2021-09-02 17:32:46.000000000,2021-09-02 17:54:37.000000000,42.672743,-82.911123,42.67314,-82.897101,0.712843936701,Slow traffic from Romeo Plank Rd (23 Mile Rd) to North Ave (23 Mile Rd) due to roadwork.,21097.0,23 Mile Rd,R,Macomb,Macomb,MI,48042-4302,US,US/Eastern,KMTC,2021-09-02 17:56:00,75.0,75.0,39.0,29.47,10.0,NNE,8.0,0.0,Fair,False,False,False,False,False,False,False,False,False,False,False,False,False,Day,Day,Day,Day
C-5808488,2,2019-06-06 14:30:32.000000000,2019-07-22 12:18:37.000000000,41.20092,-76.76883000000002,41.253911,-76.88631600000002,7.11888282247,Between Main Street/Exit 10 and Fairfield Road/Exit 20 - Roadwork. Lane blocked. Open.,,I-180 W,R,Muncy,Lycoming,PA,17756,US,US/Eastern,KIPT,2019-06-06 14:54:00,79.0,79.0,50.0,29.24,10.0,N,13.0,0.0,Fair,False,False,False,False,False,False,False,False,False,False,False,False,False,Day,Day,Day,Day
C-5808489,4,2020-10-18 17:00:00.000000000,2020-10-19 12:00:00.000000000,28.606241,-81.386021,28.610531,-81.38623100000002,0.2966843537269999,Closed road from exit [88] to I-4 E due to roadwork.,,I-4 E,R,Winter Park,Orange,FL,32789,US,US/Eastern,KORL,2020-10-18 16:53:00,74.0,74.0,85.0,29.96,10.0,NNE,12.0,0.01,Light Rain,False,False,True,False,False,False,False,False,False,False,False,True,False,Day,Day,Day,Day
C-5808490,2,2021-06-17 11:26:12.000000000,2021-06-17 12:03:47.000000000,40.82471500000001,-73.87145600000002,40.82442,-73.87366,0.117022714624,Stationary traffic from I-278/Bruckner Expy/White Plains Rd (Bruckner Blvd) to Bronx River Pkwy/Morrison Ave (Bruckner Blvd) due to roadwork.,1659.0,Bruckner Blvd,L,Bronx,Bronx,NY,10472-6416,US,US/Eastern,KLGA,2021-06-17 11:51:00,74.0,74.0,24.0,29.96,10.0,NNW,7.0,0.0,Fair,False,False,True,False,False,False,False,False,False,False,False,True,False,Day,Day,Day,Day
C-5808492,2,2019-09-03 11:14:09.000000000,2019-09-07 11:13:22.000000000,33.8438,-84.37141,33.846838,-84.368092,0.283397406388,Between Bolling Way and GA-141-CONN/Buckhead Loop/Lenox Rd - Construction work. Right lane blocked.,3256.0,Peachtree Rd NE,L,Atlanta,Fulton,GA,30305-2421,US,US/Eastern,KPDK,2019-09-03 10:53:00,85.0,85.0,53.0,28.99,10.0,VAR,5.0,0.0,Fair,False,False,True,False,False,False,False,False,False,False,False,True,False,Day,Day,Day,Day
C-5808493,2,2019-04-17 09:00:00.000000000,2019-05-31 15:00:00.000000000,40.32711,-75.994102,,,1.67999994755,Lane closed due to utility work on US-422 Penn Ave both ways between Dwight St and Wyomissing Blvd.,2302.0,Penn Ave,R,Reading,Berks,PA,19609-1652,US,US/Eastern,KRDG,2019-04-17 08:54:00,52.0,52.0,66.0,29.75,10.0,ENE,9.0,0.0,Cloudy,False,False,False,False,False,False,False,False,False,False,False,True,False,Day,Day,Day,Day
C-5808494,2,2021-11-30 07:15:30.000000000,2021-11-30 07:46:00.000000000,27.090021000000004,-82.444034,27.096112,-82.44430899999998,0.421187839016,Stationary traffic on US-41 Bus N - US-41 Bus S from US-41 Byp/FL-45/Venice Byp (US-41 Bus) to W Venice Ave (US-41 Bus/Tamiami Trl) due to roadwork.,,Tamiami Trl S,R,Venice,Sarasota,FL,34285,US,US/Eastern,KVNC,2021-11-30 06:53:00,50.0,50.0,89.0,30.11,10.0,NNE,7.0,0.0,Fair,False,False,True,False,False,False,False,False,False,False,False,True,False,Day,Day,Day,Day
C-5808495,2,2016-09-14 09:00:59.000000000,2016-09-14 15:00:59.000000000,39.11108,-76.85288,39.11867,-76.85223,0.5255754465370001,At All Saints Rd - Construction work.,100.0,7th St,L,Laurel,Howard,MD,20723,US,US/Eastern,KFME,2016-09-14 09:00:00,68.0,,94.0,30.14,7.0,Calm,,,Clear,False,False,False,False,False,False,False,False,False,False,False,True,False,Day,Day,Day,Day
C-5808496,2,2021-04-16 05:19:30.000000000,2021-04-16 19:17:15.000000000,33.509438,-112.1376,33.51027,-112.134177,0.20540531064,Slow traffic from N 37th Ave to W Pasadena Ave due to roadwork.,3658.0,W Camelback Rd,R,Phoenix,Maricopa,AZ,85019-2709,US,US/Mountain,KGEU,2021-04-16 04:58:00,58.0,58.0,24.0,28.67,10.0,NNW,5.0,0.0,Fair,True,False,False,False,False,False,False,False,True,False,False,False,False,Night,Night,Day,Day
C-5808497,2,2021-03-16 05:00:30.000000000,2021-03-16 19:45:05.000000000,25.798577,-80.128679,25.798959,-80.127775,0.0621207758839999,Slow traffic on FL-A1A from Pine Tree Dr / Dade Blvd to Indian Creek Dr due to roadwork.,251.0,23rd St,R,Miami Beach,Miami-Dade,FL,33139-1713,US,US/Eastern,KMIA,2021-03-16 04:53:00,72.0,72.0,81.0,30.05,10.0,ESE,8.0,0.0,Fair,True,False,False,False,False,False,False,False,True,False,False,False,False,Night,Night,Night,Night
C-5808498,2,2021-07-30 19:18:04.000000000,2021-07-30 20:37:30.000000000,25.816964,-80.123463,25.813269,-80.123968,0.257225149113,Slow traffic on FL-A1A from FL-A1A/Indian Creek Dr (Miami Beach) (North) (FL-A1A) to Arthur Godfrey Rd/41st St (FL-A1A) due to roadwork.,4440.0,Collins Ave,L,Miami Beach,Miami-Dade,FL,33140,US,US/Eastern,KMIA,2021-07-30 18:53:00,87.0,87.0,67.0,30.03,10.0,S,5.0,0.0,Mostly Cloudy,False,False,True,False,False,False,False,False,False,False,False,True,False,Day,Day,Day,Day
C-5808499,2,2021-08-26 17:41:30.000000000,2021-08-26 19:54:42.000000000,34.075226,-118.022328,34.07415,-118.02191299999998,0.0780461646325,Stationary traffic from Forest Grove St to Ferris Rd due to roadwork.,3827.0,Peck Rd,L,El Monte,Los Angeles,CA,91732-2242,US,US/Pacific,KEMT,2021-08-26 17:53:00,89.0,89.0,31.0,29.66,10.0,VAR,6.0,0.0,Fair,False,False,False,False,False,False,False,False,False,True,False,False,False,Day,Day,Day,Day
C-5808500,2,2020-09-03 16:06:30.000000000,2020-09-04 02:26:30.000000000,47.611604,-122.188821,47.595576,-122.181577,1.1577081929200002,Queuing traffic on I-405 from 8th St/Exit 13 (I-405) to I-90/Exit 11 (I-405) due to roadwork.,,I-405 S,R,Bellevue,King,WA,98004,US,US/Pacific,KBFI,2020-09-03 15:53:00,81.0,81.0,39.0,30.04,10.0,NNW,8.0,0.0,Fair,False,False,False,False,False,False,False,False,False,False,False,False,False,Day,Day,Day,Day
C-5808501,2,2021-06-17 18:04:52.000000000,2021-06-17 20:10:11.000000000,25.734092,-80.284436,25.733237,-80.286463,0.139308133148,Stationary traffic on FL-959 - FL-976 from Alhambra Cir to SW 57th Ave / Sarria Ave due to roadwork.,1501.0,Bird Rd,R,Coral Gables,Miami-Dade,FL,33146-1058,US,US/Eastern,KMIA,2021-06-17 17:53:00,86.0,86.0,63.0,30.0,10.0,ENE,9.0,0.0,Cloudy,False,False,True,False,False,False,False,False,True,False,False,True,False,Day,Day,Day,Day
C-5808502,4,2021-11-24 06:46:30.000000000,2021-11-24 08:49:20.000000000,41.104159,-114.985453,41.025967,-115.084947,7.486749842080001,Road Closed - on SR-231 in both directions from Wells to Angel Lake in Elko County Nevada. Annual road closure due to winter conditions.,,Angel Lake Rd,R,Wells,Elko,NV,89835,US,US/Pacific,K9BB,2021-11-24 06:56:00,19.0,19.0,77.0,25.11,10.0,ENE,3.0,0.0,Fair,False,False,False,False,False,False,False,False,False,False,False,False,False,Day,Day,Day,Day
C-5808503,3,2019-07-09 23:03:35.000000000,2019-07-10 05:01:00.000000000,32.629166,-117.095871,,,0.0,One lane closed due to construction work on H St both ways at I-5 Exit 8A.,,H St,R,Chula Vista,San Diego,CA,91910,US,US/Pacific,KNRS,2019-07-09 22:56:00,67.0,67.0,76.0,30.02,10.0,VAR,3.0,0.0,Cloudy,False,False,False,False,False,False,False,False,False,False,False,False,False,Night,Night,Night,Night
C-5808504,2,2021-02-10 08:53:59.000000000,2021-02-10 16:53:59.000000000,45.49299600000001,-122.672949,45.492855,-122.673093,0.0119814072687,Road maintenance operations are occurring causing no to minimum delays. Use caution.,,S Macadam Ave,R,Portland,Multnomah,OR,97239,US,US/Pacific,KPDX,2021-02-10 08:53:00,36.0,36.0,82.0,30.19,10.0,CALM,0.0,0.0,Mostly Cloudy,False,False,True,False,False,False,False,False,False,True,False,True,False,Day,Day,Day,Day
C-5808505,2,2021-10-14 15:09:30.000000000,2021-10-14 15:29:30.000000000,45.57712100000001,-122.700774,45.577111,-122.695487,0.255690010406,Stationary traffic on US-30 Byp E - US-30 Byp W from N Portsmouth Ave (US-30 Byp/N Lombard St) to N Interstate Ave (US-30 Byp/N Lombard St) due to roadwork.,3283.0,N Lombard St,R,Portland,Multnomah,OR,97217-1205,US,US/Pacific,KVUO,2021-10-14 15:00:00,55.0,55.0,86.0,30.23,10.0,SSE,3.0,0.0,Cloudy,True,False,True,False,False,False,False,False,False,False,False,True,False,Day,Day,Day,Day
C-5808506,2,2018-04-14 09:01:42.000000000,2018-04-14 15:04:42.000000000,32.945409999999995,-96.696084,32.94547,-96.69975,0.212603992922,At Belt Line Rd - Construction work. Right lane closed.,101.0,University Village Dr,L,Richardson,Dallas,TX,75081-3839,US,US/Central,KADS,2018-04-14 08:47:00,46.4,39.5,40.0,30.05,13.0,WNW,17.3,,Clear,False,False,True,False,False,False,False,False,False,False,False,True,False,Day,Day,Day,Day
C-5808507,2,2020-08-26 16:44:17.000000000,2020-08-26 23:45:00.000000000,41.163936,-73.376795,41.163966,-73.379915,0.162301731115,Construction on CT-15 SB near EXIT 41 Construction. Right lane closed.,,CT-15 S,R,Westport,Fairfield,CT,06880,US,US/Eastern,KBDR,2020-08-26 16:52:00,80.0,80.0,27.0,29.85,10.0,W,16.0,0.0,Fair,False,False,False,False,True,False,False,False,False,False,False,False,False,Day,Day,Day,Day
C-5808508,2,2020-11-03 17:48:14.000000000,2020-11-05 09:59:19.000000000,35.161118,-81.45699599999998,35.146681,-81.497752,2.50915925178,Roadwork on US-29/Exit 106 (I-85) from SC-198/Exit 102 (I-85) to I-85.,,I-85 S,R,Blacksburg,Cherokee,SC,29702,US,US/Eastern,KEHO,2020-11-03 17:55:00,56.0,56.0,35.0,29.35,10.0,S,3.0,0.0,Fair,False,False,False,False,False,False,False,False,False,False,False,False,False,Night,Day,Day,Day
C-5808509,2,2021-10-21 16:46:40.000000000,2021-10-21 18:13:17.000000000,32.554625,-97.108465,32.553885,-97.115345,0.4039238785099999,Stationary traffic from US-287 N to Commerce Dr due to roadwork.,,Heritage Pkwy,R,Mansfield,Tarrant,TX,76063,US,US/Central,KGKY,2021-10-21 16:53:00,86.0,86.0,37.0,29.45,10.0,N,7.0,0.0,Fair,False,False,False,False,False,False,False,False,False,False,False,False,False,Day,Day,Day,Day
C-5808510,2,2021-04-08 05:05:00.000000000,2021-04-08 17:53:26.000000000,32.15361,-90.126592,32.158424,-90.127026,0.3335831248979999,Slow traffic on US-49 N - MS-469 from Steen St to Cross Park Dr due to roadwork.,100.0,Steen St,R,Florence,Rankin,MS,39073-9620,US,US/Central,KJAN,2021-04-08 05:10:00,65.0,65.0,87.0,29.48,10.0,SW,3.0,0.0,Mostly Cloudy,False,False,False,False,False,False,False,False,False,False,False,False,False,Night,Night,Night,Night
C-5808511,2,2021-01-23 15:31:30.000000000,2021-01-24 02:45:24.000000000,33.465017,-112.257458,33.465964,-112.255245,0.1433581944999999,Stationary traffic from N 92nd Pl to W Granada Rd due to roadwork.,9163.0,W McDowell Rd,L,Tolleson,Maricopa,AZ,85353-9011,US,US/Mountain,KGEU,,,,,,,,,,,False,False,False,False,False,False,False,False,False,False,False,False,False,Day,Day,Day,Day
C-5808512,2,2020-10-30 11:11:00.000000000,2020-11-02 21:33:58.000000000,25.728159,-80.259437,25.727406,-80.26129,0.126529485443,Stationary traffic on US-1 S - FL-5 from Ponce de Leon Blvd to S Le Jeune Rd due to roadwork.,263.0,S Dixie Hwy,R,Coral Gables,Miami-Dade,FL,33133-4824,US,US/Eastern,KMIA,2020-10-30 10:53:00,84.0,84.0,72.0,29.95,10.0,S,3.0,0.0,Fair,False,False,True,False,False,False,False,False,False,False,False,True,False,Day,Day,Day,Day
C-5808513,2,2021-03-11 09:09:35.000000000,2021-12-06 13:52:53.000000000,39.174886,-77.023301,39.14934,-77.012359,1.85985394348,Construction on MD-650 SB near WINDSWEPT LN Expect long delays.,499.0,Windswept Ln,R,Brinklow,Montgomery,MD,20862,US,US/Eastern,KGAI,2021-03-11 08:56:00,60.0,60.0,38.0,29.72,10.0,SSW,5.0,0.0,Fair,False,False,True,False,False,False,False,False,False,False,False,True,False,Day,Day,Day,Day
C-5808514,2,2019-01-29 04:58:01.000000000,2019-01-29 05:27:02.000000000,38.996841,-77.025429,,,0.1899999976159999,Construction work on Fenton St Northbound from Wayne Ave to Ellsworth Dr. Look out for flagman.,8491.0,Fenton St,R,Silver Spring,Montgomery,MD,20910-4445,US,US/Eastern,KCGS,2019-01-29 05:03:00,28.4,,80.0,29.95,10.0,Calm,,,Overcast,True,False,False,False,False,False,False,False,False,False,False,True,False,Night,Night,Night,Night
C-5808515,2,2021-10-21 13:21:30.000000000,2021-10-21 15:28:14.000000000,33.484708000000005,-112.073908,33.480165,-112.071914,0.334263433185,Stationary traffic from W United Bank Dr to N 3rd St due to roadwork.,3168.0,N Central Ave,L,Phoenix,Maricopa,AZ,85013,US,US/Mountain,KPHX,2021-10-21 12:51:00,81.0,81.0,22.0,28.89,10.0,CALM,0.0,0.0,Fair,False,False,False,False,False,False,False,False,False,False,False,False,False,Day,Day,Day,Day
C-5808516,2,2018-09-29 04:45:16.000000000,2018-10-03 04:44:39.000000000,40.63721,-74.12685,40.62782,-74.12125,0.712142792076,Between Richmond Ter and Forest Ave - Construction work.,1847.0,Richmond Ter,R,Staten Island,Richmond,NY,10310-1128,US,US/Eastern,KEWR,2018-09-29 04:51:00,54.0,,97.0,30.14,10.0,SW,5.8,,Partly Cloudy,False,False,False,False,False,False,False,False,True,False,False,True,False,Night,Night,Night,Night
C-5808517,2,2021-12-30 18:02:29.000000000,2021-12-31 18:47:32.000000000,44.38310300000001,-93.752996,44.384128,-93.750536,0.140610162868,Construction on MN-99 EB near COUNTY ROAD 45 Allow extra time.,1135.0,W Derrynane St,R,Le Center,Le Sueur,MN,56057,US,US/Central,KMKT,2021-12-30 17:56:00,25.0,16.0,88.0,28.61,10.0,SSE,9.0,0.0,Cloudy,False,False,False,False,False,False,False,False,False,False,False,False,False,Night,Night,Night,Day
C-5808518,2,2020-12-07 09:23:07.000000000,2020-12-07 14:01:00.000000000,37.28315,-121.809868,,,0.6100000143050001,Exit ramp from US-101 Southbound at Exit 380 to Hellyer Ave Westbound closed due to maintenance work.,,Bayshore Fwy S,R,San Jose,Santa Clara,CA,95111,US,US/Pacific,KRHV,2020-12-07 09:47:00,57.0,57.0,44.0,30.05,10.0,CALM,0.0,,Fair,False,False,False,False,False,False,False,False,False,False,False,False,False,Day,Day,Day,Day
C-5808519,2,2021-02-17 15:21:00.000000000,2021-02-17 23:56:21.000000000,38.357546,-119.50841,38.35686,-119.512783,0.241624106228,Roadwork on US-395 (CA-108) from Kennedy Meadow Rd (Sonora Pass Hwy/CA-108) to CA-108.,,State Highway 108,R,Coleville,Mono,CA,96107,US,US/Pacific,KBAN,2021-02-17 15:15:00,43.0,37.0,23.0,25.4,10.0,E,10.0,0.0,Partly Cloudy,False,False,False,False,False,False,False,False,False,False,False,False,False,Day,Day,Day,Day
C-5808520,2,2020-10-25 14:35:00.000000000,2020-10-25 23:54:17.000000000,25.946466,-80.147125,25.947572,-80.14814,0.0990770141298,Slow traffic on US-1 N - FL-860 - FL-5 from NE 183rd St to W Dixie Hwy due to roadwork.,18491.0,Biscayne Blvd,L,Miami,Miami-Dade,FL,33180-2916,US,US/Eastern,KHWO,2020-10-25 14:53:00,87.0,87.0,74.0,29.87,10.0,S,13.0,0.02,Cloudy,False,False,False,False,False,False,False,False,False,False,False,False,False,Day,Day,Day,Day
C-5808521,4,2016-10-26 09:00:00.000000000,2016-10-28 17:00:00.000000000,48.15192,-122.206549,48.15193,-122.205822,0.0335190663274,Closed at 19th Ave NE - Closed due to roadwork.,1691.0,172nd St NE,L,Marysville,Snohomish,WA,98271-4039,US,US/Pacific,KAWO,2016-10-26 08:55:00,50.0,,71.0,29.86,10.0,NNE,3.5,,Overcast,False,False,True,False,False,False,True,False,False,False,False,False,False,Day,Day,Day,Day
C-5808522,3,2016-09-24 06:00:00.000000000,2016-09-24 23:00:00.000000000,33.632589,-112.342149,33.64474000000001,-112.35795,1.23733767168,Between Dysart Rd and Litchfield Rd - Roadwork.,,N Dysart Rd,R,Surprise,Maricopa,AZ,85378,US,US/Mountain,KGEU,2016-09-24 06:47:00,60.8,,42.0,30.02,10.0,Calm,,,Clear,False,False,True,False,False,False,True,False,False,False,False,True,False,Night,Day,Day,Day
C-5808523,2,2021-08-20 14:54:47.000000000,2021-08-20 18:07:28.000000000,28.567519,-81.213797,28.567819,-81.207596,0.37685645775,Slow traffic on FL-434 - FL-50 from Armone St to Orpington St due to roadwork.,11500.0,E Colonial Dr,R,Orlando,Orange,FL,32817-4605,US,US/Eastern,KORL,2021-08-20 14:53:00,93.0,93.0,52.0,29.79,10.0,WSW,3.0,0.0,Fair,False,False,True,False,False,False,False,False,False,False,False,False,False,Day,Day,Day,Day
C-5808524,2,2021-09-18 14:33:30.000000000,2021-09-18 14:54:30.000000000,25.942301,-80.31118599999998,25.941536,-80.306998,0.265520588989,Slow traffic on FL-860 from NW 68th Ave to Mediterranean Blvd due to roadwork.,,NW 186th St,R,Hialeah,Miami-Dade,FL,33015,US,US/Eastern,KOPF,2021-09-18 14:53:00,87.0,87.0,72.0,30.01,10.0,SE,13.0,0.05,Partly Cloudy,False,False,False,False,False,False,False,False,False,False,False,False,False,Day,Day,Day,Day
C-5808525,2,2021-11-24 21:26:00.000000000,2021-11-24 21:47:00.000000000,32.895944,-97.303502,32.896105,-97.306836,0.193740999906,Stationary traffic from Rainy Lake Dr (N Tarrant Pkwy) to I-35W (N Tarrant Pkwy) due to roadwork.,3899.0,N Tarrant Pkwy,R,Keller,Tarrant,TX,76244,US,US/Central,KAFW,2021-11-24 21:53:00,69.0,69.0,70.0,29.24,10.0,SSW,10.0,0.0,Mostly Cloudy,False,False,False,False,False,False,False,False,False,False,False,True,False,Night,Night,Night,Night
C-5808526,2,2016-09-11 20:01:25.000000000,2016-09-12 02:01:25.000000000,39.05177,-76.92539000000002,39.04777,-76.93643,0.653681908222,At I-95 - Construction work.,,Powder Mill Rd,R,Beltsville,Prince George's,MD,20705,US,US/Eastern,KCGS,2016-09-11 19:51:00,68.0,,64.0,30.09,10.0,Calm,,,Clear,False,False,False,False,False,False,False,False,False,False,False,False,False,Night,Night,Day,Day
C-5808527,2,2020-05-12 19:59:25.000000000,2020-05-13 06:00:00.000000000,37.64453,-122.4064,37.62463,-122.40134,1.4025573133000002,Between Airport Blvd/Produce Ave/Exit 424 and San Bruno Ave - Roadwork. Lane closed.,,Bayshore Fwy S,R,South San Francisco,San Mateo,CA,94080,US,US/Pacific,KSFO,2020-05-12 19:56:00,58.0,58.0,67.0,30.01,10.0,SW,12.0,0.0,Partly Cloudy,False,False,False,False,False,False,False,False,False,False,False,False,False,Day,Day,Day,Day
C-5808528,2,2021-11-15 11:27:00.000000000,2021-11-15 13:55:42.000000000,28.803036,-81.889045,28.804074,-81.88755400000002,0.115294150522,Slow traffic on FL-25 - US-27 N - FL-44 from Hood Ave / Flamingo Dr to Buena Vista Ave due to roadwork.,1416.0,South St,L,Leesburg,Lake,FL,34748-6628,US,US/Eastern,KLEE,2021-11-15 11:53:00,70.0,70.0,38.0,30.14,10.0,N,12.0,0.0,Fair,False,False,False,False,False,False,False,False,False,False,False,False,False,Day,Day,Day,Day
C-5808529,2,2021-08-10 23:48:18.000000000,2021-08-11 07:48:18.000000000,45.532976,-122.632387,45.529966,-122.646047,0.693097417541,Road maintenance have the right lanes closed in a moving operation between I-5 and I-205.. Use caution.,,I-84 W,R,Portland,Multnomah,OR,97232,US,US/Pacific,KPDX,2021-08-10 23:53:00,78.0,78.0,48.0,29.96,10.0,WNW,8.0,0.0,Fair,False,False,False,False,True,False,False,False,False,False,False,False,False,Night,Night,Night,Night
C-5808530,2,2021-09-06 07:07:06.000000000,2021-09-10 01:58:43.000000000,30.003723,-90.390972,30.004687,-90.392269,0.102268667055,Roadwork on Ormond Blvd (US-61) from Apple St (US-61) to US-61 N.,15704.0,Airline Hwy,R,Norco,St. Charles,LA,70079,US,US/Central,KMSY,2021-09-06 06:53:00,79.0,79.0,90.0,29.92,7.0,S,3.0,0.0,Fair,False,False,False,False,False,False,False,False,False,False,False,False,False,Day,Day,Day,Day
C-5808531,2,2021-07-02 15:48:36.000000000,2021-07-02 16:01:36.000000000,39.753583,-86.165722,39.753253,-86.150566,0.8053985494939999,Slow traffic on I-70 E from Harding St/Exit 78 (I-70) to I-70/Exit 80 (I-70) due to roadwork.,,I-70 E,R,Indianapolis,Marion,IN,46225,US,US/Eastern,KIND,2021-07-02 15:54:00,77.0,77.0,43.0,29.17,10.0,N,14.0,0.0,Mostly Cloudy,False,False,False,False,True,False,False,False,False,False,False,False,False,Day,Day,Day,Day
C-5808532,2,2021-06-29 19:37:07.000000000,2021-06-29 21:38:35.000000000,40.811777,-73.95743900000002,40.813787,-73.956693,0.144252829432,Slow traffic from Seminary Row / Morningside Dr to Broadway due to roadwork.,1284.0,Amsterdam Ave,L,New York,New York,NY,10027-4225,US,US/Eastern,KNYC,2021-06-29 19:51:00,90.0,90.0,52.0,30.0,10.0,VAR,5.0,0.0,Fair,True,False,True,False,False,False,False,False,True,False,False,True,False,Day,Day,Day,Day
C-5808533,2,2021-10-26 19:02:30.000000000,2021-10-26 19:22:30.000000000,26.944181,-80.084499,26.948075,-80.084958,0.270530996132,Stationary traffic on US-1 N - FL-A1A - FL-5 from FL-706/E Indiantown Rd (FL-A1A/US-1) to County Line Rd (US-1) due to roadwork.,,N Highway A1A,R,Jupiter,Palm Beach,FL,33477,US,US/Eastern,KPBI,2021-10-26 18:53:00,85.0,85.0,61.0,29.8,10.0,W,8.0,0.0,Partly Cloudy,False,False,True,False,False,False,False,False,False,False,False,True,False,Night,Day,Day,Day
C-5808534,2,2021-09-24 11:05:00.000000000,2021-09-24 11:26:00.000000000,33.981068,-79.898336,33.978377,-79.90628199999998,0.49176743944,Stationary traffic on US-301 S - US-301 N from Sardis Hwy/Hall Rd (US-301) to SC-341/Hampton St (US-301) due to roadwork.,1630.0,N Jones Rd,R,Scranton,Florence,SC,29591-5644,US,US/Eastern,KCKI,2021-09-24 11:15:00,68.0,68.0,46.0,30.06,10.0,CALM,0.0,0.0,Fair,False,False,False,False,False,False,False,False,False,False,False,False,False,Day,Day,Day,Day
C-5808535,2,2021-03-29 08:43:00.000000000,2021-06-29 07:20:08.000000000,40.323437,-77.170789,40.310973,-77.152777,1.2814274714,Roadwork on PA 34 both directions between RICHWINE RD YOUNGS CHURCH RD and SOUDER LN. There is a hauler restriction.,,Souder,R,Shermans Dale,Perry,PA,17090,US,US/Eastern,KCXY,2021-03-29 08:56:00,44.0,36.0,42.0,29.72,10.0,WNW,20.0,0.0,Cloudy,False,False,False,False,False,False,False,False,False,False,False,False,False,Day,Day,Day,Day
C-5808537,3,2019-09-06 20:00:00.000000000,2019-09-07 06:00:00.000000000,32.949909000000005,-97.03997,,,0.509999990463,Exit ramp from Tx-121 Southbound to I-635 Eastbound closed due to construction during the night.,,TX-121 N,R,Dallas,Tarrant,TX,75261,US,US/Central,KDFW,2019-09-06 19:53:00,91.0,91.0,39.0,29.32,10.0,SE,8.0,0.0,Fair,False,False,False,False,False,False,False,False,False,False,False,False,False,Night,Day,Day,Day
C-5808538,2,2021-05-08 22:21:30.000000000,2021-11-23 15:39:14.000000000,25.949567,-80.148825,25.94753,-80.149316,0.14401117617,Slow traffic on FL-860 from NE 189th St to NE 25th Pl due to roadwork.,18825.0,W Dixie Hwy,R,Miami,Miami-Dade,FL,33180-2633,US,US/Eastern,KHWO,2021-06-22 15:53:00,91.0,91.0,61.0,30.02,10.0,SSE,16.0,0.0,Mostly Cloudy,False,False,False,False,False,True,False,False,True,False,False,False,False,Night,Night,Night,Night
C-5808539,2,2021-12-01 18:52:30.000000000,2021-12-01 20:53:46.000000000,34.185607,-118.322397,34.184627,-118.320648,0.120739360083,Slow traffic from N Lake St to I-5 S due to roadwork.,1040.0,N Victory Pl,R,Burbank,Los Angeles,CA,91502-1640,US,US/Pacific,KBUR,2021-12-01 18:53:00,67.0,67.0,52.0,29.22,7.0,CALM,0.0,0.0,Fair,False,False,False,False,False,False,False,False,True,True,False,True,False,Night,Night,Night,Night
C-5808540,2,2021-09-02 17:20:00.000000000,2021-09-02 17:41:12.000000000,38.8669,-77.361148,38.861595,-77.346631,0.862729849089,Slow traffic on US-50 E from Ox Rd (US-50) to I-66 (US-50) due to roadwork.,,Lee Jackson Memorial Hwy,R,Fairfax,Fairfax County,VA,22033,US,US/Eastern,KIAD,2021-09-02 16:52:00,79.0,79.0,32.0,29.61,10.0,NNW,10.0,0.0,Fair,False,False,False,False,False,False,False,False,False,False,False,False,False,Day,Day,Day,Day
C-5808541,2,2020-10-06 04:00:00.000000000,2020-10-06 16:00:00.000000000,33.907314,-84.357949,33.896547,-84.363381,0.806516105024,Lane closed from Glenridge Connector exit [3] to GA-400 S due to roadwork.,,Johnson Ferry Rd NE,R,Atlanta,Fulton,GA,30342,US,US/Eastern,KPDK,2020-10-06 03:53:00,55.0,55.0,96.0,29.07,9.0,CALM,0.0,0.0,Fair,False,False,False,False,False,False,False,False,False,False,False,False,False,Night,Night,Night,Night
C-5808542,2,2021-11-10 05:32:00.000000000,2021-11-10 05:53:00.000000000,41.319959,-73.983838,41.320439,-73.978718,0.267745555648,Slow traffic on US-202 E - US-202 W - NY-9D - US-6 W - US-6 E from Bear Mountain Traffic Cir to Highland Ter due to roadwork.,,Bear Mountain Bridge Rd,R,Tomkins Cove,Rockland,NY,10986,US,US/Eastern,KSWF,2021-11-10 05:45:00,46.0,46.0,93.0,29.44,7.0,CALM,0.0,0.0,Cloudy,False,False,False,False,False,False,False,False,False,False,False,False,False,Night,Night,Night,Day
C-5808543,3,2018-08-20 09:00:00.000000000,2018-08-20 11:30:00.000000000,37.690189,-122.098221,,,0.0,Intermittent lane closures due to construction work on I-580 both ways at Exits 34 35 I-238.,,I-238 N,R,Hayward,Alameda,CA,94541,US,US/Pacific,KHWD,2018-08-20 08:54:00,62.1,,72.0,29.96,10.0,West,5.8,,Mostly Cloudy,False,False,False,False,False,False,False,False,False,False,False,False,False,Day,Day,Day,Day
C-5808544,2,2021-03-16 04:05:00.000000000,2021-12-14 14:12:37.000000000,42.095085,-122.605938,42.07388,-122.606035,1.46513440466,Slow traffic on OR-99 S - Pacific Highway 1 S - I-5 S from OR-99/Exit 11 (I-5) to Old Siskiyou Hwy/Exit 6 (I-5) due to roadwork.,,I-5 S,R,Ashland,Jackson,OR,97520,US,US/Pacific,KMFR,2021-09-02 14:53:00,81.0,81.0,20.0,28.53,3.0,VAR,3.0,0.0,Smoke,False,False,False,False,False,False,False,False,False,False,False,False,False,Night,Night,Night,Night
C-5808545,1,2020-03-19 21:14:54.000000000,2020-03-20 03:00:00.000000000,39.44968,-75.71668000000003,39.44968,-75.71668000000003,0.0,At St Annes Church Rd - Roadwork. Single alternate lane traffic.,1.0,N Broad St,R,Middletown,New Castle,DE,19709-1033,US,US/Eastern,KILG,2020-03-19 20:51:00,54.0,54.0,80.0,30.13,9.0,VAR,6.0,0.0,Mostly Cloudy,True,False,False,False,False,False,False,False,False,False,False,True,False,Night,Night,Night,Night
C-5808546,2,2016-08-18 22:01:07.000000000,2016-08-19 04:01:07.000000000,41.18479,-112.01134,41.18771,-112.00833,0.255344200732,At I-84/Exit 340 - Roadwork.,,I-15 N,R,Ogden,Weber,UT,84405,US,US/Mountain,KOGD,2016-08-18 21:53:00,73.0,,31.0,29.84,10.0,South,5.8,,Clear,False,False,False,False,False,False,False,False,False,False,False,False,False,Night,Night,Night,Day
C-5808547,2,2021-05-06 07:48:30.000000000,2021-05-06 20:36:42.000000000,33.482702,-112.16894,33.480468,-112.170965,0.1935035497459999,Slow traffic from W Earll Dr to N 52nd Ave due to roadwork.,2782.0,N 51st Ave,L,Phoenix,Maricopa,AZ,85035-2021,US,US/Mountain,KGEU,2021-05-06 07:58:00,72.0,72.0,25.0,28.79,10.0,CALM,0.0,0.0,Fair,False,False,False,False,False,False,False,False,False,False,False,False,False,Day,Day,Day,Day
C-5808548,3,2016-10-19 21:01:22.000000000,2016-10-20 03:01:22.000000000,42.15088,-87.87333000000002,42.24527,-87.90125,6.6764750899,Between Edens Spur Toll Plaza and IL-60/Town Line Rd - Roadwork.,,I-94 W,R,Northbrook,Cook,IL,60062,US,US/Central,KPWK,2016-10-19 20:52:00,57.0,,81.0,30.14,8.0,East,4.6,0.04,Light Rain,False,False,False,False,False,False,False,False,False,False,False,False,False,Night,Night,Night,Night
C-5808549,2,2020-10-06 12:27:30.000000000,2020-10-06 19:52:01.000000000,42.240441,-87.989975,42.240482,-87.977171,0.6549554997339999,Stationary traffic on IL-60 from US-45/S Lake St (Townline Rd/IL-60) to CR-57/S Butterfield Rd (Townline Rd/IL-60) due to roadwork.,599.0,Townline Rd,R,Mundelein,Lake,IL,60060-4415,US,US/Central,KPWK,2020-10-06 12:52:00,69.0,69.0,49.0,29.21,10.0,SSW,9.0,0.0,Partly Cloudy,False,False,True,False,False,False,False,False,False,False,False,True,False,Day,Day,Day,Day
C-5808550,2,2021-10-07 10:38:00.000000000,2021-10-07 10:59:00.000000000,42.151835,-87.966675,42.154022,-87.959312,0.406298360212,Stationary traffic from N Arlington Heights Rd (W Lake Cook Rd) to IL-83/McHenry Rd (E Lake Cook Rd) due to roadwork.,309.0,W Lake Cook Rd,L,Buffalo Grove,Cook,IL,60089,US,US/Central,KPWK,2021-10-07 10:52:00,68.0,68.0,96.0,29.42,6.0,E,7.0,0.0,Cloudy,False,False,False,False,False,False,False,False,False,False,False,True,False,Day,Day,Day,Day
C-5808551,2,2021-11-29 07:50:00.000000000,2021-11-29 08:10:00.000000000,47.679547,-117.363757,47.671894,-117.363889,0.52880759796,Slow traffic from N Market St (N Greene St) to N Freya Way (N Greene St) due to roadwork.,3198.0,E Carlisle Ave,R,Spokane,Spokane,WA,99207,US,US/Pacific,KSFF,2021-11-29 07:53:00,49.0,47.0,80.0,28.08,10.0,VAR,5.0,0.0,Mostly Cloudy,False,False,True,False,False,False,False,False,True,False,False,True,False,Day,Day,Day,Day
C-5808552,2,2021-09-13 13:35:00.000000000,2021-09-13 15:38:20.000000000,33.923926,-117.882673,33.925148,-117.881442,0.1100440666489999,Slow traffic from Redbud St to CA-57 S due to roadwork.,358.0,N State College Blvd,L,Brea,Orange,CA,92821,US,US/Pacific,KFUL,2021-09-13 13:53:00,88.0,88.0,36.0,29.73,10.0,SSW,7.0,0.0,Fair,False,False,False,False,False,False,False,False,False,False,False,True,False,Day,Day,Day,Day
C-5808553,2,2021-11-17 10:38:30.000000000,2021-11-17 13:05:14.000000000,41.120306,-85.063314,41.120447,-85.059496,0.19896599079,Slow traffic from Oakhurst Dr to Maple Terrace Pkwy due to roadwork.,6158.0,Stellhorn Rd,R,Fort Wayne,Allen,IN,46815-5348,US,US/Eastern,KFWA,2021-11-17 10:54:00,62.0,62.0,80.0,29.02,10.0,SSW,20.0,0.0,Cloudy,False,False,False,False,False,False,False,False,False,False,False,False,False,Day,Day,Day,Day
C-5808554,2,2021-09-30 15:32:11.000000000,2021-09-30 18:17:11.000000000,44.225476,-95.957408,44.24132,-95.957566,1.09474408329,Construction on MN-91 NB near MN-30 Allow extra time.,1702.0,120th St,R,Balaton,Lyon,MN,56115-3108,US,US/Central,KTKC,2021-09-30 15:33:00,72.0,72.0,69.0,28.65,10.0,S,9.0,0.0,Cloudy,False,False,False,False,False,False,False,False,False,False,False,False,False,Day,Day,Day,Day
C-5808555,4,2021-02-22 09:00:00.000000000,2021-03-27 00:00:00.000000000,29.898418,-90.07904,29.898163,-90.080002,0.0602552164372,Road Maintenance Operations on Harvey Tunnel Eastbound near Intracoastal Waterway . All Lanes Closed. Starting 2/22/2021 9:00 AM and Ending 3/27/2021 12:00 AM,,Harvey Tunl,R,Harvey,Jefferson,LA,70058,US,US/Central,KNBG,2021-02-22 08:55:00,67.0,67.0,76.0,30.17,10.0,WNW,10.0,0.0,Fair,False,False,False,False,False,False,False,False,False,False,False,False,False,Day,Day,Day,Day
C-5808556,2,2021-06-17 17:32:14.000000000,2021-06-17 19:42:21.000000000,28.078751,-80.620231,28.078049,-80.62145799999998,0.0891492452008,Stationary traffic on US-192 W - FL-507 - County Hwy-507 from Fletcher St to Hyde Pkwy due to roadwork.,26.0,E New Haven Ave,R,Melbourne,Brevard,FL,32901-4404,US,US/Eastern,KMLB,2021-06-17 17:53:00,85.0,85.0,61.0,29.96,10.0,S,6.0,0.0,Fair,False,False,False,False,False,False,False,False,False,False,False,False,False,Day,Day,Day,Day
C-5808557,4,2019-02-19 06:59:44.000000000,2019-02-19 09:58:38.000000000,38.90104,-86.5318,38.903193,-86.534645,0.213378595107,Closed at IN-54/IN-58 - Closed. Work on buried services.,,State Road 37,R,Oolitic,Lawrence,IN,47451,US,US/Eastern,KBMG,2019-02-19 06:53:00,25.0,18.1,,30.58,7.0,ENE,5.8,,Overcast,False,False,False,False,False,False,False,False,False,False,False,False,False,Night,Night,Day,Day
C-5808558,2,2021-09-02 14:08:00.000000000,2021-09-02 14:23:00.000000000,37.597589,-122.060272,37.589156,-122.054246,0.6695785048699999,Slow traffic on Nimitz Fwy S - I-880 S from Dyer St/Whipple Rd (I-880) to Alvarado Blvd/Fremont Blvd (I-880) due to roadwork.,,I-880 S,R,Union City,Alameda,CA,94587,US,US/Pacific,KHWD,2021-09-02 13:54:00,68.0,68.0,56.0,29.89,6.0,VAR,6.0,0.0,Haze,False,False,False,False,False,False,False,False,False,False,False,False,False,Day,Day,Day,Day
C-5808559,2,2021-10-22 07:36:30.000000000,2021-10-22 07:49:30.000000000,41.183441,-80.406006,41.186211,-80.335486,3.67195842069,Stationary traffic on I-80 E from PA-60/Exit 4A (I-80) to US-19/Exit 15 &amp; 2 (I-80) due to roadwork.,,I-80 E,R,West Middlesex,Mercer,PA,16159,US,US/Eastern,KUCP,2021-10-22 07:37:00,50.0,50.0,94.0,28.83,3.0,NNW,6.0,0.02,Light Rain,False,False,False,False,False,False,False,False,False,False,False,False,False,Night,Day,Day,Day
C-5808560,2,2020-02-19 20:01:00.000000000,2020-02-20 05:01:00.000000000,37.59861,-122.01158,37.60253,-122.01575,0.3542117339109999,Between Daggett Ave and Decoto Rd - Construction work.,34292.0,Mission Blvd,R,Union City,Alameda,CA,94587-3635,US,US/Pacific,KHWD,2020-02-19 19:54:00,51.0,51.0,80.0,30.02,10.0,WNW,5.0,0.0,Fair,False,False,False,False,False,False,False,False,False,False,False,True,False,Night,Night,Night,Night
C-5808561,2,2020-09-02 22:35:36.000000000,2020-09-02 23:11:03.000000000,40.583721,-89.002657,40.60092,-89.000578,1.19333339922,Slow traffic on I-39 from US-51/Exit 2 (I-39) to CR-12/Exit 5 (I-39) due to roadwork.,,I-39 N,R,Hudson,McLean,IL,61748,US,US/Central,KBMI,2020-09-02 22:56:00,66.0,66.0,93.0,28.97,10.0,SW,6.0,0.0,Fair,False,False,False,False,True,False,False,False,False,False,False,False,False,Night,Night,Night,Night
C-5808562,2,2021-01-07 13:48:00.000000000,2021-01-07 22:58:35.000000000,25.947317,-80.151248,25.947395,-80.147429,0.237330158403,Stationary traffic on FL-860 from 19th Ave (FL-860) to US-1/FL-5/Biscayne Blvd (FL-860) due to roadwork.,,NE 24th Pl,R,Miami,Miami-Dade,FL,33180,US,US/Eastern,KHWO,2021-01-07 13:53:00,76.0,76.0,48.0,30.0,10.0,S,10.0,0.0,Fair,False,False,True,False,False,False,True,False,False,False,False,True,False,Day,Day,Day,Day
C-5808563,2,2020-11-02 14:41:00.000000000,2020-11-02 22:43:55.000000000,43.662986,-116.353158,43.661924,-116.354546,0.100982201228,Stationary traffic on US-20 W - ID-55 - US-20 E - US-26 E - US-26 W from Stone Rd to W Bristol Heights Dr due to roadwork.,13389.0,E Chinden Blvd,R,Boise,Ada,ID,83713-1335,US,US/Mountain,KBOI,2020-11-02 14:53:00,66.0,66.0,20.0,27.22,10.0,CALM,0.0,0.0,Fair,False,False,True,False,False,False,False,False,False,False,False,False,False,Day,Day,Day,Day
C-5808564,2,2017-11-11 20:00:00.000000000,2017-11-12 05:31:00.000000000,39.564194,-104.901619,,,1.00999999046,Exit ramp from CO-470 Westbound to S Quebec St closed due to construction during the night.,,CO-470 W,R,Lone Tree,Douglas,CO,80124,US,US/Mountain,KAPA,2017-11-11 19:53:00,37.9,31.5,57.0,30.25,10.0,South,9.2,,Partly Cloudy,False,False,False,False,False,False,False,False,False,False,False,False,False,Night,Night,Night,Night
C-5808565,2,2021-01-26 14:20:30.000000000,2021-01-27 03:44:08.000000000,39.743865,-105.081446,39.740205,-105.080266,0.260536825588,Slow traffic on US-40 E - I-70 Bus E - CO-121 from W 17th Ave to Vance St due to roadwork.,,W 17th Ave,R,Denver,Jefferson,CO,80214,US,US/Mountain,KBJC,2021-01-26 13:55:00,21.0,9.0,93.0,24.14,0.75,NNW,13.0,0.0,Light Snow,False,False,True,False,False,False,False,False,True,False,False,False,False,Day,Day,Day,Day
C-5808566,2,2016-12-01 08:00:00.000000000,2016-12-01 16:00:00.000000000,39.809933,-75.44203900000002,,,6.69,Intermittent lane closures due to construction work on DE-92 Naamans Rd both ways between DE-261 Foulk Rd and US-13 Philadelphia Pike.,,Naamans Rd,R,Claymont,New Castle,DE,19703,US,US/Eastern,KILG,2016-12-01 07:51:00,51.1,,71.0,29.71,10.0,WNW,9.2,,Partly Cloudy,False,False,True,False,False,False,False,False,False,False,False,True,False,Day,Day,Day,Day
C-5808567,2,2021-12-27 14:05:00.000000000,2021-12-27 16:13:49.000000000,32.933431,-97.313694,32.933368,-97.315597,0.1104413944019999,Slow traffic on FM-1709 from Alta Vista Rd (Golden Triangle Blvd) to I-35W/North Fwy (Golden Triangle Blvd) due to roadwork.,3099.0,Golden Triangle Blvd,R,Fort Worth,Tarrant,TX,76177,US,US/Central,KAFW,2021-12-27 13:53:00,77.0,77.0,56.0,29.01,10.0,WSW,6.0,0.0,Mostly Cloudy,True,False,False,False,False,False,False,False,False,False,False,False,False,Day,Day,Day,Day
C-5808568,2,2021-06-21 19:10:31.000000000,2021-11-02 11:26:00.000000000,39.999433,-78.234447,39.993137,-78.242009,0.591143061883,Slow traffic on US-30 W - I-70 E from Exit 147 (I-70) to Exit 149 (I-70) due to roadwork.,16547.0,Lincoln Hwy,L,Breezewood,Bedford,PA,15533,US,US/Eastern,KHMZ,2021-11-02 10:53:00,43.0,39.0,71.0,28.62,10.0,WSW,6.0,0.0,Cloudy,False,False,False,False,False,False,False,False,False,False,False,False,False,Day,Day,Day,Day
C-5808569,4,2021-02-05 08:21:00.000000000,2021-02-05 10:27:32.000000000,33.669694,-112.09278700000002,33.669394,-112.100737,0.457617937047,Pima Fwy W - Loop 101 W - AZ-101 Loop W is closed from 7th Ave/Exit 25 (Pima Fwy/AZ-101) to I-17/Exit 23 (Pima Fwy/Agua Fria Fwy/AZ-101) due to roadwork.,,AZ-101 Loop W,R,Phoenix,Maricopa,AZ,85027,US,US/Mountain,KDVT,2021-02-05 07:53:00,43.0,43.0,65.0,28.42,10.0,CALM,0.0,0.0,Fair,False,False,False,False,False,False,False,False,False,False,False,False,False,Day,Day,Day,Day
C-5808570,2,2020-11-14 15:19:30.000000000,2020-11-15 02:29:12.000000000,27.889688,-82.849808,27.883353000000003,-82.85052900000002,0.4399159283039999,Stationary traffic on County Hwy-183 - County Hwy-138 - FL-699 from CR-416/Causeway Blvd (CR-183/Gulf Blvd/FL-699) to CR-694/Park Blvd (Gulf Blvd/FL-699) due to roadwork.,102.0,8th Ave,L,Indian Rocks Beach,Pinellas,FL,33785-2610,US,US/Eastern,KPIE,2020-11-14 14:53:00,83.0,83.0,65.0,30.0,10.0,NE,5.0,0.0,Fair,False,False,True,False,False,False,False,False,True,False,False,False,False,Day,Day,Day,Day
C-5808571,2,2021-02-02 13:12:00.000000000,2021-02-03 00:16:30.000000000,33.567601,-112.097142,33.567543,-112.108251,0.639568882443,Slow traffic from N 7th Ave (W Dunlap Ave) to I-17/N Black Canyon Hwy (W Dunlap Ave) due to roadwork.,,W Dunlap Ave,R,Phoenix,Maricopa,AZ,85021,US,US/Mountain,KDVT,2021-02-02 12:53:00,77.0,77.0,25.0,28.4,10.0,VAR,5.0,0.0,Fair,False,False,True,False,False,True,False,False,False,True,False,True,False,Day,Day,Day,Day
C-5808572,2,2021-03-02 03:21:00.000000000,2021-09-07 17:36:00.000000000,43.883308,-111.633501,43.88333400000001,-111.63793,0.22056834793,Stationary traffic on ID-33 from 1300 (ID-33) to Center St (ID-33) due to roadwork.,2628.0,E Highway 33,L,Sugar City,Madison,ID,83448-1126,US,US/Mountain,KRXE,2021-09-07 16:53:00,82.0,82.0,17.0,25.27,5.0,SSW,7.0,0.0,Cloudy,False,False,False,False,False,False,False,False,False,False,False,False,False,Night,Night,Night,Night
C-5808573,2,2021-09-10 08:32:30.000000000,2021-09-10 10:33:53.000000000,28.079519,-80.604602,28.080742,-80.60393499999998,0.0937749822838,Stationary traffic on US-192 E - US-192 W - US-1 N - US-1 S - FL-5 from Depot Dr to Palmetto Ave due to roadwork.,1006.0,E Strawbridge Ave,L,Melbourne,Brevard,FL,32901-4742,US,US/Eastern,KMLB,2021-09-10 08:53:00,79.0,79.0,88.0,29.96,10.0,WSW,6.0,0.0,Fair,False,False,True,False,False,False,False,False,False,False,False,False,False,Day,Day,Day,Day
C-5808574,2,2021-06-01 19:57:34.000000000,2021-12-20 19:23:28.000000000,25.732169,-80.380549,25.734261,-80.383274,0.2228437776289999,Slow traffic on FL-976 from SW 114th Ave to SW 36th St due to roadwork.,11441.0,SW 40th St,R,Miami,Miami-Dade,FL,33165-3311,US,US/Eastern,KMIA,2021-07-28 16:53:00,84.0,84.0,72.0,30.01,10.0,NE,5.0,0.0,Mostly Cloudy,False,False,False,False,False,False,False,False,True,False,False,False,False,Day,Day,Day,Day
C-5808575,3,2018-10-29 21:00:00.000000000,2018-10-30 05:00:00.000000000,33.716137,-84.31047099999998,,,3.5,Two lanes closed due to construction work on I-20 Eastbound from Glenwood Ave to Gresham Rd.,,GA-402 W,R,Decatur,DeKalb,GA,30032,US,US/Eastern,KPDK,2018-10-29 20:53:00,48.9,,77.0,30.14,10.0,Calm,,,Clear,False,False,False,False,False,False,False,False,False,False,False,False,False,Night,Night,Night,Night
C-5808576,3,2019-07-10 20:12:00.000000000,2019-07-11 06:00:00.000000000,41.589149,-71.991241,,,4.94999980927,Right lane closed due to construction work on I-395 Governor John Davis Lodge Tpke Eastbound between Exit 18 CT-97 Taftville Occum Rd and Exits 21 21A 21B CT-12 River Rd.,,Governor John Davis Lodge Tpke S,R,Jewett City,New London,CT,06351,US,US/Eastern,KIJD,2019-07-10 19:52:00,81.0,81.0,56.0,29.73,10.0,S,5.0,0.0,Fair,False,False,False,False,True,False,False,False,False,False,False,False,False,Day,Day,Day,Day
C-5808577,2,2021-05-05 09:00:00.000000000,2021-05-05 16:45:00.000000000,37.602031,-77.424013,37.602443,-77.423704,0.0331126927168,Construction on RICHMOND HENRICO TPKE NB near AZALEA AVE Drive with caution.,5131.0,Richmond Henrico Tpke,R,Richmond,Henrico,VA,23227-3601,US,US/Eastern,KOFP,2021-05-05 08:54:00,70.0,70.0,84.0,29.52,10.0,SSW,13.0,0.0,Fair,False,False,False,False,False,False,False,False,False,False,False,False,False,Day,Day,Day,Day
C-5808578,2,2021-05-05 04:08:30.000000000,2021-05-06 22:29:12.000000000,40.626595,-74.24339499999998,40.621595,-74.248024,0.422227945779,Stationary traffic on US-1 S - US-9 S from I-278 (US-9/US-1) to Grand Ave (US-9/US-1) due to roadwork.,,S Wood Ave,R,Linden,Union,NJ,07036,US,US/Eastern,KLDJ,2021-05-05 04:15:00,52.0,52.0,94.0,29.73,2.0,ESE,6.0,0.0,Fog,False,False,False,False,False,False,False,False,False,False,False,True,False,Night,Night,Night,Day
C-5808579,4,2018-02-23 20:06:35.000000000,2018-02-24 02:06:35.000000000,40.45905,-79.999131,40.44285,-79.99094000000002,1.19930483975,Between I-279 and Bedford Ave/Mario Lemieux Pl - Roadwork.,,I-279 N,R,Pittsburgh,Allegheny,PA,15212,US,US/Eastern,KAGC,2018-02-23 19:53:00,61.0,,81.0,30.2,10.0,SW,11.5,,Clear,False,False,False,False,True,False,False,False,False,False,False,True,False,Night,Night,Night,Night
C-5808580,2,2019-08-21 19:08:40.000000000,2019-08-25 19:10:20.000000000,41.389339,-79.822385,41.38789000000001,-79.817356,0.279251112377,At PA-257/Rockland Rd - Roadwork. Lane blocked.,799.0,Elk St,L,Franklin,Venango,PA,16323-1154,US,US/Eastern,KFKL,2019-08-21 18:56:00,72.0,72.0,91.0,28.31,10.0,CALM,0.0,0.01,Mostly Cloudy,False,False,False,False,False,False,False,False,False,False,False,True,False,Day,Day,Day,Day
C-5808581,2,2021-09-09 15:10:30.000000000,2021-09-09 15:54:30.000000000,45.41095,-122.541718,45.40792,-122.536262,0.337443050506,Stationary traffic on OR-224 - OR-212 from SE Minuteman Way to SE 125th Ct due to roadwork.,,Sunrise Expy,R,Clackamas,Clackamas,OR,97015,US,US/Pacific,KTTD,2021-09-09 14:53:00,82.0,82.0,39.0,29.83,10.0,WSW,7.0,0.0,Fair,False,False,False,False,False,False,False,False,False,False,False,False,False,Day,Day,Day,Day
C-5808582,2,2021-10-06 13:29:30.000000000,2021-10-06 13:54:05.000000000,40.754067,-73.995825,40.75114,-73.997955,0.230929944653,Slow traffic from NY-495/Lincoln Tunnel (9th Ave) to Lincoln Tunnel (9th Ave) due to roadwork.,401.0,9th Ave,L,New York,New York,NY,10018,US,US/Eastern,KNYC,2021-10-06 13:51:00,67.0,67.0,76.0,30.27,10.0,CALM,0.0,0.0,Cloudy,True,False,True,False,False,False,False,False,True,False,False,True,False,Day,Day,Day,Day
C-5808583,4,2020-09-26 04:01:00.000000000,2020-09-26 15:44:00.000000000,38.553868,-121.436594,38.555568,-121.441144,0.2724638881989999,Construction on US-50 WB near 59TH Take alternate route.,1869.0,59th St,L,Sacramento,Sacramento,CA,95817,US,US/Pacific,KSAC,2020-09-26 03:53:00,61.0,61.0,75.0,29.97,10.0,CALM,0.0,0.0,Fair,False,False,False,False,False,False,False,False,False,False,False,True,False,Night,Night,Night,Night
C-5808584,2,2020-08-25 14:30:00.000000000,2020-08-25 22:01:00.000000000,34.071746999999995,-117.612923,34.083967,-117.634153,1.47952985084,Lane closure due to Maintenance Operation between Haven Ave and Grove Ave,,I-10 W,R,Ontario,San Bernardino,CA,91764,US,US/Pacific,KONT,2020-08-25 14:53:00,97.0,97.0,27.0,28.77,10.0,W,14.0,0.0,Fair,False,False,False,False,False,False,False,False,False,False,False,False,False,Day,Day,Day,Day
C-5808585,2,2021-07-22 03:49:00.000000000,2021-10-15 05:18:00.000000000,34.22503,-81.42536199999998,34.203075,-81.368825,3.56876155229,Slow traffic on I-26 E from SC-773/Exit 82 (I-26) to Columbia Ave/Exit 91 (I-26) due to roadwork.,,I-26 E,R,Little Mountain,Newberry,SC,29075,US,US/Eastern,KEOE,2021-07-22 05:15:00,72.0,72.0,100.0,29.51,7.0,SW,3.0,0.0,Fair,False,False,False,False,False,False,False,False,False,False,False,False,False,Night,Night,Night,Night
C-5808586,2,2021-07-20 14:02:00.000000000,2021-07-20 16:49:32.000000000,41.720768,-87.698975,41.71986,-87.70188399999998,0.162611024908,Stationary traffic on US-20 W - US-12 W from S Troy Ave to W 96th St due to roadwork.,,W 95th St,R,Evergreen Park,Cook,IL,60805,US,US/Central,KMDW,2021-07-20 13:53:00,86.0,86.0,43.0,29.37,10.0,W,12.0,0.0,Mostly Cloudy,False,False,False,False,False,False,False,False,False,False,False,False,False,Day,Day,Day,Day
C-5808587,3,2020-09-23 12:14:29.000000000,2020-09-23 14:31:00.000000000,37.342728,-121.925735,,,2.69000005722,One lane closed due to maintenance work on I-880 Northbound from Exit 1C CA-17 Exit 27A to Exits 1D 2 CA-82 The Alameda.,,The Alameda,R,San Jose,Santa Clara,CA,95126,US,US/Pacific,KSJC,2020-09-23 11:53:00,76.0,76.0,37.0,30.04,10.0,NW,9.0,0.0,Fair,False,False,False,False,False,False,False,False,False,False,False,False,False,Day,Day,Day,Day
C-5808588,3,2016-10-19 05:43:18.000000000,2016-10-19 08:00:00.000000000,32.771919,-117.131912,,,0.01,Connecting roadway closed due to bridge maintenance work on I-805 Northbound at Exits 17 17B I-8.,,I-8 W,R,San Diego,San Diego,CA,92108,US,US/Pacific,KMYF,2016-10-19 05:53:00,59.0,,78.0,29.92,10.0,NW,3.5,,Clear,False,False,False,False,False,False,False,False,False,False,False,False,False,Night,Night,Night,Day
C-5808589,2,2020-06-27 21:30:05.000000000,2020-06-28 05:00:00.000000000,28.55304000000001,-81.38355,28.55304000000001,-81.38415,0.0364139602468,At US-441/US-17-92/Orange Blossom Trl - Roadwork. Right lane closed.,209.0,W Colonial Dr,R,Orlando,Orange,FL,32804,US,US/Eastern,KORL,2020-06-27 21:53:00,86.0,86.0,59.0,29.94,10.0,SSE,9.0,0.0,Fair,False,False,True,False,False,False,False,False,True,True,False,False,False,Night,Night,Night,Day
C-5808590,2,2019-04-11 04:22:32.000000000,2019-04-11 04:59:00.000000000,37.488895,-122.213013,,,2.03999996185,Two lanes closed due to construction on US-101 Southbound from Exit 409 Whipple Ave to Exit 408 CA-84 Woodside Rd.,,Bayshore Fwy S,R,Redwood City,San Mateo,CA,94063,US,US/Pacific,KSQL,2019-04-11 04:15:00,54.0,54.0,77.0,30.2,10.0,CALM,0.0,0.0,Partly Cloudy,False,False,False,False,False,False,False,False,False,False,False,False,False,Night,Night,Night,Night
C-5808591,3,2021-05-19 05:06:00.000000000,2021-05-19 05:33:19.000000000,36.062649,-80.231316,,,0.0,One lane closed due to maintenance work on I-40 Eastbound at US-52 John M Gold Fwy Exits 107A.,,I-40 E,R,Winston Salem,Forsyth,NC,27107,US,US/Eastern,KINT,2021-05-19 04:54:00,58.0,58.0,90.0,29.3,10.0,CALM,0.0,0.0,Fair,False,False,False,False,True,False,False,False,False,False,False,False,False,Night,Night,Night,Day
C-5808592,2,2021-11-17 14:32:30.000000000,2021-11-17 14:52:30.000000000,30.511725,-84.245671,30.509171,-84.24838100000002,0.239087590272,Stationary traffic on US-319 S - FL-61 from Maclay Rd to Market St due to roadwork.,3536.0,Thomasville Rd,L,Tallahassee,Leon,FL,32309-3413,US,US/Eastern,KTLH,2021-11-17 14:53:00,77.0,77.0,50.0,30.11,10.0,S,12.0,0.0,Fair,False,False,True,False,False,False,False,False,False,False,False,False,False,Day,Day,Day,Day
C-5808593,2,2016-11-30 10:00:00.000000000,2016-11-30 15:00:00.000000000,40.690689,-73.402992,,,2.49,Intermittent lane closures due to construction work on NY-27 Sunrise Hwy both ways between County Hwy-1 County Line Rd and County Hwy-47 Great Neck Rd.,,Great Neck Rd,R,Copiague,Suffolk,NY,11726,US,US/Eastern,KFRG,2016-11-30 09:53:00,,,,29.93,,North,,,,False,False,False,False,False,False,False,False,False,False,False,False,False,Day,Day,Day,Day
C-5808594,2,2021-07-21 14:02:06.000000000,2021-07-21 14:22:06.000000000,28.258573,-81.486174,28.254841,-81.486683,0.259710734663,Slow traffic from US-192/W Irlo Bronson Memorial Hwy (Poinciana Blvd) to Reaves Rd (Poinciana Blvd) due to roadwork.,5001.0,Old Tampa Hwy,R,Kissimmee,Osceola,FL,34758,US,US/Eastern,KISM,2021-07-21 13:56:00,93.0,93.0,49.0,30.0,10.0,W,8.0,0.0,Partly Cloudy,False,False,False,False,False,False,False,False,False,False,False,True,False,Day,Day,Day,Day
C-5808595,2,2016-07-19 07:16:31.000000000,2016-07-19 15:30:00.000000000,39.597595,-74.86301999999998,39.586639,-74.844741,1.23297222354,Between Cherokee Rd and 8th St - Construction work.,223.0,E Black Horse Pike,L,Williamstown,Atlantic,NJ,08094,US,US/Eastern,KPHL,2016-07-19 06:54:00,73.9,,79.0,30.11,10.0,NNW,4.6,,Mostly Cloudy,False,False,False,False,False,False,False,False,False,False,False,False,False,Day,Day,Day,Day
C-5808596,2,2020-12-15 14:18:30.000000000,2020-12-16 02:25:38.000000000,47.7417,-116.792318,47.744457,-116.793082,0.193769717905,Stationary traffic on US-95 N from W Aqua Ave to N Mineral Dr due to roadwork.,7646.0,N Highway 95,R,Coeur D Alene,Kootenai,ID,83815,US,US/Pacific,KCOE,2020-12-15 13:56:00,33.0,25.0,96.0,27.53,6.0,S,9.0,0.04,Light Snow,False,False,False,False,False,False,False,False,False,True,False,False,False,Day,Day,Day,Day
C-5808597,2,2021-09-14 13:51:30.000000000,2021-09-14 14:14:30.000000000,46.360429,-117.950646,46.381101,-117.939195,1.5290709168399998,Slow traffic on US-12 E - US-12 W from 1st St (US-12) to WA-126/Whetstone Rd (US-12) due to roadwork.,36932.0,Highway 12,L,Dayton,Columbia,WA,99328-9612,US,US/Pacific,KALW,2021-09-14 13:53:00,77.0,77.0,23.0,28.71,10.0,SSW,3.0,0.0,Fair,False,False,False,False,False,False,False,False,False,False,False,False,False,Day,Day,Day,Day
C-5808598,2,2020-12-19 02:12:19.000000000,2020-12-19 03:10:30.000000000,40.757821,-73.975584,40.759732,-73.97419000000002,0.150852612198,Slow traffic from E 42nd St (Madison Ave) to E 57th St (Madison Ave) due to roadwork.,18.0,E 50th St,R,New York,New York,NY,10022-6813,US,US/Eastern,KNYC,2020-12-19 01:51:00,23.0,17.0,65.0,30.28,10.0,VAR,5.0,0.0,Fair,True,False,True,False,False,False,True,False,True,False,False,True,False,Night,Night,Night,Night
C-5808599,2,2021-07-25 19:01:39.000000000,2021-07-25 19:46:21.000000000,44.347156,-75.98355699999998,44.345961,-75.9825,0.0976979557614,Stationary traffic on Thousand Islands Brg S - I-81 S from CAN--USA National Border (I-81) to CR-191/Exit 52 (I-81) due to roadwork.,,I-81 S,R,Orleans,Jefferson,NY,,US,,,,,,,,,,,,,False,False,False,False,False,False,False,False,False,False,False,False,False,,,,
C-5808600,2,2021-06-30 21:01:00.000000000,2021-07-01 06:44:00.000000000,36.932108,-120.842361,37.24228,-121.087711,25.3406958515,Lane closure due to Grinding and Paving between Billy Wright Under-Crossing and Mccabe Road Over-Crossing,,I-5 N,R,Los Banos,Merced,CA,93635,US,US/Pacific,KMCE,2021-06-30 20:53:00,82.0,82.0,47.0,29.6,10.0,W,6.0,0.0,Fair,False,False,False,False,False,False,False,False,False,False,False,False,False,Night,Night,Day,Day
C-5808601,2,2021-12-19 15:47:49.000000000,2021-12-19 18:16:26.000000000,40.68285,-73.97927800000002,40.685083,-73.98009,0.16004400128,Slow traffic from Bergen St to 3rd Ave due to roadwork.,49.0,4th Ave,L,Brooklyn,Kings,NY,11217-1903,US,US/Eastern,KJRB,2021-12-19 15:51:00,36.0,36.0,50.0,30.03,10.0,VAR,3.0,0.0,Fair,True,False,False,False,False,False,True,False,True,False,False,False,False,Day,Day,Day,Day
C-5808602,4,2020-02-27 19:02:14.000000000,2020-03-02 19:01:46.000000000,41.164,-73.37687,41.16405,-73.37929,0.125924869401,At CT-33/Exit 41 - Narrow lanes. Queuing traffic. Construction work. Lane blocked.,,CT-15 S,R,Westport,Fairfield,CT,06880,US,US/Eastern,KBDR,2020-02-27 18:52:00,37.0,26.0,34.0,29.67,10.0,W,22.0,0.0,Cloudy / Windy,False,False,False,False,True,False,False,False,False,False,False,False,False,Night,Night,Night,Day
C-5808603,2,2020-09-29 12:56:00.000000000,2020-09-29 15:21:00.000000000,39.842237,-86.398415,39.842903,-86.396484,0.112301095214,Slow traffic on US-136 W - US-136 E from E College Ave / W College Ave to S Adams St / N Adams St due to roadwork.,79.0,S Green St,R,Brownsburg,Hendricks,IN,46112-1239,US,US/Eastern,KEYE,2020-09-29 12:53:00,63.0,63.0,48.0,29.02,10.0,SW,10.0,0.0,Mostly Cloudy,False,False,False,False,False,False,False,False,False,False,False,False,False,Day,Day,Day,Day
C-5808604,2,2021-07-10 12:12:00.000000000,2021-07-10 14:55:56.000000000,41.835293,-87.83279399999998,41.835372,-87.82765,0.264864620559,Stationary traffic from Maple Ave (31st St) to Des Plaines Ave/Woodside Rd (31st St) due to roadwork.,,31st St,R,Brookfield,Cook,IL,60513,US,US/Central,KMDW,2021-07-10 11:53:00,75.0,75.0,60.0,29.3,10.0,E,12.0,0.0,Mostly Cloudy,False,False,False,False,False,False,False,False,True,False,False,False,False,Day,Day,Day,Day
C-5808605,2,2021-04-01 04:43:30.000000000,2021-04-01 21:36:55.000000000,33.511449,-112.116975,33.50947,-112.116012,0.1475617020979999,Slow traffic from W Colter St to I-17 S due to roadwork.,5101.0,N 27th Ave,R,Phoenix,Maricopa,AZ,85017-3203,US,US/Mountain,KPHX,2021-04-01 04:51:00,72.0,72.0,9.0,28.77,10.0,ENE,15.0,0.0,Partly Cloudy,False,False,False,False,False,False,False,False,False,True,False,False,False,Night,Night,Night,Night
C-5808606,3,2017-07-07 08:55:49.000000000,2017-07-07 14:55:49.000000000,33.295831,-116.906521,33.286382,-116.871104,2.1471586905400004,Between Red Gate Rd and Church Rd - Roadwork.,19817.0,Highway 76,R,Pauma Valley,San Diego,CA,92061-9701,US,US/Pacific,KRNM,2017-07-07 08:53:00,89.1,,35.0,29.89,10.0,Calm,,,Clear,False,False,False,False,False,False,False,False,False,False,False,False,False,Day,Day,Day,Day
C-5808607,2,2021-10-26 08:13:53.000000000,2021-10-26 13:45:00.000000000,40.754758,-91.958067,40.761944,-91.953352,0.554446153401,Construction on IA-1 EB near COUNTY HWY-J40 Allow extra time.,22420.0,Highway 1,R,Keosauqua,Van Buren,IA,52565,US,US/Central,KFFL,2021-10-26 08:15:00,36.0,31.0,100.0,29.26,10.0,E,6.0,0.0,Fair,False,False,False,False,False,False,False,False,False,False,False,False,False,Day,Day,Day,Day
C-5808608,3,2018-12-01 06:00:00.000000000,2019-03-31 23:59:00.000000000,43.159969,-77.682045,,,0.0,Intermittent lane closures due to construction on I-390 both ways at Exits 20A 20B I-490.,,NY-390 S,R,Rochester,Monroe,NY,14606,US,US/Eastern,KROC,2018-12-01 05:54:00,33.1,,89.0,30.21,7.0,Calm,,,Light Drizzle,False,False,False,False,False,False,False,False,False,False,False,False,False,Night,Night,Night,Day
C-5808609,2,2021-10-19 13:01:30.000000000,2021-10-19 15:09:07.000000000,48.202366,-114.313791,48.201511,-114.314839,0.0762825987072,Slow traffic on US-93 S - US-2 W - US-93 N from W Idaho St to S Main St / W Center St due to roadwork.,21.0,E Idaho St,R,Kalispell,Flathead,MT,59901-4009,US,US/Mountain,KGPI,2021-10-19 12:55:00,58.0,58.0,37.0,26.99,10.0,VAR,3.0,0.0,Fair,False,False,False,False,False,False,False,False,False,False,False,False,False,Day,Day,Day,Day
C-5808610,1,2020-04-25 14:08:58.000000000,2020-04-25 16:08:58.000000000,40.33133,-74.63823000000002,40.33133,-74.63823000000002,0.0,At CR-526/CR-571/Washington Rd - Roadwork. Right lane closed.,,US Highway 1,R,Princeton,Mercer,NJ,08540,US,US/Eastern,KTTN,2020-04-25 13:53:00,62.0,62.0,53.0,29.82,10.0,VAR,5.0,0.0,Fair,False,False,False,False,False,False,False,False,False,False,False,True,False,Day,Day,Day,Day
C-5808611,4,2021-04-07 07:00:00.000000000,2021-12-31 23:59:00.000000000,42.115925,-86.393517,42.115928,-86.378663,0.7613086721960001,Bridge closure from N Euclid Ave / S Euclid Ave to S Benton Center Rd / N Benton Center Rd.,,I-94 W,R,Benton Harbor,Berrien,MI,49022,US,US/Eastern,KBEH,2021-04-07 06:53:00,57.0,57.0,69.0,29.19,10.0,SE,7.0,0.0,Fair,False,False,False,False,False,False,False,False,False,True,False,False,False,Night,Day,Day,Day
C-5808612,2,2021-02-15 01:29:30.000000000,2021-02-15 04:31:30.000000000,36.103971,-95.87564,36.119387,-95.922317,2.81475511743,Slow traffic on Broken Arrow Expy W - US-64 W - OK-51 W from US-169 (US-64) to 31st St (US-64) due to roadwork.,,Broken Arrow Expy W,R,Tulsa,Tulsa,OK,74145,US,US/Central,KRVS,2021-02-15 01:19:00,2.0,-15.0,76.0,29.75,5.0,N,13.0,0.0,Light Snow,False,False,False,False,False,False,False,False,False,False,False,False,False,Night,Night,Night,Night
C-5808613,2,2017-06-05 09:00:23.000000000,2017-06-05 15:01:52.000000000,40.116166,-75.28573100000001,40.118169,-75.28608,0.139617259047,At Sandy Hill Rd - Roadwork. Lane blocked.,504.0,W Germantown Pike,R,Plymouth Meeting,Montgomery,PA,19462,US,US/Eastern,KLOM,2017-06-05 08:55:00,64.4,,88.0,29.78,10.0,Calm,,,Clear,False,False,False,False,False,False,False,False,False,False,False,False,False,Day,Day,Day,Day
C-5808614,2,2020-07-06 19:29:00.000000000,2020-07-06 23:54:25.000000000,40.846577,-73.94304100000002,40.849697,-73.942131,0.220755879428,Construction construction on George Washington Bridge westbound Henry Hudson Parkway (Manhattan) to Mid-Span/Lower Level (Manhattan) right lane closed,164.0,Haven Ave,L,New York,New York,NY,10032-1180,US,US/Eastern,KNYC,2020-07-06 19:51:00,70.0,70.0,93.0,29.97,6.0,CALM,0.0,0.0,Fair,False,False,False,False,True,False,False,False,False,False,False,False,False,Day,Day,Day,Day
C-5808615,2,2021-09-13 11:27:30.000000000,2021-09-13 13:50:30.000000000,41.897794,-88.340301,41.901799,-88.339872,0.277597242349,Stationary traffic from CR-41/Kaneville Rd/Keslinger Rd (Randall Rd) to IL-38/Lincoln Hwy (S Randall Rd) due to roadwork.,,Bricher Rd,R,Saint Charles,Kane,IL,60174,US,US/Central,KDPA,2021-09-13 11:52:00,80.0,80.0,64.0,29.23,10.0,WSW,5.0,0.0,Fair,False,False,False,False,False,False,False,False,False,False,False,True,False,Day,Day,Day,Day
