ID,Severity,Start_Time,End_Time,Start_Lat,Start_Lng,End_Lat,End_Lng,Distance(mi),Description,Number,Street,Side,City,County,State,Zipcode,Country,Timezone,Airport_Code,Weather_Timestamp,Temperature(F),Wind_Chill(F),Humidity(%),Pressure(in),Visibility(mi),Wind_Direction,Wind_Speed(mph),Precipitation(in),Weather_Condition,Amenity,Bump,Crossing,Give_Way,Junction,No_Exit,Railway,Roundabout,Station,Stop,Traffic_Calming,Traffic_Signal,Turning_Loop,Sunrise_Sunset,Civil_Twilight,Nautical_Twilight,Astronomical_Twilight
C-5871583,2,2019-05-06 07:00:00,2019-08-18 07:02:37,43.2404,-97.9897,43.2404,-97.9897,0.0,At 410th Ave - Roadwork.,28600.0,SD Highway 37,R,Tripp,Hutchinson,SD,57376,US,US/Central,KYKN,2019-05-06 06:56:00,44.0,40.0,71.0,28.67,10.0,NNE,8.0,0.0,Fair,False,False,False,False,False,False,False,False,False,False,False,False,False,Day,Day,Day,Day
C-5871584,2,2021-10-05 14:37:00,2021-10-05 17:23:43,28.593085,-81.362298,28.593923,-81.365093,0.1791761693919999,Slow traffic on FL-424A - US-92 E - FL-426 - US-17 N - US-92 W - US-17 S from S Denning Dr to W Comstock Ave due to roadwork.,1013.0,W Fairbanks Ave,R,Winter Park,Orange,FL,32789-4718,US,US/Eastern,KORL,2021-10-05 14:53:00,89.0,89.0,52.0,29.85,10.0,ESE,10.0,0.0,Partly Cloudy,False,False,True,False,False,False,False,False,False,False,False,False,False,Day,Day,Day,Day
C-5871585,2,2021-05-25 13:11:41,2021-12-12 12:54:07,29.869222,-95.364133,29.870685,-95.362439,0.143245661424,Stationary traffic from E Hardy Rd to York Crst due to roadwork.,,Little York Rd,R,Houston,Harris,TX,77093,US,US/Central,KIAH,2021-09-11 14:53:00,88.0,88.0,45.0,29.93,10.0,E,5.0,0.0,Partly Cloudy,False,False,False,False,False,False,False,False,False,False,False,False,False,Day,Day,Day,Day
C-5871586,2,2021-11-16 13:46:30,2021-11-16 16:15:42,33.523826,-112.078061,33.523052,-112.07368999999998,0.257388382905,Stationary traffic from N 3rd Ave to E Montebello Ave due to roadwork.,5899.0,N 3rd Ave,R,Phoenix,Maricopa,AZ,85013-1537,US,US/Mountain,KPHX,2021-11-16 13:51:00,80.0,80.0,14.0,28.69,10.0,NE,3.0,0.0,Mostly Cloudy,False,False,False,False,False,False,False,False,False,True,False,False,False,Day,Day,Day,Day
C-5871587,4,2019-08-27 22:52:44,2019-08-28 03:50:50,38.144967,-103.74812,38.108855,-103.747569,2.4952812884,Closed at US-50/CR-18 - Closed due to roadwork.,2139.0,State Highway 71,L,Ordway,Crowley,CO,81063-9605,US,US/Mountain,KLHX,2019-08-27 22:53:00,67.0,67.0,73.0,25.86,10.0,E,9.0,0.0,Fair,False,False,False,False,False,False,False,False,False,True,False,False,False,Night,Night,Night,Night
C-5871589,2,2017-08-01 09:00:00,2017-08-01 16:00:00,41.18243,-73.955208,,,0.709999978542,Intermittent lane closures due to construction work on US-9W Congers Ave Southbound between Short Clove Rd and County Hwy-90 Old Route 304.,498.0,Old Route 304,R,New City,Rockland,NY,10956-5717,US,US/Eastern,KHPN,2017-08-01 08:56:00,77.0,,62.0,30.05,10.0,NNW,9.2,,Clear,False,False,False,False,False,False,False,False,False,False,False,False,False,Day,Day,Day,Day
C-5871590,2,2021-10-25 17:43:30,2021-10-25 18:04:30,38.408203,-107.406893,38.41847,-107.402922,0.741242468137,Slow traffic on US-50 W - US-50 E from Hillcrest Dr (E Main St/US-50) to CO-92 (US-50) due to roadwork.,8344.0,US Highway 50,R,Cimarron,Gunnison,CO,81220-9539,US,US/Mountain,KMTJ,2021-10-25 17:53:00,72.0,72.0,20.0,24.1,10.0,W,16.0,0.0,Fair,False,False,False,False,False,False,False,False,False,False,False,False,False,Day,Day,Day,Day
C-5871591,2,2021-01-28 14:02:00,2021-01-29 01:38:20,39.736753,-105.053234,39.740413,-105.053974,0.255920042855,Stationary traffic on US-40 W - CO-95 - I-70 Bus W from Sheridan Blvd / W 12th Ave to N Ames St due to roadwork.,1300.0,N Sheridan Blvd,R,Denver,Denver,CO,80214-3009,US,US/Mountain,KBJC,2021-01-28 13:45:00,39.0,32.0,56.0,24.41,10.0,WSW,10.0,0.0,Partly Cloudy,False,False,True,False,False,False,False,False,False,True,False,False,False,Day,Day,Day,Day
C-5871592,2,2021-03-30 08:48:30,2021-10-07 16:28:37,29.755948,-96.239829,29.766718,-96.145084,5.731322345060001,Stationary traffic on US-90 E - I-10 E from Beckendorff Rd/Exit 713 (I-10) to US-90/Exit 721 (I-10) due to roadwork.,,I-10 E,R,Sealy,Austin,TX,77474,US,US/Central,KTME,2021-06-13 12:35:00,91.0,91.0,63.0,29.81,9.0,VAR,5.0,0.0,Fair,False,False,False,False,False,False,False,False,False,False,False,False,False,Day,Day,Day,Day
C-5871593,4,2021-08-13 17:11:54,2021-08-16 02:05:38,41.72919,-88.338538,41.729913,-88.340213,0.0997757595108,Bridge closure from IL-25/SE River Rd (W Mill St) to N River St (W Mill St).,,W Mill St,R,Montgomery,Kane,IL,60538,US,US/Central,KARR,2021-08-13 16:52:00,76.0,76.0,64.0,29.33,10.0,WNW,5.0,0.0,Fair,True,False,False,False,False,False,False,False,False,False,False,False,False,Day,Day,Day,Day
C-5871594,2,2021-08-21 15:14:00,2021-12-14 17:35:00,42.341364,-83.27553499999998,42.341423,-83.27277099999998,0.141216423801,Slow traffic from N Beech Daly Rd (W Warren St) to W Outer Dr (Warren Ave) due to roadwork.,7124.0,Drexel St,R,Dearborn Heights,Wayne,MI,48127-2262,US,US/Eastern,KDTW,2021-12-14 15:53:00,47.0,43.0,59.0,29.75,8.0,ESE,9.0,0.0,Cloudy,False,False,True,False,False,False,False,False,True,False,False,True,False,Day,Day,Day,Day
C-5871595,2,2020-11-18 14:05:30,2020-11-18 20:05:30,33.538540999999995,-112.129513,33.538519,-112.134348,0.278453563434,Stationary traffic from I-17/N Black Canyon Hwy (W Glendale Ave) to N 35th Ave (W Glendale Ave) due to roadwork.,3288.0,W Glendale Ave,R,Phoenix,Maricopa,AZ,85051-8319,US,US/Mountain,KDVT,2020-11-18 13:53:00,85.0,85.0,14.0,28.36,10.0,CALM,0.0,0.0,Fair,False,False,True,False,False,False,False,False,False,False,False,True,False,Day,Day,Day,Day
C-5871596,2,2019-06-06 22:04:00,2019-06-10 22:03:35,28.539962,-81.381651,28.54200800000001,-81.38176999999997,0.1415495407599999,At Pine St - Construction work.,157.0,S Garland Ave,L,Orlando,Orange,FL,32801-3275,US,US/Eastern,KORL,2019-06-06 21:53:00,76.0,76.0,87.0,29.81,10.0,SSE,3.0,0.0,Fair,False,False,True,False,False,False,False,False,False,False,False,True,False,Night,Night,Night,Night
C-5871597,2,2021-04-28 10:18:04,2021-04-29 11:05:54,39.20479,-77.245779,39.199816,-77.25932399999998,0.802532926527,Construction on MD-27 SB near MP 0 Expect delays.,,Ridge Rd,R,Germantown,Montgomery,MD,20876,US,US/Eastern,KGAI,2021-04-28 09:56:00,78.0,78.0,48.0,29.38,10.0,W,7.0,0.0,Fair,False,False,True,False,False,False,False,False,False,False,False,True,False,Day,Day,Day,Day
C-5871598,2,2016-09-23 07:01:50,2016-09-23 14:01:50,36.18755,-120.82011,36.06984,-120.65256,12.3925222127,Between CA-198 and Indian Valley Rd - Construction work.,,State Route 198,R,San Ardo,Monterey,CA,93450,US,US/Pacific,KPRB,2016-09-23 06:53:00,42.1,,92.0,30.1,10.0,Calm,,,Clear,False,False,False,False,False,False,False,False,False,False,False,False,False,Day,Day,Day,Day
C-5871599,2,2019-08-05 08:00:00,2019-10-26 12:35:21,42.46152,-98.03369,42.59469,-98.02603,9.20943359744,Between US-20 and 885 Rd - Roadwork.,87165.0,Highway 14,L,Creighton,Knox,NE,68729-2823,US,US/Central,KONL,2019-08-05 07:55:00,73.0,73.0,91.0,27.84,10.0,SSW,6.0,0.0,Cloudy,False,False,False,False,False,False,False,False,False,False,False,False,False,Day,Day,Day,Day
C-5871600,4,2019-08-08 18:05:18,2019-08-08 23:04:27,40.608697,-74.038298,40.606478,-74.045167,0.391574690829,Closed at I-278/Verrazano-Narrows Brg - Closed due to roadwork. Right lane blocked.,,I-278 W,R,Brooklyn,Kings,NY,11209,US,US/Eastern,KJRB,2019-08-08 17:51:00,83.0,83.0,53.0,29.54,10.0,VAR,5.0,0.0,Partly Cloudy,False,False,False,False,False,False,False,False,False,False,False,False,False,Day,Day,Day,Day
C-5871601,2,2020-10-08 02:31:00,2020-10-08 13:44:00,33.442349,-117.137482,33.481225,-117.140728,2.69258445342,Construction on I-15 NB near RAINBOW VALLEY Drive with caution.,,Escondido Fwy N,R,Temecula,Riverside,CA,92590,US,US/Pacific,KF70,2020-10-08 02:35:00,61.0,61.0,100.0,28.52,4.0,CALM,0.0,0.0,Cloudy,False,False,False,False,True,False,False,False,False,False,False,False,False,Night,Night,Night,Night
C-5871602,2,2018-06-15 07:56:35,2018-06-15 13:59:58,40.34124,-75.15109,40.327281,-75.165138,1.21558534588,At Callowhill Rd/Park Ave - Roadwork. Lane blocked.,4999.0,W Swamp Rd,R,Doylestown,Bucks,PA,18901-9031,US,US/Eastern,KDYL,2018-06-15 07:54:00,66.0,,56.0,29.94,10.0,NW,8.1,,Clear,False,False,False,False,False,False,False,False,False,False,False,True,False,Day,Day,Day,Day
C-5871603,2,2020-08-28 13:26:30,2020-08-28 22:12:27,27.838381,-82.786953,27.839668,-82.787625,0.097943964781,Stationary traffic on US-19 Alt N - FL-595 - County Hwy-694 from US-19 Alt to 110th Ln due to resurfacing work.,7275.0,Seminole Blvd,R,Seminole,Pinellas,FL,33772,US,US/Eastern,KPIE,,,,,,,,,,,False,False,False,False,False,False,False,False,True,False,False,False,False,Day,Day,Day,Day
C-5871604,2,2020-12-01 13:18:30,2020-12-02 02:18:57,28.811362,-81.35214599999998,28.811949,-81.363039,0.6607109702880001,Stationary traffic on FL-46 from I-4 (FL-46) to Orange Blvd (FL-46) due to roadwork.,5200.0,W State Road 46,L,Sanford,Seminole,FL,32771-9230,US,US/Eastern,KSFB,2020-12-01 12:53:00,52.0,52.0,37.0,30.11,10.0,N,8.0,0.0,Fair,False,False,False,False,False,False,False,False,False,False,False,True,False,Day,Day,Day,Day
C-5871605,2,2018-06-19 08:00:00,2018-06-22 17:00:00,42.782539,-73.931331,42.76527,-73.93879,1.25170917475,At Curry Rd - Construction work.,,Hamburg St,R,Schenectady,Schenectady,NY,12303,US,US/Eastern,KALB,2018-06-19 07:51:00,71.1,,63.0,29.83,10.0,NW,13.8,,Scattered Clouds,False,False,True,False,False,False,False,False,False,False,False,False,False,Day,Day,Day,Day
C-5871607,2,2021-10-19 16:34:48,2021-10-19 16:56:36,40.70985,-74.197388,40.70562,-74.205933,0.534530283689,Slow traffic from Clinton Ave (Elizabeth Ave) to N Broad St (Elizabeth Ave) due to roadwork.,2.0,Watson Ave,L,Newark,Essex,NJ,07112-2630,US,US/Eastern,KEWR,2021-10-19 16:51:00,70.0,70.0,28.0,29.9,10.0,W,17.0,0.0,Fair,False,False,False,False,False,False,False,False,False,False,False,True,False,Day,Day,Day,Day
C-5871608,3,2019-03-19 09:05:09,2019-03-23 09:05:02,42.424985,-70.986186,42.42666,-70.984257,0.151897118852,At Mills Ave - Construction work.,844.0,N Shore Rd,L,Revere,Suffolk,MA,02151-1544,US,US/Eastern,KBOS,2019-03-19 08:54:00,36.0,28.5,48.0,30.37,10.0,WNW,10.4,,Partly Cloudy,False,False,True,False,False,False,False,False,False,False,False,False,False,Day,Day,Day,Day
C-5871609,2,2021-04-22 07:00:00,2021-04-22 16:45:00,39.797727,-75.34697,39.783793,-75.341426,1.0067350138,Construction on US-322 EB near US-130 Construction. Shoulder closed.,,Route 322,R,Swedesboro,Gloucester,NJ,08085,US,US/Eastern,KPHL,2021-04-22 06:54:00,36.0,27.0,46.0,29.92,10.0,W,15.0,0.0,Fair,False,False,False,False,False,False,False,False,False,False,False,False,False,Day,Day,Day,Day
C-5871610,2,2020-11-10 18:21:37,2020-11-10 20:13:56,39.489391,-117.062774,39.491833,-117.070159,0.428403941152,Stationary traffic on US-50 from Reese St/Water St (US-50) to NV-305 (US-50) due to roadwork.,,US-50 E,R,Austin,Lander,NV,89310,US,US/Pacific,KU31,2020-11-10 17:53:00,28.0,28.0,58.0,24.12,,CALM,0.0,0.0,,False,False,False,False,False,False,False,False,False,False,False,False,False,Night,Night,Night,Night
C-5871611,4,2020-06-17 13:34:23,2020-06-17 18:09:13,40.73017,-74.04133,40.72995,-74.0397,0.0866873769681,Closed at Marin Blvd - Closed. New roadwork layout.,193.0,12th St,L,Jersey City,Hudson,NJ,07310-1423,US,US/Eastern,KJRB,2020-06-17 13:51:00,77.0,,48.0,30.13,10.0,,,0.0,Fair,False,False,True,False,False,False,False,False,False,False,False,True,False,Day,Day,Day,Day
C-5871612,2,2020-10-30 13:08:00,2020-10-31 02:16:00,40.421138,-79.852515,40.415722,-79.847666,0.452873594102,Stationary traffic on US-30 from I-376 (US-30) to Yost Blvd (US-30) due to roadwork.,2042.0,Ardmore Blvd,R,Pittsburgh,Allegheny,PA,15221-4648,US,US/Eastern,KAGC,2020-10-30 12:53:00,43.0,38.0,89.0,28.71,10.0,NNW,8.0,0.0,Cloudy,False,False,False,False,False,False,False,False,False,False,False,True,False,Day,Day,Day,Day
C-5871613,2,2020-09-24 13:01:00,2020-09-25 04:46:00,40.03867,-120.983902,39.784438,-120.620102,26.0822835509,One-Way Traffic closure due to Crack Seal Operation between 0.9 mi east of Cromberg and 0.2 mi west of Two Rivers Rd,,State Highway 89,R,Quincy,Plumas,CA,95971,US,US/Pacific,KOVE,2020-09-24 12:53:00,83.0,83.0,36.0,29.8,10.0,SSW,5.0,0.0,Fair,False,False,False,False,False,False,False,False,False,False,False,False,False,Day,Day,Day,Day
C-5871614,4,2018-09-21 21:00:00,2018-09-22 08:00:00,40.033115,-83.123989,40.03056,-83.1233,0.1802576064519999,Closed at I-270 - Closed due to roadwork.,,Outerbelt S,R,Hilliard,Franklin,OH,43026,US,US/Eastern,KOSU,2018-09-21 20:53:00,73.9,,85.0,29.99,10.0,West,4.6,,Partly Cloudy,False,False,False,False,False,False,False,False,False,False,False,False,False,Night,Night,Night,Day
C-5871615,2,2021-10-21 16:23:00,2021-10-21 16:46:30,33.480662,-112.106407,33.480626,-112.113616,0.415454205846,Slow traffic on US-60 W from N 19th Ave (W Thomas Rd) to I-17/Black Canyon Hwy (W Thomas Rd) due to roadwork.,2136.0,W Thomas Rd,R,Phoenix,Maricopa,AZ,85015-6030,US,US/Mountain,KPHX,2021-10-21 16:51:00,88.0,88.0,16.0,28.8,10.0,WNW,5.0,0.0,Fair,False,False,True,False,False,False,False,False,False,True,False,True,False,Day,Day,Day,Day
C-5871616,4,2021-09-23 11:40:18,2021-09-30 23:59:00,41.192667,-73.19624,41.194057,-73.198451,0.149794006864,Closed road from North Ave to Main St / Wheeler Ave due to roadwork.,851.0,North Ave,L,Bridgeport,Fairfield,CT,06606-5707,US,US/Eastern,KBDR,2021-09-23 11:52:00,80.0,80.0,71.0,29.98,10.0,SE,16.0,0.0,Cloudy,False,False,True,False,False,False,False,False,False,False,False,False,False,Day,Day,Day,Day
C-5871617,2,2021-09-16 05:48:00,2021-09-16 06:01:00,35.479709,-108.433456,35.481834,-108.442841,0.548065516845,Slow traffic on I-40 W - Historic US 66 W from Elim Haven Rd/Exit 44 (I-40) to Historic Rte 66/Exit 36 (I-40) due to roadwork.,,Historic US 66 W,R,Continental Divide,McKinley,NM,87312,US,US/Mountain,KGUP,2021-09-16 05:53:00,48.0,46.0,39.0,23.73,10.0,NE,5.0,0.0,Fair,False,False,False,False,False,False,False,False,False,False,False,False,False,Night,Night,Night,Day
C-5871618,2,2021-02-26 05:13:00,2021-02-26 18:32:00,41.845471,-87.63475600000002,41.881522,-87.645358,2.54992789511,Slow traffic on I-94 W - I-90 W - Dan Ryan Expy N - Kennedy Expy W from Stevenson Expy exit [53B] to exit [51C] due to roadwork.,,Dan Ryan Expy N,R,Chicago,Cook,IL,60616,US,US/Central,KMDW,2021-02-26 04:53:00,26.0,26.0,75.0,29.57,10.0,CALM,0.0,0.0,Fair,True,False,True,False,True,False,False,False,False,False,False,False,False,Night,Night,Night,Day
C-5871619,2,2020-08-28 12:20:30,2020-08-28 17:29:27,28.043888,-82.679089,28.044336,-82.677238,0.117042909726,Queuing traffic on County Hwy-752 - FL-584 from Old Village Way to Lakeview Dr due to resurfacing work.,3740.0,Tampa Rd,L,Oldsmar,Pinellas,FL,34677-6306,US,US/Eastern,KPIE,,,,,,,,,,,False,False,False,False,False,False,False,False,False,False,False,False,False,Day,Day,Day,Day
C-5871620,2,2020-08-04 16:00:00,2020-08-04 22:45:00,29.686876,-95.378774,29.686934,-95.379557,0.0471697561383,Construction on TX-288 FRONTAGE RD SB near HOLLY HALL ST Left lane closed. Expect delays.,,S Freeway N,R,Houston,Harris,TX,77021,US,US/Central,KMCJ,2020-08-04 15:53:00,95.0,95.0,46.0,29.9,10.0,SSW,6.0,0.0,Partly Cloudy,False,False,False,False,False,False,False,False,False,False,False,False,False,Day,Day,Day,Day
C-5871621,2,2020-11-14 15:05:30,2020-11-14 21:38:59,27.840698,-82.787134,27.839668,-82.787625,0.0772303215638,Stationary traffic on US-19 Alt S - FL-595 from Johnson Blvd to Park Blvd due to roadwork.,7504.0,Seminole Blvd,L,Seminole,Pinellas,FL,33772-5428,US,US/Eastern,KPIE,2020-11-14 14:53:00,83.0,83.0,65.0,30.0,10.0,NE,5.0,0.0,Fair,False,False,False,False,False,False,False,False,False,False,False,False,False,Day,Day,Day,Day
C-5871622,2,2021-05-24 19:00:00,2021-05-25 06:00:00,37.035253,-81.125844,37.042867,-81.136749,0.799049269404,On I-77 in the County of Bland from mile marker 51 to mile marker 47 motorists can expect potential delays in this area from 05/24/21 at 7:00 PM until 05/25/21 at 6:00 AM due to maintenance activities. The south left lane is closed.,,Big Walker Mountain Tunnel,R,Bland,Bland,VA,24315,US,US/Eastern,KBLF,2021-05-24 18:52:00,75.0,75.0,57.0,27.25,10.0,NNW,3.0,0.0,Partly Cloudy,False,False,False,False,False,False,False,False,False,False,False,False,False,Day,Day,Day,Day
C-5871623,2,2020-12-08 13:44:00,2020-12-09 02:15:10,27.840698,-82.787134,27.839477,-82.785813,0.1167515019569999,Slow traffic on US-19 Alt S - FL-595 - FL-694 - County Hwy-694 from Johnson Blvd to 104th Ln due to roadwork.,7504.0,Seminole Blvd,L,Seminole,Pinellas,FL,33772-5428,US,US/Eastern,KPIE,2020-12-08 13:53:00,55.0,55.0,55.0,30.09,10.0,NW,14.0,0.0,Fair,False,False,True,False,False,False,False,False,True,False,False,False,False,Day,Day,Day,Day
C-5871624,2,2021-05-18 00:28:06,2021-08-18 20:43:08,40.726221,-73.97215899999998,40.720791,-73.974739,0.398759926916,Construction construction on Franklin D. Roosevelt Drive southbound at Exit 7 - Avenue C (New York) 2 Right lanes of 3 lanes closed until 2:00 A.M.,,E 14th St,R,New York,New York,NY,10009,US,US/Eastern,KJRB,2021-05-18 00:51:00,64.0,64.0,48.0,30.2,10.0,VAR,5.0,0.0,Fair,False,False,False,False,True,True,False,False,False,False,False,False,False,Night,Night,Night,Night
C-5871625,2,2020-04-21 10:22:04,2020-04-21 14:00:00,40.8056,-73.92155,40.80509,-73.92038000000002,0.0706109799123,Between Willis Ave/Exit 2 and I-278/Bruckner Expy - Roadwork.,,Major Deegan Expy N,R,Bronx,Bronx,NY,10454,US,US/Eastern,KLGA,2020-04-21 10:51:00,57.0,57.0,69.0,29.49,10.0,S,20.0,0.0,Mostly Cloudy,False,False,False,False,False,False,False,False,False,False,False,False,False,Day,Day,Day,Day
C-5871626,2,2020-07-06 13:30:57,2020-07-11 06:59:59,42.910355,-76.221073,42.923015,-76.214173,0.941827725912,Repaving on NY 80 both directions between US 20 (Onondaga) and Town of Otisco; Town of Tully Line (Otisco) single lane closure with flaggers Monday July 6th 2020 thru Friday July 17th 2020 Monday thru Friday 06:30 AM thru 07:00 PM,2874.0,Lords Hill Rd,R,La Fayette,Onondaga,NY,13084-9731,US,US/Eastern,KSYR,2020-07-06 13:54:00,90.0,90.0,31.0,29.59,10.0,VAR,6.0,0.0,Fair,False,False,False,False,False,False,False,False,False,True,False,False,False,Day,Day,Day,Day
C-5871627,2,2020-07-13 13:26:00,2020-07-17 13:50:28,41.004604,-77.86508,41.0224,-77.90231899999998,2.29806436754,Roadwork on I-80 westbound between 5.9 miles east of Exit 147: PA 144 - SNOW SHOE and 2.8 miles east of Exit 147: PA 144 - SNOW SHOE. There is a lane restriction.,,I-80 W,R,Bellefonte,Centre,PA,16823,US,US/Eastern,KUNV,2020-07-13 13:53:00,77.0,77.0,50.0,28.56,10.0,WNW,7.0,0.0,Mostly Cloudy,False,False,False,False,False,False,False,False,False,False,False,False,False,Day,Day,Day,Day
C-5871628,2,2021-11-22 15:56:00,2021-11-22 18:11:19,29.53372700000001,-95.808279,29.532036,-95.808317,0.116859303044,Slow traffic on TX-36 from US-90 Alt/Avenue H (US-90 Alt/1st St/Avenue H/TX-36) to US-59/Southwest Fwy (1st St/TX-36) due to roadwork.,3313.0,1st St,L,Rosenberg,Fort Bend,TX,77471-5846,US,US/Central,KSGR,2021-11-22 15:53:00,72.0,72.0,35.0,30.11,10.0,N,10.0,0.0,Fair,False,False,False,False,False,False,False,False,False,False,False,False,False,Day,Day,Day,Day
C-5871629,2,2020-09-22 15:55:00,2020-09-22 23:45:00,41.19246,-73.19493,41.17460300000001,-73.19500500000002,1.23380735675,Road Work on RT8 Southbound between Exits 3 and 1 (1.3 miles) in effect today until 4:00 pm. The left lane is closed. Reported Tuesday September 22 at 11:12 am.,,CT-25 S,R,Bridgeport,Fairfield,CT,06604,US,US/Eastern,KBDR,2020-09-22 15:52:00,71.0,71.0,25.0,29.88,10.0,NW,17.0,0.0,Fair,False,False,False,False,True,False,False,False,False,False,False,False,False,Day,Day,Day,Day
C-5871630,2,2020-08-20 07:15:58,2020-08-21 08:00:59,26.390415,-80.099676,26.374375,-80.116476,1.51972807707,Construction on I-95 SB near EXIT 48 Construction. Expect long delays.,,I-95 S,R,Boca Raton,Palm Beach,FL,33431,US,US/Eastern,KBCT,2020-08-20 06:53:00,79.0,79.0,90.0,29.9,10.0,CALM,0.0,0.0,Fair,False,False,False,False,False,False,False,False,False,False,False,False,False,Day,Day,Day,Day
C-5871631,2,2021-02-08 08:30:00,2021-02-22 04:00:00,33.510033,-112.008148,33.509907,-112.008148,0.00870577086335,36TH ST - 34TH PL - Construction - Asphalt/Concrete RestorationLanesRestricted: EB ALL; WB &amp;#61; 136TH ST - 34TH PL,,E Camelback Rd,R,Phoenix,Maricopa,AZ,85018,US,US/Mountain,KPHX,2021-02-08 08:51:00,53.0,53.0,41.0,28.78,10.0,SE,7.0,0.0,Fair,False,False,False,False,False,False,False,False,False,True,False,False,False,Day,Day,Day,Day
C-5871632,3,2019-09-11 23:35:29,2019-09-16 14:53:42,42.29164,-85.584757,42.291679,-85.583252,0.0769683510529,At I-94-BR/M-96/King Hwy - Roadwork. Roadway reduced to 2 lanes.,1.0,S Rose St,L,Kalamazoo,Kalamazoo,MI,49007-4705,US,US/Eastern,KAZO,2019-09-12 14:53:00,76.0,76.0,74.0,29.22,10.0,VAR,3.0,0.0,Cloudy,True,False,True,False,False,False,False,False,False,False,False,True,False,Night,Night,Night,Night
C-5871633,2,2021-07-27 18:16:30,2021-09-23 07:57:13,27.904659,-81.600872,27.89862,-81.599979,0.420802993833,Slow traffic on US-27 S - FL-25 from Washington Ave (US-27) to FL-60 (US-27) due to roadwork.,19856.0,Highway 27,R,Lake Wales,Polk,FL,33853,US,US/Eastern,KBOW,2021-09-17 15:50:00,81.0,81.0,74.0,29.93,10.0,WSW,8.0,0.0,Thunder in the Vicinity,False,False,False,False,False,False,False,False,False,False,False,False,False,Day,Day,Day,Day
C-5871634,2,2021-11-28 12:16:00,2021-11-28 14:22:51,33.539921,-112.134333,33.538527,-112.13364,0.104257411669,Stationary traffic from W Glenn Dr to N 34th Ave due to roadwork.,7031.0,N 35th Ave,R,Phoenix,Maricopa,AZ,85051-8310,US,US/Mountain,KDVT,2021-11-28 11:53:00,71.0,71.0,23.0,28.56,10.0,CALM,0.0,0.0,Fair,True,False,False,False,False,False,False,False,False,False,False,False,False,Day,Day,Day,Day
C-5871636,2,2020-08-27 12:34:30,2020-08-27 22:13:30,40.609064,-73.97089799999998,40.609378,-73.967924,0.157497875682,Queuing traffic from 65th St (Avenue P) to Ocean Pkwy (Avenue P) due to roadwork.,1701.0,E 3rd St,L,Brooklyn,Kings,NY,11223-1936,US,US/Eastern,KJRB,2020-08-27 12:51:00,84.0,84.0,63.0,29.63,10.0,VAR,6.0,0.0,Fair,True,False,True,False,False,False,False,False,False,False,False,True,False,Day,Day,Day,Day
C-5871637,2,2021-08-26 14:20:30,2021-12-17 18:09:47,35.742718,-78.685142,35.742946999999994,-78.68047,0.262480611578,Stationary traffic from Gorman St (Tryon Rd) to Lake Wheeler Rd (Tryon Rd) due to roadwork.,2973.0,Tryon Rd,L,Raleigh,Wake,NC,27603-2937,US,US/Eastern,KRDU,2021-12-17 15:51:00,71.0,71.0,68.0,29.71,10.0,SW,6.0,0.0,Cloudy,False,False,False,False,False,False,False,False,False,False,False,True,False,Day,Day,Day,Day
C-5871638,2,2021-03-05 21:01:00,2021-12-18 21:31:30,47.309842,-116.898017,47.262033,-116.923777,3.5170128114199994,Slow traffic on US-95 N - US-95 S from ID-5/C St/Cedar St (US-95) to ID-60 (US-95) due to roadwork.,392800.0,Highway 95,R,Plummer,Benewah,ID,83851-9770,US,US/Pacific,KCOE,2021-12-18 20:56:00,36.0,26.0,93.0,27.33,10.0,S,18.0,0.01,Light Rain,False,False,False,False,False,False,False,False,False,False,False,False,False,Night,Night,Night,Night
C-5871639,3,2020-04-06 09:02:29,2020-04-10 09:02:20,29.43191,-98.48344,29.43117,-98.48261,0.071476129694,At Alamo St - Construction work.,696.0,Broadway St,R,San Antonio,Bexar,TX,78215-1822,US,US/Central,KSAT,2020-04-06 08:51:00,63.0,63.0,93.0,29.15,7.0,E,5.0,0.0,Cloudy,False,False,False,False,False,False,False,False,False,False,False,True,False,Day,Day,Day,Day
C-5871640,2,2020-12-19 15:34:00,2020-12-19 18:56:00,33.710615000000004,-112.203135,33.712132000000004,-112.20315,0.104818262977,Stationary traffic from W Deer Valley Rd (N 67th Ave) to W Happy Valley Rd (N 67th Ave) due to roadwork.,24815.0,N 67th Ave,R,Glendale,Maricopa,AZ,85310-2605,US,US/Mountain,KDVT,2020-12-19 15:53:00,63.0,63.0,26.0,28.55,10.0,SSW,3.0,0.0,Fair,False,False,True,False,False,False,False,False,False,False,False,True,False,Day,Day,Day,Day
C-5871641,3,2018-06-29 21:00:00,2018-06-30 06:00:00,41.668266,-83.514786,,,0.8199999928470001,Exit ramp from I-280 Northbound to OH-25 closed due to construction work. Detour in operation - Manhattan Blvd. (Exit 12); southbound I-280; Greenbelt Pkwy. (Exit 11).,,I-280 N,R,Toledo,Lucas,OH,43611,US,US/Eastern,KDUH,,,,,,,,,,,False,False,True,False,False,False,False,False,False,False,False,False,False,Day,Day,Day,Day
C-5871642,2,2020-12-27 02:33:03,2021-01-01 02:52:23,32.89806,-97.317354,32.894007,-97.317493,0.280151713868,Roadwork on Heritage Trace Pkwy exit [63] from exit [57B] to I-35W S.,,I-35W S,R,Fort Worth,Tarrant,TX,76177,US,US/Central,KAFW,2020-12-27 02:53:00,54.0,54.0,69.0,29.11,10.0,S,18.0,0.0,Fair,False,False,False,False,False,False,False,False,False,False,False,False,False,Night,Night,Night,Night
C-5871643,3,2021-06-13 00:01:00,2021-06-13 06:00:00,40.891708,-73.816109,,,4.07000017166,Road closed due to construction work on Hutchinson River Pkwy Southbound from Pelhamdale Ave to US-1 Boston Post Rd.,,Boston Post Rd,R,Pelham,Westchester,NY,10803,US,US/Eastern,KLGA,2021-06-13 00:51:00,64.0,64.0,72.0,29.89,10.0,S,9.0,0.0,Fair,False,False,False,False,False,False,False,False,False,False,False,False,False,Night,Night,Night,Night
C-5871644,2,2021-12-29 15:51:30,2021-12-29 17:52:48,33.460943,-112.134484,33.462995,-112.134431,0.141812606711,Slow traffic from W Van Buren St (N 35th Ave) to I-10/Papago Fwy (N 35th Ave) due to roadwork.,1141.0,N 35th Ave,R,Phoenix,Maricopa,AZ,85009,US,US/Mountain,KPHX,2021-12-29 15:51:00,59.0,59.0,42.0,28.72,10.0,W,5.0,0.0,Mostly Cloudy,False,False,False,False,False,False,False,False,False,False,False,False,False,Day,Day,Day,Day
C-5871645,2,2021-08-04 08:27:30,2021-08-04 10:49:27,33.599075,-112.013235,33.596905,-112.012383,0.157746874802,Slow traffic from E Charter Oak Rd to Piestewa Fwy S due to roadwork.,12320.0,N 32nd St,L,Phoenix,Maricopa,AZ,85032-7151,US,US/Mountain,KSDL,2021-08-04 08:53:00,92.0,92.0,34.0,28.21,10.0,CALM,0.0,0.0,Fair,True,False,False,False,False,False,False,False,True,True,False,False,False,Day,Day,Day,Day
C-5871646,2,2021-08-26 13:22:00,2021-08-26 19:35:30,41.201844,-79.944018,41.20258,-79.96102900000002,0.885780523658,Slow traffic on I-80 W from PA-308/Exit 35 (I-80) to PA-8/Exit 29 (I-80) due to roadwork.,,I-80 W,R,Harrisville,Venango,PA,16038,US,US/Eastern,KFKL,2021-08-26 12:56:00,80.0,80.0,74.0,28.55,10.0,WSW,5.0,0.0,Fair,False,False,False,False,False,False,False,False,False,False,False,False,False,Day,Day,Day,Day
C-5871647,2,2019-10-08 09:00:00,2019-10-08 15:00:00,41.100025,-73.9534,,,6.079999923709999,Right hand shoulder blocked due to construction work on I-287 Southbound from Exit 14 NY-59 to Exit 12 NY-303.,,I-287 E,R,West Nyack,Rockland,NY,10994,US,US/Eastern,KHPN,2019-10-08 08:56:00,57.0,57.0,81.0,29.76,10.0,N,12.0,0.0,Mostly Cloudy,False,False,False,False,False,False,False,False,False,False,False,False,False,Day,Day,Day,Day
C-5871648,2,2019-03-12 06:00:08,2019-03-17 18:59:00,39.489071,-88.37782299999998,,,0.0,Restrictions due to construction work on US-45 both ways at IL-121. Temporary length limit of 200'.,679.0,N 19th St,L,Mattoon,Coles,IL,61938-2805,US,US/Central,KMTO,2019-03-12 06:53:00,30.0,24.1,88.0,30.4,10.0,SSE,5.8,,Clear,False,False,False,False,False,False,False,False,False,False,False,True,False,Night,Night,Night,Day
C-5871649,3,2020-01-02 09:55:00,2020-01-03 10:55:00,42.800625,-71.092789,,,15.4200000763,Intermittent lane closures due to construction work on I-495 Northbound between Exits 41 41A 41B MA-28 Main St and Exits 51 51A 51B MA-125 Main St.,,I-495 S,R,Haverhill,Essex,MA,01830,US,US/Eastern,KLWM,2020-01-02 09:54:00,34.0,26.0,64.0,29.73,10.0,SW,10.0,0.0,Fair,False,False,False,False,False,False,False,False,False,False,False,False,False,Day,Day,Day,Day
C-5871650,4,2019-10-19 05:46:00,2019-10-19 07:45:16,41.83684,-71.51807,41.8192,-71.51225,1.2551009309,Between US-44/Exit 7 and US-6/Exit 5 - Roadwork.,,I-295 S,R,Johnston,Providence,RI,02919,US,US/Eastern,KSFZ,2019-10-19 05:56:00,,,,29.51,10.0,NW,5.0,0.0,Fair,False,False,False,False,False,False,False,False,False,False,False,False,False,Night,Night,Night,Day
C-5871651,2,2018-01-08 10:38:47,2018-04-30 19:00:00,35.290852,-98.412155,,,0.0,Intermittent lane closures due to construction work on OK-152 both ways at OK-146.,18601.0,State Highway 146,R,Binger,Caddo,OK,73009,US,US/Central,KRQO,2018-01-08 10:30:00,40.6,33.0,78.0,30.23,10.0,NNE,13.8,,Clear,False,False,False,False,False,False,False,False,False,False,False,False,False,Day,Day,Day,Day
C-5871652,2,2021-09-20 09:00:00,2021-09-20 23:59:00,40.415086,-74.164378,40.415546,-74.16549300000001,0.0667124990178,Utility work on NJ 35 southbound North of Union Av (Holmdel Twp) Monday September 20th 2021 09:00 AM thru 01:00 PM 1 Right lane and shoulder of 3 lanes closed,,State Highway 35,R,Holmdel,Monmouth,NJ,07733,US,US/Eastern,KBLM,2021-09-20 08:56:00,67.0,67.0,81.0,30.17,10.0,NNE,5.0,0.0,Mostly Cloudy,False,False,False,False,False,False,False,False,False,False,False,False,False,Day,Day,Day,Day
C-5871653,2,2020-08-09 16:31:00,2020-08-10 17:25:02,40.239411,-76.257487,40.22267100000001,-76.09315699999998,8.74508491636,Construction on I-76 EB near MP 283 Construction. Shoulder closed.,,I-76 E,R,Stevens,Lancaster,PA,17578,US,US/Eastern,KLNS,2020-08-09 16:53:00,87.0,87.0,51.0,29.62,10.0,W,8.0,0.0,Partly Cloudy,False,False,False,False,False,False,False,False,False,False,False,False,False,Day,Day,Day,Day
C-5871654,4,2017-11-17 20:01:39,2017-11-18 02:01:39,29.383948,-98.643289,29.40495,-98.64956,1.49940012126,Closed at US-90/Exit 6 - Closed. Construction work.,,TX-16 S,R,San Antonio,Bexar,TX,78227,US,US/Central,KSKF,2017-11-17 19:56:00,71.1,,77.0,29.85,10.0,SSE,5.8,,Clear,False,False,False,False,False,False,False,False,False,False,False,False,False,Night,Night,Night,Night
C-5871655,1,2021-03-05 05:40:29,2021-07-25 17:00:00,32.655201,-97.11499,,,0.0,Road closed due to long-term construction on Nathan Lowe Rd both ways from FM-157 Cooper St to Matlock Rd.,101.0,E Nathan Lowe Rd,L,Arlington,Tarrant,TX,76018,US,US/Central,KGKY,2021-03-05 05:53:00,57.0,57.0,77.0,29.24,10.0,S,8.0,0.0,Fair,False,False,False,False,False,False,False,False,False,False,False,False,False,Night,Night,Night,Day
C-5871656,2,2017-10-04 11:30:04,2017-10-04 17:33:22,40.001282,-75.714251,40.00376,-75.70834,0.356635557491,At US-322/Manor Ave - Roadwork. Traffic problem.,399.0,W Lancaster Ave,R,Downingtown,Chester,PA,19335-2513,US,US/Eastern,KOQN,2017-10-04 11:35:00,66.0,66.0,73.0,29.73,10.0,SW,8.0,0.0,Fair,False,False,True,False,False,False,False,False,False,True,False,True,False,Day,Day,Day,Day
C-5871657,2,2016-11-01 10:00:00,2016-11-01 15:00:00,40.811928,-73.49131,,,0.69,Intermittent lane closures due to construction work on NY-135 Seaford Oyster Bay Expy Northbound between Exits 13E 13W I-495 Long Island Expy and Exits 14E 14W NY-25 Jericho Tpke.,,Jericho Tpke,R,Woodbury,Nassau,NY,11797,US,US/Eastern,KFRG,2016-11-01 09:53:00,48.9,,74.0,30.39,10.0,East,5.8,,Clear,False,False,False,False,False,False,False,False,False,False,False,False,False,Day,Day,Day,Day
C-5871658,2,2020-11-13 23:03:49,2020-11-14 02:42:08,40.867763,-74.447151,40.906939,-74.603287,8.593133262410001,Slow traffic on I-80 W from US-202/Exit 42 (I-80) to Howard Blvd/Exit 30 (I-80) due to roadwork.,,I-80 W,R,Parsippany,Morris,NJ,07054,US,US/Eastern,KMMU,2020-11-13 22:55:00,37.0,37.0,93.0,29.82,10.0,CALM,0.0,0.0,Fair,False,False,False,False,False,False,False,False,False,False,False,False,False,Night,Night,Night,Night
C-5871659,3,2018-05-09 09:00:00,2018-05-09 15:00:00,42.60659,-83.20784,,,1.5800000429199998,Right lane blocked and shoulder blocked due to construction work on I-75 Northbound from I-75 to Exit 74 Adams Rd.,,Chrysler Fwy N,R,Troy,Oakland,MI,48098,US,US/Eastern,KVLL,2018-05-09 08:55:00,61.0,,47.0,30.04,10.0,Calm,,,Clear,False,False,False,False,False,False,False,False,False,False,False,False,False,Day,Day,Day,Day
C-5871660,2,2019-04-17 09:03:30,2019-04-23 09:01:30,33.761071,-84.322969,33.760673,-84.323813,0.0557368827599,At Southerland Ter NE - Construction work.,1954.0,Dekalb Ave NE,L,Atlanta,DeKalb,GA,30307-2349,US,US/Eastern,KPDK,2019-04-18 08:53:00,62.0,62.0,90.0,28.92,10.0,VAR,5.0,0.0,Fair,False,False,False,False,False,False,False,False,False,False,False,False,False,Day,Day,Day,Day
C-5871661,2,2020-05-20 02:24:25,2020-05-20 06:00:00,37.592281,-122.364822,,,1.5,Exit ramp from US-101 Southbound at Exit 419B to Broadway both ways closed due to construction.,,Bayshore Fwy S,R,Burlingame,San Mateo,CA,94010,US,US/Pacific,KSFO,2020-05-20 01:56:00,56.0,56.0,75.0,30.07,10.0,W,20.0,0.0,Cloudy,False,False,False,False,False,False,False,False,False,False,False,False,False,Night,Night,Night,Night
C-5871662,2,2021-09-30 07:37:00,2021-09-30 08:03:30,44.95553,-93.25878,44.955549,-93.262593,0.186438673561,Slow traffic from 11th Ave S to Chicago Ave S due to roadwork.,2598.0,11th Ave S,R,Minneapolis,Hennepin,MN,55404-4501,US,US/Central,KMSP,2021-09-30 07:53:00,64.0,64.0,84.0,29.2,10.0,SE,6.0,0.0,Fair,False,False,True,False,False,False,False,False,True,False,False,True,False,Day,Day,Day,Day
C-5871663,2,2020-09-24 20:03:52,2020-11-24 08:43:59,40.618439,-74.090743,40.618009,-74.08931899999997,0.0803762027865,Construction on SIGNAL HILL RD near BEND Allow extra time.,10.0,Signal Hill Rd,R,Staten Island,Richmond,NY,10301-4420,US,US/Eastern,KEWR,2020-09-24 19:51:00,71.0,71.0,57.0,29.98,10.0,WSW,7.0,0.0,Mostly Cloudy,False,False,False,False,False,False,False,False,False,False,False,False,False,Night,Night,Night,Day
C-5871664,2,2021-10-05 15:51:17,2021-10-05 16:18:33,40.748698,-73.85771899999997,40.747163,-73.862859,0.289199514704,Stationary traffic from 108th St to National St due to roadwork.,10674.0,43rd Ave,R,Corona,Queens,NY,11368-2529,US,US/Eastern,KLGA,2021-10-05 15:51:00,65.0,65.0,73.0,30.21,10.0,ENE,7.0,0.0,Cloudy,False,False,False,False,False,False,False,False,True,False,False,True,False,Day,Day,Day,Day
C-5871665,2,2017-10-13 07:49:02,2017-10-13 15:30:00,39.447765,-75.064125,,,0.0,Right hand shoulder closed due to construction work on NJ-55 Southbound at Exit 29 County Hwy-552 Sherman Ave.,,W Sherman Ave,R,Vineland,Cumberland,NJ,08360,US,US/Eastern,KMIV,2017-10-13 07:54:00,60.1,,86.0,30.37,10.0,NNE,13.8,,Overcast,False,False,False,False,True,False,False,False,False,False,False,False,False,Day,Day,Day,Day
C-5871666,2,2021-11-18 11:05:00,2021-11-18 13:09:02,28.593081,-81.36296800000002,28.592601,-81.365064,0.1314117962089999,Slow traffic on FL-424A - US-92 E - FL-426 - US-17 N - US-92 W - US-17 S from Ward Ave to Gene St due to roadwork.,1069.0,W Fairbanks Ave,R,Winter Park,Orange,FL,32789-4753,US,US/Eastern,KORL,2021-11-18 10:53:00,78.0,78.0,74.0,30.1,10.0,N,3.0,0.0,Mostly Cloudy,False,False,True,False,False,False,False,False,False,False,False,False,False,Day,Day,Day,Day
C-5871667,2,2021-12-03 18:34:00,2021-12-03 18:54:31,30.408236,-97.679964,30.407986,-97.676085,0.23179051066,Slow traffic on FM-734 from Metric Blvd (W Parmer Ln/FM-734) to I-35 (E Parmer Ln/FM-734) due to roadwork.,983.0,W Parmer Ln,L,Austin,Travis,TX,78758,US,US/Central,KATT,2021-12-03 18:51:00,71.0,71.0,75.0,29.29,10.0,ESE,3.0,0.0,Fair,False,False,False,False,False,False,False,False,False,False,False,True,False,Night,Night,Night,Day
C-5871668,4,2019-09-11 16:41:40,2019-09-11 21:41:07,38.370966,-105.689082,38.516855,-106.061597,22.5383685125,Closed between CO-69 and US-285/Main St - Closed due to serious fire. Roadwork.,,US Highway 50,R,Howard,Fremont,CO,81233,US,US/Mountain,KANK,2019-09-11 16:35:00,76.0,76.0,19.0,22.84,10.0,SSW,8.0,,Partly Cloudy,False,False,False,False,False,False,False,False,False,False,False,False,False,Day,Day,Day,Day
C-5871669,3,2017-05-04 02:10:02,2017-05-04 06:40:00,41.418488,-73.424454,,,3.89,Right lane closed due to construction on I-84 Westbound between Exit 9 CT-25 Hawleyville Rd and Exit 7 US-7 US-202.,,US-6 W,R,Danbury,Fairfield,CT,06811,US,US/Eastern,KDXR,2017-05-04 01:53:00,37.0,34.5,89.0,30.22,10.0,SW,3.5,,Clear,False,False,False,False,False,False,False,False,False,False,False,False,False,Night,Night,Night,Night
C-5871670,2,2016-12-14 09:01:15,2016-12-14 15:01:15,39.43489,-76.4875,39.454175,-76.466595,1.7377091608900002,At Hutschenreuter Rd - Construction work.,11399.0,Harford Rd,R,Glen Arm,Baltimore,MD,21057-9204,US,US/Eastern,KMTN,2016-12-14 08:54:00,37.4,,87.0,30.12,10.0,Calm,,,Clear,False,False,False,False,False,False,False,False,False,False,False,False,False,Day,Day,Day,Day
C-5871671,2,2017-02-27 08:49:46,2017-02-27 14:49:46,38.884522,-77.151885,38.88454,-77.15194,0.00320888687887,At Sycamore St/Exit 69 - Construction work.,,Custis Memorial Pkwy W,R,Arlington,Arlington,VA,22205,US,US/Eastern,KDCA,2017-02-27 08:52:00,42.1,37.7,73.0,30.44,10.0,SSW,6.9,,Overcast,False,False,False,False,True,False,False,False,False,False,False,False,False,Day,Day,Day,Day
C-5871672,2,2021-09-27 09:30:00,2021-12-31 04:45:00,33.504427,-112.213236,33.505194,-112.21467,0.0981527708754999,Construction on COOLIDGE ST near CAMPBELL AVE Allow extra time.,7201.0,W Coolidge St,L,Phoenix,Maricopa,AZ,85033,US,US/Mountain,KGEU,2021-09-27 09:33:00,72.0,72.0,83.0,28.83,10.0,CALM,0.0,0.0,Cloudy,False,False,False,False,False,False,False,False,False,True,False,False,False,Day,Day,Day,Day
C-5871673,2,2021-07-25 12:36:57,2021-07-25 12:51:01,40.606038,-74.07660899999998,40.601731,-74.06041,0.900361200872,Slow traffic on Staten Island Expy E - I-278 E from Targee St/Exit 13 (I-278) to Lily Pond Ave/Exit 15 (I-278) due to roadwork.,,I-278 E,R,Staten Island,Richmond,NY,10305,US,US/Eastern,KEWR,2021-07-25 12:51:00,83.0,83.0,65.0,29.88,10.0,SW,12.0,0.0,Mostly Cloudy,False,False,False,False,False,False,False,False,False,False,False,False,False,Day,Day,Day,Day
C-5871674,2,2021-01-05 13:40:30,2021-01-06 02:02:18,26.68173,-80.251447,26.681543,-80.245088,0.392791981098,Slow traffic on FL-80 - FL-700 - US-98 E - US-441 S from Big Blue Trl/F Rd (US-98) to Royal Palm Beach Blvd (US-98) due to roadwork.,,Palms West Pkwy,R,Loxahatchee,Palm Beach,FL,33470,US,US/Eastern,KPBI,2021-01-05 13:53:00,70.0,70.0,31.0,29.99,10.0,NW,8.0,0.0,Fair,False,False,False,False,False,False,False,False,False,False,False,True,False,Day,Day,Day,Day
C-5871675,2,2021-11-05 17:37:25,2021-11-05 19:39:46,27.846719,-82.38153199999998,27.849778000000004,-82.38126199999998,0.2119994346299999,Stationary traffic on FL-45 - US-41 N from Nundy Ave to Gibsonton Dr due to roadwork.,10686.0,S US Highway 41,R,Gibsonton,Hillsborough,FL,33534,US,US/Eastern,KTPF,2021-11-05 17:35:00,68.0,,100.0,29.85,10.0,,,0.0,Cloudy,False,False,True,False,False,False,True,False,False,False,False,False,False,Day,Day,Day,Day
C-5871676,2,2021-12-16 13:51:41,2021-12-16 14:16:58,34.623459000000004,-92.501743,34.626526,-92.49794,0.3027515418629999,Slow traffic on AR-5 from Springhill Rd (Stagecoach Rd/AR-5) to Hilldale Rd (Stagecoach Rd/AR-5) due to roadwork.,5435.0,Highway 5 N,L,Bryant,Saline,AR,72022,US,US/Central,KLIT,2021-12-16 13:53:00,73.0,73.0,81.0,29.71,10.0,SSW,8.0,0.0,Cloudy,False,False,False,False,False,False,False,False,False,False,False,False,False,Day,Day,Day,Day
C-5871677,2,2021-04-17 06:31:00,2021-04-17 17:42:52,30.467824,-91.106463,30.471123,-91.108229,0.251031077992,Slow traffic on US-190 W - US-61 N from Tom Dr to S Choctaw Dr due to roadwork.,7901.0,Airline Hwy,L,Baton Rouge,East Baton Rouge,LA,70815-8106,US,US/Central,KBTR,2021-04-17 06:15:00,63.0,63.0,93.0,29.78,4.0,N,7.0,0.01,Light Rain,False,False,False,False,False,False,False,False,False,False,False,False,False,Night,Day,Day,Day
C-5871678,2,2020-02-22 00:01:00,2020-02-22 05:00:00,41.35741,-74.69462,41.35741,-74.69462,0.0,At NY/Pennsylvania State Line - Construction work. Right lane blocked.,,I-84 E,R,Port Jervis,Orange,NY,12771,US,US/Eastern,KFWN,2020-02-22 00:53:00,24.0,24.0,48.0,29.82,10.0,SSW,3.0,0.0,Fair,False,False,False,False,False,False,False,False,False,False,False,False,False,Night,Night,Night,Night
C-5871679,2,2021-12-18 14:20:51,2021-12-18 16:31:55,26.95021400000001,-80.085133,26.952969,-80.085096,0.190366010667,Stationary traffic on US-1 N - FL-A1A - FL-5 from FL-A1A/Ocean Blvd (FL-A1A/US-1) to County Line Rd (US-1) due to roadwork.,,N US Highway 1,R,Jupiter,Palm Beach,FL,33469,US,US/Eastern,KSUA,2021-12-18 13:50:00,81.0,81.0,70.0,30.08,7.0,SE,14.0,0.0,Mostly Cloudy,False,False,False,False,False,False,False,False,False,False,False,False,False,Day,Day,Day,Day
C-5871680,2,2021-12-11 16:43:00,2021-12-11 18:44:30,25.926057,-80.151885,25.926202,-80.153676,0.111742323177,Slow traffic on FL-826 from FL-A1A/Collins Ave (FL-826) to US-1/FL-5/Biscayne Blvd (FL-826) due to roadwork.,2363.0,NE 163rd St,L,North Miami Beach,Miami-Dade,FL,33160-3902,US,US/Eastern,KHWO,2021-12-11 16:53:00,79.0,79.0,72.0,30.07,10.0,ESE,10.0,0.0,Fair,False,False,True,False,False,False,False,False,False,False,False,True,False,Day,Day,Day,Day
C-5871681,2,2021-07-27 13:59:12,2021-07-27 14:21:59,28.807283,-82.576525,28.803704,-82.576537,0.247286415834,Stationary traffic on County Hwy-490 - US-98 E - US-19 S from W Venable St (US-98) to W Cardinal St (US-98) due to roadwork.,3774.0,S Suncoast Blvd,R,Homosassa,Citrus,FL,34448-2624,US,US/Eastern,KCGC,2021-07-27 13:55:00,88.0,88.0,66.0,30.01,,WNW,7.0,0.0,Mostly Cloudy,False,False,False,False,False,False,False,False,False,False,False,True,False,Day,Day,Day,Day
C-5871682,2,2020-06-26 09:04:11,2020-07-01 09:00:55,29.37746,-95.00508,29.37532,-95.00762,0.212721628039,Between Pass St and Texas Ave - Construction work.,4511.0,Texas Ave,R,La Marque,Galveston,TX,77568,US,US/Central,KGLS,2020-06-27 08:52:00,86.0,86.0,79.0,30.04,6.0,S,15.0,0.0,Haze,False,False,False,False,False,False,False,False,False,False,False,False,False,Day,Day,Day,Day
C-5871683,2,2020-09-23 23:07:00,2020-09-24 01:56:30,40.817522,-77.906607,40.815662,-77.92444300000002,0.941462396797,Queuing traffic on US-322 from I-99/Park Ave (Mount Nittany Expy/US-322) to US-322 Bus (Park Forest Village) (North)/N Atherton St (I-99/US-220/Mount Nittany Expy/US-322) due to roadwork.,,I-99 S,R,Port Matilda,Centre,PA,16870,US,US/Eastern,KUNV,2020-09-23 23:15:00,67.0,67.0,61.0,28.65,10.0,WNW,3.0,0.0,Partly Cloudy,False,False,False,False,False,False,False,False,False,False,False,False,False,Night,Night,Night,Night
C-5871684,2,2021-07-27 12:53:00,2021-07-27 13:13:00,39.2469,-82.483456,39.24948,-82.488781,0.33609308776,Stationary traffic on US-50 W - US-50 E from OH-93/Market St (Main St/US-50) to OH-683 (US-50) due to roadwork.,398.0,W Main St,L,Mc Arthur,Vinton,OH,45651-1015,US,US/Eastern,KUNI,2021-07-27 12:55:00,86.0,86.0,36.0,29.24,10.0,NNE,8.0,0.0,Fair,False,False,False,False,False,False,False,False,False,False,False,False,False,Day,Day,Day,Day
C-5871685,2,2021-04-26 05:24:30,2021-04-26 09:25:30,40.237179,-79.580881,40.230415,-79.586883,0.564483440087,Slow traffic on US-119 S from Depot St (3rd St/4th St/US-119) to Burton Ave (US-119) due to roadwork.,198.0,S 4th St,L,Youngwood,Westmoreland,PA,15697-1204,US,US/Eastern,KLBE,2021-04-26 05:15:00,30.0,30.0,93.0,28.89,10.0,CALM,0.0,0.0,Fair,False,False,False,False,False,False,False,False,False,False,False,True,False,Night,Night,Day,Day
C-5871686,2,2017-10-27 19:28:14,2017-10-28 01:33:29,40.33335,-79.813159,40.378645,-79.77694,3.66482243606,Between PA-148/Walnut St and PA-130/Broadway Blvd - Roadwork. Lane blocked.,1207.0,Long Run Rd,L,White Oak,Allegheny,PA,15131-2038,US,US/Eastern,KAGC,2017-10-27 19:53:00,63.0,,43.0,29.89,10.0,SSE,8.1,,Clear,False,False,False,False,False,False,False,False,False,False,False,False,False,Night,Night,Night,Day
C-5871687,2,2020-08-27 14:22:00,2020-08-27 23:32:44,28.356148,-80.700087,28.357523,-80.70009300000002,0.0950041523295,Queuing traffic on FL-3 from CR-3/S Tropical Trl (N Courtenay Pkwy/FL-3) to Merritt Ave (N Courtenay Pkwy/FL-3) due to roadwork.,76.0,S Courtenay Pkwy,L,Merritt Island,Brevard,FL,32952,US,US/Eastern,KCOF,2020-08-27 13:56:00,89.0,89.0,67.0,30.04,10.0,ESE,13.0,0.0,Fair,False,False,True,False,False,False,False,False,False,False,False,False,False,Day,Day,Day,Day
C-5871689,2,2019-05-06 21:03:29,2019-05-11 21:02:19,33.767136,-84.385389,33.768904,-84.385211,0.122584252491,At US-278/US-29/US-78/GA-8/North Ave - Construction work.,458.0,Peachtree St NE,L,Atlanta,Fulton,GA,30308-3233,US,US/Eastern,KFTY,2019-05-06 20:53:00,72.0,72.0,61.0,29.14,10.0,N,3.0,0.0,Fair,False,False,True,False,False,False,False,False,False,False,False,True,False,Night,Night,Day,Day
C-5871690,2,2021-04-12 06:14:23,2021-12-01 20:46:30,25.928134,-80.200787,25.927882,-80.204369,0.2232610233400001,Slow traffic on FL-826 from FL-915/6th Ave (FL-826) to 2nd Ave (FL-826) due to roadwork.,31.0,NW 167th St,R,Miami,Miami-Dade,FL,33169-6017,US,US/Eastern,KHWO,2021-04-12 05:53:00,68.0,68.0,93.0,29.81,10.0,SSW,8.0,0.0,Partly Cloudy,False,False,False,False,False,False,False,False,False,False,False,True,False,Night,Night,Day,Day
C-5871691,3,2016-04-23 00:00:00,2016-04-23 06:00:00,40.69845,-73.98303,40.68944000000001,-73.9989,1.0386228432200002,Between Manhattan BR/Exit 29A and Atlantic Ave/Exit 27 - Construction work.,,Brooklyn Queens Expy,R,Brooklyn,Kings,NY,11201,US,US/Eastern,KJRB,2016-04-23 00:15:00,66.2,,73.0,29.82,10.0,West,11.5,,Overcast,False,False,False,False,False,False,False,False,False,False,False,True,False,Night,Night,Night,Night
C-5871692,2,2020-10-14 20:58:30,2020-10-14 23:08:05,47.531169,-92.330713,47.531836,-92.334649,0.189312683234,Roadwork on MN-135 from CR-110 (MN-135) to Heritage Trl (MN-135).,6006.0,State Highway 135,L,Biwabik,St. Louis,MN,55708-3109,US,US/Central,KEVM,2020-10-14 20:55:00,36.0,27.0,93.0,28.04,10.0,NW,14.0,0.02,Light Rain,False,False,False,False,False,False,False,False,False,False,False,False,False,Night,Night,Night,Night
C-5871693,4,2021-10-12 12:34:49,2021-10-22 23:59:00,40.806942,-96.701202,40.809193,-96.701187,0.155531265702,Closed road from H St to K St due to roadwork.,699.0,S 14th St,R,Lincoln,Lancaster,NE,68508-2712,US,US/Central,KLNK,2021-10-12 12:54:00,77.0,77.0,32.0,28.67,10.0,SE,10.0,0.0,Fair,False,False,True,False,False,False,False,False,False,False,False,True,False,Day,Day,Day,Day
C-5871694,2,2021-08-05 20:00:00,2021-08-06 06:00:00,28.370621000000003,-81.50331899999998,,,0.980000019073,Inside lane closed due to construction work on FL-535 Southbound from I-4 Exit 68 to Meadow Creek Dr.,,Meadow Creek Dr,R,Orlando,Orange,FL,32821,US,US/Eastern,KMCO,2021-08-05 19:53:00,84.0,84.0,65.0,29.96,10.0,W,5.0,0.0,Mostly Cloudy,False,False,True,False,False,False,False,False,False,False,False,True,False,Day,Day,Day,Day
C-5871696,2,2021-12-14 09:23:00,2021-12-14 13:52:30,40.341312,-80.062979,40.348455,-80.052228,0.7510681720100001,Stationary traffic on US-19 N - US-19 S from McMurray Rd/McLaughlin Run Rd (Washington Rd/US-19) to Gilkeson Rd/Connor Rd (Washington Rd/US-19) due to roadwork.,2006.0,Washington Rd,R,Pittsburgh,Allegheny,PA,15241-1543,US,US/Eastern,KAGC,2021-12-14 09:53:00,39.0,39.0,57.0,29.14,8.0,CALM,0.0,0.0,Fair,False,False,True,False,False,False,False,False,False,False,False,True,False,Day,Day,Day,Day
C-5871697,2,2018-05-07 14:00:00,2021-08-18 00:45:00,39.046275,-85.91099399999996,39.30497,-85.962026,18.0819132949,Construction on I-65 NB near EXIT 34A-34B Construction. Shoulder closed.,,I-65 N,R,Columbus,Bartholomew,IN,47201,US,US/Eastern,KBAK,2018-05-07 13:45:00,69.8,,31.0,30.17,10.0,NNE,16.1,,Clear,False,False,False,False,True,False,False,False,False,False,False,False,False,Day,Day,Day,Day
C-5871698,3,2020-08-11 13:30:00,2020-08-11 19:00:00,39.953037,-75.134636,,,0.0,Roadway reduced to three lanes due to construction work on I-676 Eastbound at Benjamin Franklin Brg.,,Benjamin Franklin Brg,R,Philadelphia,Philadelphia,PA,19106,US,US/Eastern,KPHL,2020-08-11 13:54:00,89.0,89.0,53.0,29.94,10.0,SSW,10.0,0.0,Mostly Cloudy,False,False,False,False,False,False,False,False,False,False,False,False,False,Day,Day,Day,Day
C-5871699,2,2021-10-11 16:58:30,2021-10-11 19:16:14,39.68221,-105.083075,39.682153,-105.080323,0.146388300113,Slow traffic from CO-391/S Kipling Pkwy (W Jewell Ave) to S Pierce St (W Jewell Ave) due to roadwork.,7814.0,W Jewell Ave,L,Lakewood,Jefferson,CO,80232-6808,US,US/Mountain,KAPA,2021-10-11 16:53:00,64.0,64.0,24.0,23.9,10.0,S,22.0,0.0,Fair / Windy,True,False,True,False,False,False,False,False,False,False,False,True,False,Day,Day,Day,Day
C-5871700,3,2019-08-22 18:14:33,2019-08-24 21:43:11,41.873032,-87.64486,41.87796,-87.64556,0.342391547659,Between Taylor St/Exit 52A and Jackson Blvd/Exit 51G - Roadwork.,,Dan Ryan Expy N,R,Chicago,Cook,IL,60607,US,US/Central,KMDW,2019-08-22 17:53:00,73.0,73.0,49.0,29.35,10.0,NE,16.0,0.0,Partly Cloudy,False,False,True,False,True,False,False,False,False,False,False,False,False,Day,Day,Day,Day
C-5871701,2,2018-10-22 19:03:43,2018-10-27 19:02:42,40.72544,-111.894537,40.72542,-111.89972,0.271396236733,At 300 W - Construction work. Lane blocked.,115.0,W 2100 S,R,Salt Lake City,Salt Lake,UT,84115-1828,US,US/Mountain,KSLC,2018-10-23 18:54:00,59.0,,53.0,29.96,10.0,SSW,4.6,,Scattered Clouds,False,False,True,False,False,False,False,False,True,False,False,True,False,Night,Day,Day,Day
C-5871702,2,2021-12-02 13:05:00,2021-12-02 14:00:30,33.977973,-84.09691600000002,33.978922,-84.111328,0.828343006308,Slow traffic on GA-120 from Satellite Blvd (GA-120) to US-23/GA-13/Buford Hwy/Proctor St (GA-120) due to roadwork.,2176.0,Duluth Highway 120,R,Duluth,Gwinnett,GA,30097-4008,US,US/Eastern,KLZU,2021-12-02 12:56:00,68.0,68.0,49.0,28.94,10.0,W,9.0,0.0,Fair,False,False,False,False,False,False,False,False,False,False,False,False,False,Day,Day,Day,Day
C-5871703,2,2020-09-30 12:19:00,2020-09-30 23:49:44,27.894853,-82.729023,27.893043,-82.729001,0.125066305172,Queuing traffic on FL-693 from US-19 (FL-693) to CR-296/Bryan Dairy Rd (FL-693) due to resurfacing work.,13492.0,66th St,L,Largo,Pinellas,FL,33771-4904,US,US/Eastern,KPIE,2020-09-30 11:53:00,73.0,73.0,55.0,30.05,10.0,NNE,13.0,0.0,Fair,False,False,False,False,False,False,False,False,False,False,False,False,False,Day,Day,Day,Day
C-5871704,2,2020-10-02 12:28:30,2020-10-02 20:10:12,42.560413,-83.12642199999998,42.559952,-83.12957,0.163343551254,Stationary traffic from exit [67] to I-75 N due to roadwork.,2647.0,Plymouth Rd,L,Troy,Oakland,MI,48083,US,US/Eastern,KVLL,2020-10-02 12:35:00,53.0,53.0,58.0,29.34,10.0,W,8.0,0.0,Partly Cloudy,False,False,False,False,False,False,False,False,False,False,False,False,False,Day,Day,Day,Day
C-5871705,2,2021-06-17 17:18:28,2021-11-15 11:18:28,47.085697,-93.190079,47.056642,-93.12907,3.50325433376,Construction on US-2 EB near COUNTY ROAD 475 Allow extra time.,15798.0,County Road 428,L,Swan River,Itasca,MN,55784-3080,US,US/Central,KGPZ,2021-08-21 04:56:00,63.0,63.0,93.0,28.27,10.0,SSW,8.0,0.01,Fair,False,False,False,False,False,False,False,False,False,False,False,False,False,Day,Day,Day,Night
C-5871706,2,2021-10-21 14:57:00,2021-10-21 17:01:20,33.379644,-112.064625,33.377799,-112.065429,0.135655191189,Stationary traffic from E Fremont Rd to S Mardian Way due to roadwork.,,Western Canal Rd,R,Phoenix,Maricopa,AZ,85042,US,US/Mountain,KPHX,2021-10-21 14:51:00,86.0,86.0,18.0,28.83,10.0,NNW,5.0,0.0,Fair,False,False,True,False,False,False,False,False,True,False,False,False,False,Day,Day,Day,Day
C-5871707,3,2018-06-26 02:16:30,2018-06-26 06:00:00,41.179283,-73.181213,,,3.5199999809300007,2 right lane closed due to construction work on I-95 Northbound from Exit 25 CT-130 Fairfield Ave to Exit 28 CT-127 Main St.,,Governor John Davis Lodge Tpke,R,Bridgeport,Fairfield,CT,06608,US,US/Eastern,KBDR,2018-06-26 01:52:00,62.1,,72.0,30.21,10.0,NNE,6.9,,Clear,False,False,False,False,False,False,False,False,False,False,False,False,False,Night,Night,Night,Night
C-5871708,2,2018-11-02 23:00:00,2018-11-05 05:00:00,40.934261,-73.807426,,,5.78999996185,Road closed due to construction work on Hutchinson River Pkwy Northbound from Exit 6 I-95 New England Trwy to Exit 15 Cross County Pkwy.,,Hutchinson River Pkwy S,R,Bronxville,Westchester,NY,10708,US,US/Eastern,KHPN,2018-11-02 22:56:00,63.0,,97.0,29.64,0.8,South,9.2,0.21,Light Rain,False,False,False,False,False,False,False,False,False,False,False,False,False,Night,Night,Night,Night
C-5871709,2,2021-04-12 21:00:00,2021-04-13 05:45:00,38.288075,-85.832009,38.304098,-85.885764,3.11806425125,Construction on I-64 WB near OLD IN-62 SEC 1 Right lane blocked. Expect delays.,,I-64 E,R,New Albany,Floyd,IN,47150,US,US/Eastern,KLOU,2021-04-12 20:53:00,63.0,63.0,43.0,29.36,10.0,WNW,6.0,0.0,Fair,False,False,False,False,False,False,False,False,False,False,False,False,False,Night,Night,Day,Day
C-5871710,2,2020-11-04 04:27:51,2020-11-04 14:45:00,40.715747,-73.995364,40.714231,-73.994515,0.113791694733,Construction construction on Manhattan Bridge both directions Manhattan Side (Manhattan) to Brooklyn Side (New York) alternate lanes closed from 10:00 P.M. until 6:00 A.M.,,Manhattan Brg,R,New York,New York,NY,10002,US,US/Eastern,KJRB,2020-11-04 04:51:00,41.0,38.0,62.0,30.32,10.0,VAR,5.0,0.0,Fair,True,False,True,False,False,False,False,False,False,True,False,True,False,Night,Night,Night,Night
C-5871711,3,2019-02-07 00:03:07,2019-02-07 07:01:00,34.071671,-117.908829,,,0.40000000596,Exit ramp from I-10 Eastbound at Exit 36 to S Azusa Ave closed due to paving repairs.,100.0,S Homerest Ave,L,West Covina,Los Angeles,CA,91791-1819,US,US/Pacific,KPOC,2019-02-07 07:47:00,37.4,34.9,70.0,30.26,10.0,East,3.5,,Clear,False,False,False,False,False,False,False,False,False,False,False,False,False,Night,Night,Night,Night
C-5871712,3,2021-07-07 22:34:25,2021-07-13 13:00:00,40.385666,-88.9897,,,1.4199999570800002,Road closed due to paving repairs on US-51 1450 East Rd Northbound from CR-36 620 North Rd to CR-36 700 North Rd.,7001.0,N 1475 East Rd,L,Heyworth,McLean,IL,61745,US,US/Central,KBMI,2021-07-07 22:56:00,74.0,74.0,87.0,28.97,10.0,S,12.0,0.0,Mostly Cloudy,False,False,False,False,False,False,False,False,False,False,False,False,False,Night,Night,Night,Night
C-5871713,2,2021-07-30 09:00:00,2021-07-30 15:00:00,42.653591,-83.584091,,,1.62000000477,Right lane closed due to construction work on M-59 Highland Rd both ways from Duck Lake Rd to Waterbury Rd.,1500.0,Waterbury Rd,L,Highland,Oakland,MI,48356,US,US/Eastern,KPTK,2021-07-30 08:53:00,64.0,64.0,80.0,29.0,10.0,N,9.0,0.0,Mostly Cloudy,False,False,False,False,False,False,False,False,False,False,False,False,False,Day,Day,Day,Day
C-5871714,2,2021-12-01 10:47:30,2021-12-01 12:48:51,40.369224,-80.04939499999998,40.374245,-80.04938100000003,0.346918842302,Slow traffic on US-19 N - US-19 S from Beadling Rd (Washington Rd/US-19) to PA-121 (Cochran Rd/Beverly Rd/US-19) due to roadwork.,1117.0,Washington Rd,L,Pittsburgh,Allegheny,PA,15228-1816,US,US/Eastern,KAGC,2021-12-01 10:53:00,42.0,35.0,60.0,28.79,10.0,S,14.0,0.0,Fair,False,False,False,False,False,False,False,False,False,False,False,False,False,Day,Day,Day,Day
C-5871715,2,2021-03-12 05:54:00,2021-03-12 13:40:59,33.956826,-83.657562,33.956351,-83.654892,0.156498471441,Slow traffic on US-29 Bus S - US-29 N - GA-316 - GA-53 - US-29 Bus N from Austin Rd to Wall Rd due to roadwork.,1122.0,Hog Mountain Rd,R,Winder,Barrow,GA,30680-4406,US,US/Eastern,KWDR,2021-03-12 05:55:00,54.0,54.0,67.0,29.35,10.0,WSW,5.0,,Fair,False,False,False,False,False,False,False,False,False,False,False,False,False,Night,Night,Night,Day
C-5871716,2,2021-11-20 12:58:00,2021-11-20 13:19:30,44.952611,-123.052325,44.947537,-123.05048899999998,0.361892978125,Stationary traffic on OR-221 from Brush College Rd (OR-221) to Wallace Rd NW (OR-221) due to roadwork.,1228.0,Wallace Rd NW,R,Salem,Polk,OR,97304-3008,US,US/Pacific,KSLE,2021-11-20 12:56:00,51.0,51.0,61.0,30.25,10.0,NNW,7.0,0.0,Cloudy,True,False,True,False,False,False,False,False,False,False,False,False,False,Day,Day,Day,Day
C-5871717,3,2020-08-17 05:00:00,2020-08-26 23:00:00,41.582973,-87.24024200000002,,,0.0,Right lane closed due to construction on I-80 Eastbound at Exits 15A 15B 16 21 I-94 Exit 16.,,I-80 E,R,Lake Station,Lake,IN,46405,US,US/Central,KGYY,2020-08-17 04:45:00,66.0,66.0,88.0,29.37,10.0,WSW,3.0,0.0,Fair,False,False,False,False,True,False,False,False,False,False,False,False,False,Night,Night,Day,Day
C-5871718,2,2021-03-22 07:30:00,2021-04-22 01:21:30,40.293562,-104.979965,40.29910200000001,-104.97998,0.3827783605049999,Stationary traffic on US-87 N - I-25 N from CR-34/Exit 245 (I-25) to CO-56/Exit 250 (I-25) due to roadwork.,,I-25 N,R,Johnstown,Weld,CO,80534,US,US/Mountain,KFNL,2021-04-22 00:30:00,32.0,26.0,87.0,24.93,2.0,S,6.0,0.0,Cloudy,False,False,False,False,False,False,False,False,False,False,False,False,False,Day,Day,Day,Day
C-5871719,2,2020-07-20 14:00:50,2020-08-03 23:45:00,43.207713,-78.351444,43.207192,-78.387945,1.83857135208,Construction on NY-31A NB near OAK ORCHARD RD Drive with caution.,11931.0,Maple Ridge Rd,L,Medina,Orleans,NY,14103-9711,US,US/Eastern,KBUF,2020-07-20 13:54:00,81.0,81.0,52.0,29.14,10.0,WSW,22.0,0.0,Partly Cloudy / Windy,False,False,False,False,False,False,False,False,False,False,False,True,False,Day,Day,Day,Day
C-5871720,2,2021-02-10 05:23:16,2021-02-16 10:21:19,38.782699,-95.681709,38.785594,-95.682826,0.2088767108749999,Roadwork from E US Highway 56 to US-75 N.,100.0,E US Highway 56,L,Carbondale,Osage,KS,66414,US,US/Central,KFOE,2021-02-10 05:53:00,11.0,-3.0,70.0,29.16,10.0,N,10.0,0.0,Cloudy,False,False,False,False,False,False,False,False,False,False,False,False,False,Night,Night,Night,Night
C-5871721,2,2020-08-27 16:01:00,2020-08-27 23:59:00,39.04439,-120.974053,39.07538,-120.961503,2.24457243686,One-Way Traffic closure due to Drainage Work between and Route 80,,I-80 E,R,Colfax,Placer,CA,95713,US,US/Pacific,KGOO,2020-08-27 15:55:00,86.0,86.0,23.0,26.65,10.0,WNW,7.0,0.0,Fair,False,False,False,False,True,False,False,False,False,False,False,False,False,Day,Day,Day,Day
C-5871722,2,2021-09-28 16:00:00,2021-09-28 18:01:55,33.711438,-112.20314,33.71230300000001,-112.20416000000002,0.0837182019422,Slow traffic from W West Wind Dr to N 68th Ave due to roadwork.,24880.0,N 67th Ave,L,Peoria,Maricopa,AZ,85383,US,US/Mountain,KDVT,2021-09-28 15:53:00,85.0,85.0,37.0,28.17,10.0,S,3.0,0.0,Fair,False,False,False,False,False,False,False,False,False,True,False,False,False,Day,Day,Day,Day
C-5871723,2,2020-06-30 15:08:00,2020-07-01 02:52:41,41.254488,-75.743597,41.253858,-75.771867,1.4690980742700002,Roadwork on BALD MOUNTAIN RD both directions between OLD PITTSTON BL PITTSTON BL and 1 miles WEST of UNKNOWN ROAD. There is a lane restriction.,1713.0,Bald Mountain Rd,L,Bear Creek Township,Luzerne,PA,18702-9557,US,US/Eastern,KAVP,2020-06-30 14:54:00,76.0,76.0,67.0,28.89,10.0,W,8.0,0.03,Mostly Cloudy,False,False,False,False,False,False,False,False,False,False,False,False,False,Day,Day,Day,Day
C-5871724,2,2021-01-16 05:01:00,2021-01-16 16:44:00,33.746185,-118.00655,33.749318,-118.010188,0.300902491619,Construction on I-405 NB near GOLDEN WEST ST Expect delays.,,I-405 N,R,Westminster,Orange,CA,92683,US,US/Pacific,KSLI,2021-01-16 04:58:00,51.0,51.0,57.0,29.92,10.0,CALM,0.0,0.0,Fair,False,False,False,False,False,False,False,False,False,False,False,False,False,Night,Night,Night,Night
C-5871725,2,2021-09-08 12:47:30,2021-09-08 16:28:11,33.422362,-111.819536,33.422336,-111.823489,0.227967312001,Slow traffic from N Stapley Dr (E University Dr) to N Center St (University Dr) due to roadwork.,399.0,N Pioneer,R,Mesa,Maricopa,AZ,85203-7911,US,US/Mountain,KFFZ,2021-09-08 12:51:00,96.0,96.0,37.0,28.71,10.0,CALM,0.0,0.0,Fair,False,False,False,False,False,True,False,False,True,False,False,False,False,Day,Day,Day,Day
C-5871726,3,2018-10-04 11:30:19,2018-11-04 20:00:00,42.491608,-83.023361,,,1.1399999856899998,Entry ramp to I-696 Eastbound from E 11 Mile Rd Eastbound closed due to construction work.,,I-696 E,R,Center Line,Macomb,MI,48015,US,US/Eastern,KDET,2018-10-04 11:53:00,66.9,,61.0,30.02,10.0,North,15.0,,Mostly Cloudy,False,False,False,False,False,False,False,False,False,False,False,False,False,Day,Day,Day,Day
C-5871727,3,2019-02-21 04:37:35,2019-02-21 05:52:04,35.916119,-89.500748,,,0.0,Road closed due to construction work on TN-88 both ways between Meeks Rd and Key Corner Rd.,4697.0,Key Corner Rd,L,Halls,Lauderdale,TN,38040-8039,US,US/Central,KDYR,2019-02-21 04:45:00,37.4,30.8,93.0,30.15,10.0,NNE,9.2,,Partly Cloudy,False,False,False,False,False,False,False,False,False,False,False,False,False,Night,Night,Night,Night
C-5871728,2,2021-12-27 10:49:00,2021-12-27 15:01:00,32.921067,-97.317277,32.894535,-97.317295,1.83318690483,Slow traffic on I-35W S from Heritage Trace Pkwy exit [63] to exit [57] due to roadwork.,,I-35W S,R,Fort Worth,Tarrant,TX,76177,US,US/Central,KAFW,2021-12-27 10:53:00,70.0,70.0,78.0,29.09,8.0,SW,8.0,0.0,Mostly Cloudy,False,False,False,False,False,False,False,False,False,False,False,False,False,Day,Day,Day,Day
C-5871729,2,2021-11-18 12:11:00,2021-11-18 14:20:33,42.154271,-87.955096,42.153703,-87.960738,0.2916469424969999,Slow traffic from Weiland Rd (E Lake Cook Rd) to Buffalo Grove Rd (Buffalo Grove) (East) (E Lake Cook Rd) due to roadwork.,124.0,E Lake Cook Rd,L,Buffalo Grove,Lake,IL,60089,US,US/Central,KPWK,2021-11-18 11:52:00,35.0,26.0,46.0,29.47,10.0,W,15.0,0.0,Cloudy,False,False,False,False,False,False,False,False,False,False,False,True,False,Day,Day,Day,Day
C-5871730,4,2019-09-17 18:06:47,2019-09-17 23:04:12,42.762885,-88.21282,42.75432,-88.20909,0.621300803785,Closed at Evergreen Dr - Closed due to roadwork.,103.0,E Main St,R,Waterford,Racine,WI,53185-4301,US,US/Central,KBUU,,,,,,,,,,,False,False,False,False,False,False,False,False,False,False,False,False,False,Day,Day,Day,Day
C-5871731,2,2019-10-23 17:25:11,2019-10-25 23:00:00,41.08858,-75.73879000000002,41.11479,-75.76116999999998,2.15342058412,Between I-80/PA-940/Exit 95 and PA-115/Exit 105 - Roadwork. Right lane blocked.,,I-476 N,R,Lake Harmony,Carbon,PA,18624,US,US/Eastern,KMPO,2019-10-23 17:53:00,52.0,52.0,47.0,28.02,10.0,W,15.0,0.0,Fair,False,False,False,False,False,False,False,False,False,False,False,False,False,Day,Day,Day,Day
C-5871732,2,2021-11-19 16:59:09,2021-11-19 20:31:55,25.843537,-80.30858,25.84255,-80.306168,0.1647621383709999,Stationary traffic on US-27 S - FL-25 from W 29th St to W 23rd St due to roadwork.,2398.0,W Okeechobee Rd,R,Hialeah,Miami-Dade,FL,33010,US,US/Eastern,KMIA,2021-11-19 16:53:00,73.0,73.0,93.0,30.03,4.0,NE,8.0,0.0,Light Rain,True,False,False,False,False,False,False,False,True,False,False,False,False,Day,Day,Day,Day
C-5871733,2,2020-09-28 03:00:00,2020-10-24 01:00:00,41.2383,-95.900935,41.274556,-95.881719,2.69657592936,Construction on I-29 NB near NORTH 25TH ST Drive with caution.,,I-29 N,R,Council Bluffs,Pottawattamie,IA,51501,US,US/Central,KOMA,2020-09-28 02:52:00,54.0,54.0,75.0,28.93,10.0,NW,8.0,0.0,Cloudy,False,False,True,False,False,False,False,False,False,False,False,False,False,Night,Night,Night,Night
C-5871734,2,2019-08-26 20:01:10,2019-08-30 20:01:05,30.4559,-81.65038,30.48526,-81.64275,2.0788466370400003,Between SR-104/Busch Dr/Dunn Av/Exit 360 and Duval Rd/SR-102/Exit 363 - Construction work. Lane blocked.,,I-95 N,R,Jacksonville,Duval,FL,32218,US,US/Eastern,KJAX,2019-08-26 19:56:00,80.0,80.0,79.0,29.93,10.0,E,5.0,0.0,Mostly Cloudy,False,False,False,False,True,False,False,False,False,False,False,False,False,Night,Day,Day,Day
C-5871735,2,2021-07-08 10:32:30,2021-07-08 12:45:32,33.452290000000005,-112.151767,33.450732,-112.151769,0.107647609402,Stationary traffic from I-10/Papago Fwy (N 43rd Ave) to AZ-85/W Buckeye Rd (S 43rd Ave) due to roadwork.,381.0,N 43rd Ave,R,Phoenix,Maricopa,AZ,85009,US,US/Mountain,KPHX,2021-07-08 10:51:00,100.0,100.0,29.0,28.64,10.0,CALM,0.0,0.0,Fair,False,False,False,False,False,False,False,False,True,False,False,False,False,Day,Day,Day,Day
C-5871736,4,2017-05-08 09:02:47,2017-06-26 06:02:03,39.897011,-75.315781,39.899212,-75.317172,0.1690068432009999,Closed at Morton Ave - Closed due to roadwork.,335.0,Kedron Ave,L,Folsom,Delaware,PA,19033,US,US/Eastern,KPHL,2017-05-08 08:54:00,48.0,,54.0,29.95,10.0,NW,6.9,,Mostly Cloudy,False,False,False,False,False,False,False,False,False,False,False,False,False,Day,Day,Day,Day
C-5871737,4,2019-05-20 23:06:47,2019-05-21 04:03:52,29.7369,-95.34869,29.73713,-95.34964,0.0591688587584,Ramp closed to Scott St/Exit 45 - Closed due to roadwork.,3423.0,Gulf Fwy,L,Houston,Harris,TX,77003-5439,US,US/Central,KMCJ,2019-05-20 22:53:00,81.0,81.0,77.0,29.69,10.0,SSE,24.0,0.0,Cloudy / Windy,False,False,False,False,False,False,False,False,False,False,False,False,False,Night,Night,Night,Night
C-5871738,4,2018-08-27 07:00:00,2018-08-31 15:30:00,39.629726,-83.530788,39.616122,-83.52700899999998,0.961222340581,Closed at Parrott Station Rd. - Closed due to roadwork.,8812.0,State Route 41 NW,R,Washington Court House,Fayette,OH,43160,US,US/Eastern,KILN,2018-08-27 06:54:00,71.1,,100.0,30.09,4.0,South,3.5,,Clear,False,False,False,False,False,False,False,False,False,False,False,False,False,Day,Day,Day,Day
C-5871739,2,2021-07-09 00:00:00,2021-12-22 09:45:00,41.117655,-85.17858299999997,41.117627,-85.180052,0.0764892756675,Construction on IN-930 WB near GOSHEN AVE Allow extra time.,2898.0,W Coliseum Blvd,L,Fort Wayne,Allen,IN,46808-3638,US,US/Eastern,KFWA,2021-07-09 00:32:00,63.0,63.0,84.0,29.08,10.0,WNW,7.0,0.0,Cloudy,False,False,False,False,False,False,False,False,False,False,False,False,False,Night,Night,Night,Night
C-5871740,2,2021-11-10 11:49:00,2021-11-10 14:25:46,33.507415,-112.047534,33.509223,-112.04808,0.128820298724,Stationary traffic from E Pierson St to N 15th St due to roadwork.,4800.0,N 16th St,L,Phoenix,Maricopa,AZ,85016-4606,US,US/Mountain,KPHX,2021-11-10 11:51:00,75.0,75.0,25.0,28.83,10.0,CALM,0.0,0.0,Fair,True,False,False,False,False,False,False,False,False,True,False,False,False,Day,Day,Day,Day
C-5871741,2,2021-11-05 18:44:56,2021-11-05 20:47:15,32.86206,-97.342575,32.866018,-97.34239,0.27368243537,Stationary traffic on FM-156 from E McLeroy Blvd (Blue Mound Rd/FM-156) to E Bailey Boswell Rd (Blue Mound Rd/FM-156) due to roadwork.,,Blue Mound Rd,R,Fort Worth,Tarrant,TX,76131,US,US/Central,KFWD,2021-11-05 18:53:00,55.0,55.0,55.0,29.42,10.0,ESE,6.0,0.0,Fair,False,False,False,False,False,False,False,False,False,False,False,False,False,Night,Day,Day,Day
C-5871742,2,2021-06-16 22:53:00,2021-06-16 23:16:00,40.15306500000001,-76.160584,40.158885,-76.15272399999998,0.577913702916,Slow traffic on US-222 N from PA-772 (Oxford Valley Rd/Bristol Oxford Valley Rd/US-222) to US-322 (Oxford Valley Rd/Bristol Oxford Valley Rd/US-222) due to roadwork.,,US-222 N,R,Ephrata,Lancaster,PA,17522,US,US/Eastern,KLNS,2021-06-16 22:53:00,62.0,62.0,58.0,29.53,10.0,W,8.0,0.0,Fair,False,False,False,False,True,False,False,False,False,False,False,False,False,Night,Night,Night,Night
C-5871743,2,2021-05-12 07:00:00,2021-05-27 17:00:00,45.575004,-89.16507800000002,45.372165,-89.192538,14.0778502266,Mainline Moving Lane Closure on US 45 Southbound from US 8 to SHAWANO - LANGLADE CO LINE.,2308.0,Highway 45,R,Rhinelander,Oneida,WI,54501-7739,US,US/Central,KRHI,2021-05-12 06:53:00,33.0,33.0,85.0,28.68,10.0,CALM,0.0,0.0,Fair,False,False,False,False,False,False,False,False,False,False,False,False,False,Day,Day,Day,Day
C-5871744,3,2021-12-28 01:28:23,2021-12-28 04:59:00,34.315182,-118.488037,,,0.870000004768,Entry ramp to I-210 Eastbound from I-5 Northbound closed due to paving repairs.,,San Fernando Rd,R,Sylmar,Los Angeles,CA,91342,US,US/Pacific,KWHP,2021-12-28 07:55:00,43.0,43.0,87.0,28.8,10.0,CALM,0.0,,Fair,False,False,False,False,False,False,False,False,False,False,False,False,False,Night,Night,Night,Night
C-5871745,3,2019-10-29 00:00:03,2019-11-02 23:00:59,47.23926,-122.41104,47.23836,-122.41802,0.3332882558439999,At near Portland Ave/Exit 134 - Construction work.,,I-5 S,R,Tacoma,Pierce,WA,98404,US,US/Pacific,KTCM,2019-10-29 00:58:00,32.0,26.0,100.0,29.95,10.0,S,6.0,0.0,Fair,False,False,False,False,False,False,False,False,False,False,False,False,False,Night,Night,Night,Night
C-5871746,2,2021-07-28 11:28:05,2021-07-28 11:57:58,28.256369,-81.488851,28.255342,-81.484276,0.287336020857,Slow traffic on US-92 E - US-17 N - US-92 W - US-17 S from CR-532/Osceola Polk Line Rd (US-92/US-17) to CR-535/Broad St/Ham Brown Rd (US-92/US-17) due to roadwork.,5106.0,S Orange Blossom Trl,L,Kissimmee,Osceola,FL,34758,US,US/Eastern,KISM,2021-07-28 11:17:00,88.0,88.0,70.0,29.97,10.0,WSW,5.0,0.0,Mostly Cloudy,False,False,False,False,False,False,False,False,False,False,False,False,False,Day,Day,Day,Day
C-5871747,2,2020-12-17 22:00:00,2020-12-18 05:00:00,33.090446,-96.821854,,,0.0,Intermittent lane closures due to construction during the night on TX-121-TOLL Sam Rayburn Tlwy Westbound at DNT.,5798.0,State Highway 121,R,Plano,Collin,TX,75024-6603,US,US/Central,KADS,2020-12-17 21:55:00,46.0,42.0,53.0,29.52,10.0,S,8.0,0.0,Fair,False,False,False,False,False,False,False,False,False,False,False,False,False,Night,Night,Night,Night
C-5871748,3,2018-08-16 23:30:00,2018-08-17 05:30:00,26.325151,-80.116821,,,0.72000002861,Exit ramp from I-95 Southbound at Exits 42 42A 42B to W Hillsboro Blvd closed due to construction work.,,I-95 S,R,Deerfield Beach,Broward,FL,33442,US,US/Eastern,KPMP,2018-08-16 23:53:00,84.9,,72.0,30.2,10.0,ESE,10.4,,Clear,False,False,False,False,True,False,False,False,False,False,False,False,False,Night,Night,Night,Night
C-5871749,2,2021-02-26 05:10:00,2021-02-26 21:42:30,28.857246000000004,-81.685696,28.851784,-81.685637,0.3774051466849999,Stationary traffic on FL-19 - County Hwy-19A - FL-44 from CR-44 (FL-19) to Lakeview Ave (FL-19) due to roadwork.,1.0,E Hazzard Ave,R,Eustis,Lake,FL,32726,US,US/Eastern,KLEE,2021-02-26 04:53:00,60.0,60.0,86.0,30.04,10.0,CALM,0.0,0.0,Fair,False,False,False,False,False,False,False,False,False,False,False,True,False,Night,Night,Night,Night
C-5871750,2,2020-09-30 18:13:30,2020-10-01 21:17:22,46.205245,-114.157034,46.185982,-114.176723,1.63037703496,Roadwork on US-93 from MT-269/Marcus St (US-93) to MT-43 (US-93).,718.0,US Highway 93 S,R,Hamilton,Ravalli,MT,59840-9712,US,US/Mountain,KHMM,2020-09-30 17:53:00,76.0,76.0,25.0,26.95,10.0,NNE,14.0,0.0,Fair,False,False,False,False,False,False,False,False,False,False,False,False,False,Day,Day,Day,Day
C-5871751,2,2017-08-23 09:31:36,2017-10-31 06:41:45,40.55799,-78.33049,40.60305,-78.31218,3.25824301701,Between 17th Street/Exit 33 and PA-1008/Exit 41 - Roadwork. Lane blocked.,,US-220 N,R,Altoona,Blair,PA,16601,US,US/Eastern,KAOO,2017-08-23 09:53:00,68.0,,68.0,29.94,10.0,WNW,6.9,,Scattered Clouds,False,False,False,False,False,False,False,False,False,False,False,False,False,Day,Day,Day,Day
C-5871752,2,2021-12-18 15:15:11,2021-12-18 17:39:25,40.756577,-73.875127,40.756887,-73.872209,0.154215377883,Stationary traffic on NY-25A from 82nd St (Northern Blvd/NY-25A) to 108th St (Northern Blvd/NY-25A) due to roadwork.,9296.0,Northern Blvd,R,Jackson Heights,Queens,NY,11372,US,US/Eastern,KLGA,2021-12-18 14:51:00,43.0,38.0,82.0,29.98,10.0,ENE,8.0,0.0,Cloudy,True,False,False,False,False,False,False,False,True,False,False,True,False,Day,Day,Day,Day
C-5871753,2,2021-09-29 11:00:00,2021-09-29 13:01:39,33.218729,-96.730309,33.21713,-96.732925,0.187273145275,Stationary traffic on FM-2478 - US-380 W from County Road 852 to Bristol Dr due to roadwork.,8714.0,W University Dr,L,Mckinney,Collin,TX,75071-7826,US,US/Central,KTKI,2021-09-29 10:53:00,80.0,80.0,60.0,29.27,10.0,SW,6.0,0.0,Fair,False,False,True,False,False,False,False,False,False,False,False,False,False,Day,Day,Day,Day
C-5871754,2,2020-06-17 13:55:00,2020-09-18 00:12:13,41.00234,-78.272354,41.020954,-78.34370899999998,3.93621896319,Roadwork on I-80 westbound between Exit 147: PA 144 - SNOW SHOE and Exit 111: PA 153 - PENFIELD. There is a traffic disruption.,,I-80 W,R,Woodland,Clearfield,PA,16881,US,US/Eastern,KFIG,2020-06-17 13:54:00,78.0,78.0,36.0,28.63,10.0,E,8.0,0.0,Fair,False,False,False,False,False,False,False,False,False,False,False,False,False,Day,Day,Day,Day
C-5871755,2,2021-12-02 09:17:00,2021-12-02 09:42:00,25.930028,-80.188337,25.928536,-80.18777,0.1089418336,Slow traffic on FL-915 - FL-826 from NE 169th St to N Miami Beach Blvd due to roadwork.,16805.0,NE 6th Ave,R,North Miami Beach,Miami-Dade,FL,33162-2409,US,US/Eastern,KHWO,2021-12-02 08:53:00,70.0,70.0,71.0,30.15,10.0,NW,8.0,0.0,Fair,False,False,False,False,False,False,False,False,True,False,False,False,False,Day,Day,Day,Day
C-5871756,2,2020-11-25 05:00:00,2020-11-25 14:15:00,25.782549,-80.223089,25.787337,-80.19726899999998,1.6400767378,Construction on FL-836 EB near NW 17TH AVE Construction. Expect long delays.,,Dolphin Expy E,R,Miami,Miami-Dade,FL,33125,US,US/Eastern,KMIA,2020-11-25 04:53:00,75.0,75.0,76.0,30.11,10.0,E,10.0,0.0,Mostly Cloudy,False,False,False,False,False,False,False,False,False,False,False,False,False,Night,Night,Night,Night
C-5871757,2,2021-08-14 11:33:53,2021-08-16 14:41:30,40.846466,-77.685775,40.84891500000001,-77.689262,0.248691167144,Stationary traffic on PA-144 from PA-45/Penns Valley Rd/Earlystown Rd (Old Fort Rd/S Pennsylvania Ave/PA-144) to PA-26/College Ave (Main St/PA-144) due to roadwork.,201.0,N Pennsylvania Ave,L,Centre Hall,Centre,PA,16828-5005,US,US/Eastern,KUNV,2021-08-16 13:53:00,70.0,70.0,83.0,28.83,10.0,CALM,0.0,0.0,Showers in the Vicinity,False,False,False,False,False,False,False,False,False,False,False,False,False,Day,Day,Day,Day
C-5871758,4,2021-10-23 11:53:00,2021-10-23 14:08:59,33.521839,-90.180674,33.524924,-90.181672,0.220768749831,Bridge closure from E Front St to E Claiborne Ave.,97.0,Walthall St,R,Greenwood,Leflore,MS,38930,US,US/Central,KGWO,2021-10-23 11:53:00,78.0,78.0,46.0,29.86,10.0,SSE,8.0,0.0,Fair,False,False,False,False,False,False,False,False,False,False,False,True,False,Day,Day,Day,Day
C-5871759,2,2021-10-21 08:12:00,2021-10-21 08:35:00,38.753426,-90.658395,38.755022,-90.653831,0.269508567358,Stationary traffic on MO-N from Round Tower Dr to Saint Peters Cottleville Rd / Blossom Bay Ct due to roadwork.,5729.0,Highway N,R,Saint Charles,St. Charles,MO,63304-7643,US,US/Central,KSUS,2021-10-21 07:54:00,50.0,50.0,74.0,29.53,10.0,W,9.0,0.0,Fair,False,False,True,False,False,False,False,False,False,False,False,False,False,Day,Day,Day,Day
C-5871760,2,2021-03-19 10:15:30,2021-03-19 11:06:30,41.18193400000001,-97.547979,41.177862,-97.556266,0.514658149254,Stationary traffic on US-81 S - NE-92 - US-81 N from NE-69/Walnut St (US-81) to NE-92 (US-81) due to roadwork.,,Highway 81-92,R,Osceola,Polk,NE,68651,US,US/Central,KJYR,2021-03-19 10:15:00,39.0,34.0,75.0,28.66,10.0,SE,8.0,0.0,Fair,False,False,False,False,False,False,False,False,False,False,False,False,False,Day,Day,Day,Day
C-5871761,2,2021-06-27 17:10:48,2021-06-27 20:01:20,45.28628300000001,-93.002946,45.703125,-92.992097,28.8058318442,Construction on I-35 NB near US-8 Allow extra time.,,US-8 E,R,Forest Lake,Washington,MN,55025,US,US/Central,KANE,2021-06-27 16:45:00,81.0,81.0,51.0,28.95,10.0,CALM,0.0,0.0,Showers in the Vicinity,False,False,False,False,False,False,False,False,False,False,False,False,False,Day,Day,Day,Day
C-5871762,2,2020-08-31 23:30:00,2020-09-01 06:59:59,40.011531,-75.042575,40.016921,-75.047255,0.447241016881,Emergency repairs and utility work on NJ 73 southbound at Tacony-Palmyra Bridge (Palmyra) Monday August 31st 2020 04:30 PM thru 11:59 PM right and center lanes closed,,Tacony Palmyra Brg,R,Palmyra,Burlington,NJ,08065,US,US/Eastern,KPNE,2020-08-31 23:54:00,66.0,66.0,100.0,29.99,10.0,CALM,0.0,0.0,Light Rain,False,False,False,False,False,False,False,False,False,False,False,False,False,Night,Night,Night,Night
C-5871763,2,2020-08-26 15:29:00,2020-08-26 23:45:00,37.140001,-77.356613,37.107641,-77.359463,2.24136901614,On I-95 in the County of Prince George at mile marker 43.9 motorists can expect potential delays in this area from 08/26/20 at 8:29 AM until 08/26/20 at 4:00 PM due to guardrail repairs. The south left shoulder and left lane are closed.,,I-95 S,R,Petersburg,Prince George,VA,23805,US,US/Eastern,,,,,,,,,,,,False,False,False,False,False,False,False,False,False,False,False,False,False,Day,Day,Day,Day
C-5871764,2,2021-07-10 02:29:30,2021-07-10 02:52:00,40.683239,-75.288507,40.683376,-75.296797,0.4344594877359999,Slow traffic on US-22 W from PA-248/25th St (US-22) to PA-33 (US-22) due to roadwork.,,PA-33 N,R,Easton,Northampton,PA,18045,US,US/Eastern,KABE,2021-07-10 02:51:00,66.0,66.0,93.0,29.51,10.0,SW,3.0,0.0,Fair,False,False,False,False,True,False,False,False,False,False,False,False,False,Night,Night,Night,Night
C-5871765,3,2018-05-18 21:00:00,2018-05-19 09:00:00,40.083313,-75.397362,,,0.259999990463,Exit ramp from I-76 Eastbound to US-422 Westbound closed due to construction. Detour in operation - Motorists will be directed to continue on I-76 East exit at U.S. 202 North and take the ramp to I-76 West to Mall Boulevard turn right on Mall Boulevard left on North Gulph Road and right on U.S. 202 South to access U.S. 422 West.,,US-202 S,R,King of Prussia,Montgomery,PA,19406,US,US/Eastern,KLOM,2018-05-18 20:55:00,53.6,,62.0,30.33,10.0,East,11.5,,Overcast,False,False,False,False,False,False,False,False,False,False,False,False,False,Night,Night,Day,Day
C-5871766,2,2021-05-17 06:00:00,2021-05-17 18:45:00,43.195969,-70.645012,43.18995200000001,-70.64578900000002,0.417573452239,Construction on I-95 SB near MM 10 Construction. Drive with caution.,,I-95 S,R,Cape Neddick,York,ME,03902,US,US/Eastern,KSFM,2021-05-17 05:56:00,42.0,42.0,96.0,29.99,10.0,CALM,0.0,0.0,Fair,False,False,False,False,False,False,False,False,False,False,False,False,False,Day,Day,Day,Day
C-5871767,2,2019-02-13 09:00:00,2019-02-13 15:00:00,42.254627,-83.684021,,,4.84000015259,Right lane blocked due to maintenance work on US-23 both ways from Exit 39 Geddes Rd to Exits 37A 37B M-17 Washtenaw Ave.,,Washtenaw Ave,R,Ann Arbor,Washtenaw,MI,48104,US,US/Eastern,KARB,2019-02-13 09:05:00,21.0,5.7,85.0,29.68,0.8,SSW,19.6,0.0,Light Snow,False,False,False,False,False,False,False,False,False,False,False,False,False,Day,Day,Day,Day
C-5871768,2,2019-11-04 09:01:38,2019-11-08 09:01:33,25.94086,-80.2454,25.94086,-80.2454,0.0,At 183rd St - Construction work.,,NW 27th Ave,R,Miami Gardens,Miami-Dade,FL,33056,US,US/Eastern,KOPF,2019-11-04 08:53:00,83.0,83.0,77.0,30.05,10.0,ESE,5.0,0.0,Partly Cloudy,False,False,False,False,False,False,False,False,False,False,False,True,False,Day,Day,Day,Day
C-5871769,2,2021-11-16 12:48:00,2021-11-16 14:53:31,25.940444,-80.260483,25.939706,-80.261356,0.0744461266027,Stationary traffic on FL-953 - FL-860 from NW 34th Ct to NW 181st St due to roadwork.,3619.0,NW 183rd St,L,Miami Gardens,Miami-Dade,FL,33056-3455,US,US/Eastern,KOPF,2021-11-16 12:53:00,78.0,78.0,54.0,30.14,10.0,E,16.0,0.0,Fair,False,False,False,False,False,False,False,False,True,False,False,False,False,Day,Day,Day,Day
C-5871770,2,2021-11-30 16:36:00,2021-11-30 16:57:00,34.183298,-118.324377,34.185814,-118.316802,0.466554849674,Stationary traffic from N Buena Vista St (Burbank Blvd) to N San Fernando Blvd (Burbank Blvd) due to roadwork.,1102.0,W Burbank Blvd,L,Burbank,Los Angeles,CA,91506-1446,US,US/Pacific,KBUR,2021-11-30 16:53:00,73.0,73.0,44.0,29.16,6.0,E,6.0,0.0,Haze,True,False,False,False,False,False,False,False,False,False,False,True,False,Day,Day,Day,Day
C-5871771,2,2018-06-19 08:49:55,2018-06-19 14:49:43,40.658346,-76.898619,40.652165,-76.90176,0.457703972263,At Mahantango Creek Rd - Roadwork. Lane blocked.,2077.0,State Route 147,L,Dalmatia,Northumberland,PA,17017-7466,US,US/Eastern,KSEG,2018-06-19 08:53:00,73.0,,90.0,29.88,9.0,Calm,,0.01,Overcast,False,False,False,False,False,False,False,False,False,False,False,False,False,Day,Day,Day,Day
C-5871772,2,2021-12-10 07:55:00,2021-12-10 10:01:26,33.451415999999995,-112.07643600000002,33.450378,-112.075159,0.102777077579,Slow traffic from N 2nd Ave to W Monroe St due to roadwork.,200.0,W Van Buren St,R,Phoenix,Maricopa,AZ,85003-1625,US,US/Mountain,KPHX,2021-12-10 07:51:00,52.0,52.0,80.0,28.76,10.0,SW,7.0,0.0,Fair,False,False,True,False,False,False,True,False,False,False,False,True,False,Day,Day,Day,Day
C-5871773,2,2020-09-19 12:00:00,2020-09-26 12:31:00,42.258406,-83.68373000000003,42.270896,-83.67586,0.952188993171,Construction on US-23 NB near US-23 Drive with caution.,,US-23 N,R,Ann Arbor,Washtenaw,MI,48105,US,US/Eastern,KARB,2020-09-19 11:53:00,57.0,57.0,40.0,29.52,10.0,VAR,5.0,0.0,Fair,False,False,False,False,False,False,False,False,False,False,False,False,False,Day,Day,Day,Day
C-5871774,2,2019-01-01 09:03:15,2019-01-05 09:02:45,25.886598,-80.134206,25.886621,-80.133676,0.0329834096065,At Bay Harbor Dr - Construction work.,1201.0,96th St,R,Bay Harbor Islands,Miami-Dade,FL,33154-1937,US,US/Eastern,KOPF,2019-01-01 08:53:00,75.9,,79.0,30.19,10.0,East,5.8,,Mostly Cloudy,False,False,False,False,False,False,False,False,False,False,False,False,False,Day,Day,Day,Day
C-5871775,2,2018-12-12 04:25:56,2018-12-14 23:59:00,40.471931,-80.010162,,,0.0,Intermittent lane closures due to paving repairs on Perrysville Ave both ways at Pusey St.,2656.0,Perrysville Ave,R,Pittsburgh,Allegheny,PA,15214-3454,US,US/Eastern,KAGC,2018-12-12 04:53:00,30.9,27.5,67.0,30.14,10.0,South,3.5,,Overcast,False,False,False,False,False,False,False,False,False,False,False,False,False,Night,Night,Night,Night
C-5871776,2,2020-10-30 14:00:00,2020-10-31 00:45:00,40.262273,-82.784388,40.258768,-82.792968,0.51313202892,Construction on US-36 WB near MEREDITH STATE RD Allow extra time.,3890.0,State Route 3,R,Sunbury,Delaware,OH,43074-9740,US,US/Eastern,KDLZ,2020-10-30 13:55:00,43.0,37.0,70.0,29.19,10.0,NW,9.0,0.0,Cloudy,False,False,False,False,False,False,False,False,False,False,False,False,False,Day,Day,Day,Day
C-5871777,3,2020-06-25 09:06:38,2020-06-25 17:00:00,40.39918,-80.02505,40.40178,-80.02211,0.2370690076029999,At PA-51/Saw Mill Run Blvd - Roadwork. Roadway reduced to 1 lane.,2499.0,Saranac Ave,L,Pittsburgh,Allegheny,PA,15216-3458,US,US/Eastern,KAGC,2020-06-25 08:53:00,67.0,67.0,73.0,28.67,10.0,SSW,5.0,0.0,Fair,False,False,True,False,False,False,False,False,False,True,False,True,False,Day,Day,Day,Day
C-5871778,2,2021-11-17 11:30:30,2021-11-17 11:51:00,40.689371,-75.391439,40.694926,-75.39213000000002,0.385517322608,Stationary traffic on PA-512 from Hanoverville Rd (Bath Pike/PA-512) to PA-248/Northampton St (N Walnut St/PA-512) due to roadwork.,7006.0,Beth Bath Pike,L,Bath,Northampton,PA,18014-8957,US,US/Eastern,KABE,2021-11-17 11:51:00,48.0,48.0,54.0,29.82,10.0,NNE,3.0,0.0,Mostly Cloudy,False,False,False,False,False,False,False,False,False,False,False,False,False,Day,Day,Day,Day
C-5871779,2,2021-08-27 13:08:30,2021-09-26 15:45:39,38.907265,-77.009504,38.901122,-77.018934,0.661237220698,Stationary traffic on US-1 N - US-50 W - US-1 S - US-50 E from New York Ave NE / N Capitol St NW to I-395 S due to roadwork.,21.0,New York Ave NW,R,Washington,District of Columbia,DC,20226-0019,US,US/Eastern,,,,,,,,,,,,False,False,True,False,False,False,False,False,True,False,False,True,False,Day,Day,Day,Day
C-5871780,4,2020-07-06 23:37:30,2020-12-04 07:59:00,46.266454,-119.303933,46.268537,-119.301471,0.185854410453,Closed road from Glenbriar Ln to Cottonwood Dr due to roadwork.,2401.0,Glenbriar Ln,R,Richland,Benton,WA,99352,US,US/Pacific,KPSC,2020-07-06 23:53:00,70.0,70.0,57.0,29.39,10.0,S,12.0,0.0,Light Rain,False,False,True,False,False,False,False,False,False,False,False,False,False,Night,Night,Night,Night
C-5871781,2,2021-10-25 15:26:30,2021-10-25 17:41:18,33.49414,-112.259132,33.49487,-112.255082,0.238748326164,Slow traffic from N 99th Ave to W MacKenzie Dr due to roadwork.,9284.0,W Indian School Rd,R,Phoenix,Maricopa,AZ,85037-1900,US,US/Mountain,KGEU,2021-10-25 14:58:00,86.0,86.0,31.0,28.62,10.0,CALM,0.0,0.0,Fair,False,False,False,False,False,False,False,False,False,False,False,False,False,Day,Day,Day,Day
C-5871782,2,2021-12-13 16:31:00,2021-12-13 18:34:40,40.350493,-121.630504,40.347785,-121.618554,0.656479651245,Roadwork on CR-A6/Manton Rd/Long Rd (CA-36) from CA-172/Husky Way (CA-36) to CA-36.,38261.0,State Highway 36 E,R,East Tehama,Tehama,CA,96061,US,US/Pacific,KRBL,2021-12-13 16:54:00,48.0,42.0,77.0,29.19,10.0,S,15.0,0.01,Light Rain,False,False,False,False,False,False,False,False,False,False,False,False,False,Day,Day,Day,Day
C-5871783,2,2019-09-19 21:03:25,2019-09-23 21:03:10,26.16586,-80.16101,26.16267,-80.16229,0.234265822957,Ramp to SR-816/Exit 31 - Construction work.,,NW 31st St,R,Fort Lauderdale,Broward,FL,33311,US,US/Eastern,KFXE,2019-09-19 20:53:00,77.0,77.0,79.0,29.94,10.0,NE,14.0,0.09,Partly Cloudy,False,False,False,False,False,False,False,False,False,False,False,True,False,Night,Night,Night,Night
C-5871784,2,2021-05-09 21:00:00,2021-05-10 05:45:00,37.108453,-76.47594699999998,37.105465,-76.472234,0.2906575080719999,Construction on I-64 EB near MM 255 Drive with caution.,,I-64 E,R,Newport News,Newport News,VA,23602,US,US/Eastern,,,,,,,,,,,,False,False,False,False,False,False,False,False,False,False,False,False,False,Night,Night,Day,Day
C-5871785,3,2016-11-15 21:30:59,2016-11-16 03:30:59,38.87697,-77.05708,38.887822,-77.065871,0.8864330792890001,Between VA-27/Washington Blvd and Jefferson Davis Hwy - Roadwork.,,Jefferson Davis Hwy N,R,Arlington,Arlington,VA,22202,US,US/Eastern,KDCA,2016-11-15 21:52:00,52.0,,63.0,29.86,10.0,WSW,8.1,,Partly Cloudy,False,False,False,False,False,False,False,False,False,False,False,False,False,Night,Night,Night,Night
C-5871786,2,2021-06-12 11:59:36,2021-06-12 12:33:54,42.679136,-90.11781,42.676422,-90.119136,0.199249413117,Stationary traffic on WI-23 - WI-81 from WI-81/Louisa St (WI-23) to WI-81/County Shop Rd (WI-23) due to roadwork.,290.0,Main St,L,Darlington,Lafayette,WI,53530-1424,US,US/Central,KMRJ,2021-06-12 11:55:00,81.0,81.0,51.0,28.7,10.0,NW,12.0,0.0,Fair,True,False,False,False,False,False,False,False,False,False,False,False,False,Day,Day,Day,Day
C-5871787,2,2021-12-23 14:01:30,2021-12-23 16:38:08,33.467862,-112.012919,33.46537,-112.01292,0.172180811164,Slow traffic from E Thomas Rd (N 32nd St) to AZ-202/Red Mountain Fwy (N 32nd St) due to roadwork.,1763.0,N 32nd St,R,Phoenix,Maricopa,AZ,85008-3804,US,US/Mountain,KPHX,2021-12-23 13:51:00,73.0,73.0,23.0,28.73,10.0,SW,3.0,0.0,Mostly Cloudy,True,False,True,False,False,False,False,False,True,False,False,True,False,Day,Day,Day,Day
C-5871788,2,2020-07-22 13:01:00,2020-07-23 02:46:00,39.013041,-122.358866,38.908651,-122.311766,7.64367334977,One-Way Traffic closure due to Drainage Work between Jct St 20 and Col/Yol Co Line,,CA-20,R,Williams,Colusa,CA,95987,US,US/Pacific,KMYV,2020-07-22 12:53:00,83.0,83.0,39.0,29.72,10.0,VAR,6.0,0.0,Fair,False,False,False,False,False,False,False,False,False,True,False,False,False,Day,Day,Day,Day
C-5871789,3,2018-12-19 06:56:33,2018-12-26 06:55:00,34.046873,-118.2381,34.05368,-118.23794,0.47040809018,At US-101/Santa Ana Fwy - Roadwork. Lane blocked.,203.0,S Alameda St,R,Los Angeles,Los Angeles,CA,90012-4227,US,US/Pacific,KCQT,2018-12-20 06:47:00,51.1,,71.0,30.09,10.0,Calm,,,Clear,False,False,True,False,False,False,False,False,False,True,False,True,False,Day,Day,Day,Day
C-5871790,2,2021-12-05 20:59:30,2021-12-05 23:02:02,40.746643,-73.980281,40.747775,-73.98296500000002,0.160797740087,Slow traffic from 3rd Ave (E 34th St) to W 34th St/5th Ave (E 34th St) due to roadwork.,123.0,E 34th St,L,New York,New York,NY,10016-4601,US,US/Eastern,KNYC,2021-12-05 20:51:00,45.0,41.0,49.0,30.19,10.0,E,8.0,0.0,Mostly Cloudy,True,False,True,False,False,False,False,False,False,False,False,True,False,Night,Night,Night,Night
C-5871791,4,2021-06-22 05:00:00,2021-08-31 17:00:00,41.125006,-94.289583,41.134808,-94.289628,0.677257747532,Closed road from Rea Rd to 110th St due to roadwork.,1240.0,Joshua Ave,R,Creston,Union,IA,50801-8130,US,US/Central,KCSQ,2021-06-22 04:55:00,52.0,52.0,94.0,28.6,10.0,S,12.0,0.0,Fair,False,False,False,False,False,False,False,False,False,False,False,False,False,Night,Night,Day,Day
C-5871792,4,2017-10-04 22:00:00,2017-10-05 05:01:00,39.914001,-104.989677,,,3.25999999046,Road closed due to construction during the night on I-25 Southbound from Exit 225 136th Ave to Exit 223 CO-128 120th Ave.,,E 120th Ave,R,Denver,Adams,CO,80233,US,US/Mountain,KBJC,2017-10-04 22:12:00,53.6,,82.0,30.2,10.0,Calm,,,Clear,False,False,False,False,False,False,False,False,False,False,False,False,False,Night,Night,Night,Night
C-5871793,2,2021-03-08 04:28:30,2021-12-21 18:23:17,39.776842,-104.940511,39.779964,-104.940518,0.2157099760800001,Stationary traffic on US-85 N - CO-2 - US-6 E from CO-33/E 40th Ave (Colorado Blvd/CO-2) to I-70 (Colorado Blvd/CO-2) due to roadwork.,,N Colorado Blvd,R,Denver,Denver,CO,80216,US,US/Mountain,KBJC,2021-07-04 15:46:00,84.0,84.0,28.0,24.5,10.0,NNW,17.0,0.0,Mostly Cloudy,False,False,False,False,False,False,False,False,False,False,False,False,False,Night,Night,Night,Night
C-5871794,2,2020-09-08 13:00:00,2020-09-09 03:45:00,44.400693,-88.935636,44.400841,-88.935237,0.0221928016685999,Construction on WI-54 EB near COUNTY KK Allow extra time.,,E5800 State Road 54,L,New London,Waupaca,WI,54961-8162,US,US/Central,KATW,2020-09-08 12:45:00,54.0,54.0,82.0,29.21,10.0,NNE,12.0,0.0,Cloudy,False,False,False,False,False,False,False,False,False,False,False,False,False,Day,Day,Day,Day
C-5871795,2,2021-04-15 08:57:00,2021-06-14 04:02:37,39.960219,-79.011095,39.961209,-79.013671,0.152610668007,Roadwork on HUNSRICK RD / BEACHLEY ST / GRANT ST / MASON DIXON HW both directions between E MUD PK and GARRETT SHORTCUT RD. There is a hauler restriction.,2128.0,Berlin Plank Rd,R,Somerset,Somerset,PA,15501,US,US/Eastern,KLBE,2021-04-15 08:47:00,43.0,39.0,66.0,28.63,10.0,NNW,7.0,0.0,Cloudy,False,False,False,False,False,False,False,False,False,False,False,False,False,Day,Day,Day,Day
C-5871796,2,2021-09-17 16:46:09,2021-09-17 17:08:30,33.368214,-96.429045,33.352940999999994,-96.45099,1.64845137907,Slow traffic on TX-121 from TX-160 (TX-121) to FM-2862 (TX-121) due to roadwork.,14057.0,State Highway 121 N,L,Anna,Collin,TX,75409,US,US/Central,KTKI,2021-09-17 16:53:00,91.0,91.0,42.0,29.34,10.0,NE,9.0,0.0,Partly Cloudy,False,False,False,False,False,False,False,False,False,False,False,False,False,Day,Day,Day,Day
C-5871797,2,2016-08-17 08:01:04,2016-08-17 14:01:04,39.15411,-75.65033000000003,39.16662,-75.707792,3.1974995361,Between Halltown Rd and Crystal Rd - Construction work.,3397.0,Hartly Rd,R,Hartly,Kent,DE,19953-2743,US,US/Eastern,KDOV,2016-08-17 07:58:00,81.9,,100.0,30.07,10.0,SW,8.1,,Clear,False,False,False,False,False,False,False,False,False,False,False,False,False,Day,Day,Day,Day
C-5871799,2,2021-08-24 08:24:00,2021-08-24 08:49:00,34.877534000000004,-96.247444,34.887095,-96.247507,0.6606118349660001,Stationary traffic on US-75 S - US-75 N from E1500 Rd (US-75) to US-270/OK-1 (US-75) due to roadwork.,,Highway 75,R,Calvin,Hughes,OK,74531,US,US/Central,KADH,2021-08-24 08:15:00,77.0,77.0,74.0,28.92,10.0,CALM,0.0,0.0,Fair,False,False,False,False,False,False,False,False,False,True,False,False,False,Day,Day,Day,Day
C-5871800,2,2021-11-17 14:47:30,2021-11-17 17:30:02,33.490287,-112.203256,33.494828000000005,-112.203418,0.31389204615,Stationary traffic from W Whitton Ave to N 69th Dr due to roadwork.,3649.0,N 67th Ave,R,Phoenix,Maricopa,AZ,85033,US,US/Mountain,KGEU,2021-11-17 14:58:00,79.0,79.0,16.0,28.79,10.0,SE,6.0,0.0,Fair,True,False,True,False,False,False,False,False,False,False,False,True,False,Day,Day,Day,Day
C-5871801,2,2021-11-04 15:12:00,2021-11-04 15:42:00,47.206502,-122.476263,47.206481,-122.463892,0.580686396134,Slow traffic from S Tacoma Way (S 56th St) to I-5/Tacoma Mall Blvd (S 56th St) due to roadwork.,3109.0,S 56th St,R,Tacoma,Pierce,WA,98409-6235,US,US/Pacific,KTCM,2021-11-04 15:08:00,54.0,54.0,94.0,29.45,10.0,SSW,16.0,0.0,Light Rain,False,False,False,False,False,False,False,False,False,False,False,True,False,Day,Day,Day,Day
C-5871802,2,2021-09-04 16:53:44,2021-11-05 12:29:00,27.945423,-82.334974,27.943037,-82.33336800000002,0.191799141305,Stationary traffic on FL-60 from Elizabeth Pl to I-75 S due to roadwork.,621.0,S Falkenburg Rd,L,Tampa,Hillsborough,FL,33619-8046,US,US/Eastern,KTPF,2021-09-20 07:15:00,73.0,73.0,100.0,29.99,3.0,CALM,0.0,0.0,Fair,False,False,False,False,False,False,False,False,False,False,False,False,False,Day,Day,Day,Day
C-5871803,2,2021-08-02 13:33:30,2021-08-02 15:34:57,37.594652,-77.56455600000002,37.593666,-77.56681400000002,0.141146607059,Stationary traffic on VA-73 - VA-6 from Bridle Ln to Julian Rd due to roadwork.,8540.0,Patterson Ave,R,Henrico,Henrico,VA,23229-6436,US,US/Eastern,KOFP,2021-08-02 13:54:00,81.0,81.0,44.0,29.84,7.0,CALM,0.0,0.0,Fair,False,False,False,False,False,False,False,False,False,False,False,False,False,Day,Day,Day,Day
C-5871804,2,2021-10-10 10:24:00,2021-10-10 10:45:02,44.397449,-70.67747299999998,44.388791,-70.658988,1.0912114256899998,Slow traffic on ME-26 from Gore Rd (N Main St/ME-26) to ME-232 (Main St/ME-26) due to roadwork.,199.0,Rocky Rd,L,Bryant Pond,Oxford,ME,04219-6318,US,US/Eastern,KLEW,2021-10-10 09:56:00,49.0,49.0,97.0,30.05,10.0,CALM,0.0,0.0,Fair,False,False,False,False,False,False,False,False,False,False,False,False,False,Day,Day,Day,Day
C-5871805,4,2021-07-09 09:51:30,2021-07-17 02:56:53,45.228922,-85.353185,45.264956,-85.342832,2.54013901984,US-31 S - US-31 N is closed from CR-48/Atwood Rd (US-31) to Witmere Rd (US-31) due to roadwork.,1898.0,US Highway 31 S,R,Charlevoix,Charlevoix,MI,49720-9800,US,US/Eastern,KCVX,2021-07-09 09:55:00,62.0,62.0,65.0,29.35,10.0,WNW,9.0,0.0,Fair,False,False,False,False,False,False,False,False,False,False,False,False,False,Day,Day,Day,Day
C-5871806,2,2020-10-28 09:16:05,2020-10-29 06:57:18,44.007928,-121.280304,44.007948,-121.284104,0.18884604274,Roadwork from Rickard Rd/27th St (Knott Rd) to SE 15 St/Tekampe Rd (Knott Rd).,20865.0,Knott Rd,L,Bend,Deschutes,OR,97702-9547,US,US/Pacific,KBDN,2020-10-28 09:15:00,46.0,44.0,40.0,26.72,10.0,S,6.0,0.0,Fair,False,False,False,False,False,False,False,True,False,False,False,False,False,Day,Day,Day,Day
C-5871807,2,2021-03-30 05:28:55,2021-12-01 17:16:00,40.489561,-79.929271,40.488568,-79.92319499999998,0.326567856161,Stationary traffic on PA-8 from Butler St/62nd St Bridge (PA-8) to Hill Rd/One Wild Place/Hill St (PA-8) due to roadwork.,6662.0,Butler St,R,Pittsburgh,Allegheny,PA,15206-1018,US,US/Eastern,KAGC,2021-10-26 09:53:00,47.0,40.0,86.0,28.46,3.0,NNW,18.0,0.0,Light Rain,False,False,True,False,False,False,False,False,False,False,False,False,False,Night,Night,Night,Night
C-5871808,2,2021-09-08 06:00:00,2021-09-08 20:45:00,43.891708,-88.02256,,,0.0,Intermittent lane closures due to construction work on WI-67 both ways at County Line Rd.,,N9699 State Road 67,R,Elkhart Lake,Sheboygan,WI,53020-1550,US,US/Central,KSBM,2021-09-08 05:53:00,58.0,58.0,78.0,28.92,10.0,W,10.0,0.0,Fair,False,False,False,False,False,False,False,False,False,False,False,False,False,Night,Day,Day,Day
C-5871810,2,2021-10-29 11:23:30,2021-10-29 11:47:00,31.591697,-94.682287,31.578045,-94.676451,1.0038605101,Stationary traffic on US-59 S - TX-224 Loop from Durst St (TX-224 Loop/Stallings Dr/US-59) to US-59/TX-224 Loop/South St (Stallings Dr/US-59) due to roadwork.,2073.0,SW Stallings Dr,L,Nacogdoches,Nacogdoches,TX,75964-5650,US,US/Central,KOCH,2021-10-29 10:56:00,62.0,62.0,41.0,29.5,10.0,WNW,22.0,0.0,Fair / Windy,False,False,False,False,True,False,False,False,False,False,False,False,False,Day,Day,Day,Day
C-5871811,2,2020-12-22 20:02:59,2020-12-22 23:13:38,28.393192,-81.826062,28.401129,-81.828052,0.5615743200159999,Stationary traffic on FL-33 from Bronson Ranch Rd (Commonwealth Ave/FL-33) to CR-561 (FL-33) due to roadwork.,3097.0,State Road 33,L,Clermont,Lake,FL,34714-8619,US,US/Eastern,KISM,2020-12-22 19:56:00,56.0,56.0,84.0,30.16,10.0,CALM,0.0,0.0,Fair,False,False,False,False,False,False,False,False,False,False,False,False,False,Night,Night,Night,Night
C-5871812,2,2021-04-30 05:41:30,2021-04-30 14:44:09,25.732202,-80.370633,25.733125,-80.367766,0.189499429804,Slow traffic on FL-976 - FL-985 from SW 109th Ave to SW 38th St due to roadwork.,,SW 40th St,R,Miami,Miami-Dade,FL,33165,US,US/Eastern,KMIA,2021-04-30 05:39:00,76.0,76.0,85.0,30.01,10.0,CALM,0.0,0.0,Mostly Cloudy,False,False,False,False,False,False,False,False,False,False,False,False,False,Night,Night,Night,Day
C-5871813,2,2021-04-06 06:19:30,2021-04-06 13:14:21,41.815225,-71.446198,41.818277,-71.438229,0.461366870476,Slow traffic on RI-10 N - US-6 E from RI-14/Plainfield St (US-6) to Harris Ave (US-6) due to roadwork.,,Plainfield St,R,Providence,Providence,RI,02909,US,US/Eastern,KPVD,2021-04-06 05:51:00,46.0,43.0,37.0,29.8,10.0,NNW,6.0,0.0,Fair,False,False,False,False,False,False,False,False,False,False,False,False,False,Day,Day,Day,Day
C-5871814,2,2021-11-17 18:01:24,2021-11-17 20:20:55,25.747513,-80.33807900000002,25.748123,-80.335622,0.158609928218,Stationary traffic on County Hwy-913 - FL-973 - FL-972 from SW 89th Ave to SW 21st St / SW 21st Ter due to roadwork.,8818.0,SW 24th St,L,Miami,Miami-Dade,FL,33165-2008,US,US/Eastern,KMIA,2021-11-17 17:53:00,78.0,78.0,74.0,30.13,10.0,E,14.0,0.0,Cloudy,True,False,True,False,False,False,False,False,False,False,False,False,False,Night,Night,Day,Day
C-5871815,2,2021-12-23 16:25:10,2021-12-23 18:33:25,40.881083,-73.87849399999998,40.883037,-73.88189399999997,0.2230989353469999,Slow traffic from Bronx River Pkwy (E Gun Hill Rd) to Mosholu Pkwy (W Gun Hill Rd) due to roadwork.,3498.0,Bainbridge Ave,R,Bronx,Bronx,NY,10467-2802,US,US/Eastern,KLGA,2021-12-23 16:51:00,36.0,28.0,43.0,30.17,10.0,NNW,10.0,0.0,Mostly Cloudy,False,False,False,False,False,False,False,False,False,False,False,True,False,Day,Day,Day,Day
C-5871816,2,2021-06-29 17:00:19,2021-08-24 17:09:42,41.197178,-73.11961099999998,41.19968,-73.11545799999998,0.276587070936,Slow traffic on US-1 N - CT-130 from I-95 N to Route 130 due to roadwork.,529.0,Ferry Blvd,R,Stratford,Fairfield,CT,06615-6013,US,US/Eastern,KBDR,2021-08-24 14:52:00,87.0,87.0,57.0,29.92,10.0,SW,10.0,0.0,Partly Cloudy,False,False,False,False,False,False,False,False,False,False,False,False,False,Day,Day,Day,Day
C-5871817,3,2020-09-02 08:23:21,2020-09-02 17:01:00,38.38832100000001,-104.991348,,,6.4600000381500005,Road closed due to maintenance work on CO-120 both ways between County Road 112 and M St.,2896.0,20th St,R,Penrose,Fremont,CO,81240,US,US/Mountain,K1V6,2020-09-02 08:45:00,70.0,70.0,38.0,24.71,10.0,W,15.0,0.0,Fair,False,False,False,False,False,False,False,False,False,False,False,False,False,Day,Day,Day,Day
C-5871818,2,2021-10-16 14:55:00,2021-10-16 17:02:07,28.803035,-81.890915,28.803173,-81.886954,0.240009095416,Stationary traffic on FL-44 from S Lone Oak Dr (FL-44) to US-441 (FL-44) due to roadwork.,,South St,R,Leesburg,Lake,FL,34748,US,US/Eastern,KLEE,2021-10-16 14:53:00,90.0,90.0,46.0,29.82,10.0,CALM,0.0,0.0,Fair,False,False,False,False,False,False,False,False,False,False,False,False,False,Day,Day,Day,Day
C-5871819,2,2021-07-30 04:10:52,2021-07-30 04:59:00,37.48331500000001,-122.16745,,,1.5,One lane closed due to construction during the night on CA-84 Bayfront Expy Westbound from CA-114 Willow Rd to Chilco St.,,Bayfront Expy,R,Menlo Park,San Mateo,CA,94025,US,US/Pacific,KPAO,2021-07-30 06:47:00,61.0,61.0,88.0,29.91,8.0,N,6.0,,Cloudy,False,False,True,False,False,False,False,False,False,False,False,True,False,Night,Night,Night,Night
C-5871820,2,2020-09-18 11:57:00,2020-09-18 18:26:00,39.78658,-105.10969,39.782925,-105.10961299999998,0.252569539299,Stationary traffic on CO-391 from W 58th Ave (Kipling St/CO-391) to I-70 (Kipling St/CO-391) due to roadwork.,4975.0,Kipling St,L,Wheat Ridge,Jefferson,CO,80033-2249,US,US/Mountain,KBJC,2020-09-18 11:45:00,68.0,68.0,37.0,24.61,6.0,CALM,0.0,0.0,Smoke,False,False,True,False,False,False,False,False,False,False,False,True,False,Day,Day,Day,Day
C-5871821,2,2020-07-29 18:51:00,2020-07-31 19:36:42,29.403986,-82.245347,29.406963,-82.247519,0.243723091915,Construction on I-75 near CR-318 Construction. Right lane closed.,,I-75 N,R,Reddick,Marion,FL,32686,US,US/Eastern,KOCF,2020-07-29 18:51:00,79.0,79.0,88.0,29.98,10.0,E,3.0,0.0,Fair,False,False,False,False,False,False,False,False,False,False,False,False,False,Day,Day,Day,Day
