ID,Severity,Start_Time,End_Time,Start_Lat,Start_Lng,End_Lat,End_Lng,Distance(mi),Description,Number,Street,Side,City,County,State,Zipcode,Country,Timezone,Airport_Code,Weather_Timestamp,Temperature(F),Wind_Chill(F),Humidity(%),Pressure(in),Visibility(mi),Wind_Direction,Wind_Speed(mph),Precipitation(in),Weather_Condition,Amenity,Bump,Crossing,Give_Way,Junction,No_Exit,Railway,Roundabout,Station,Stop,Traffic_Calming,Traffic_Signal,Turning_Loop,Sunrise_Sunset,Civil_Twilight,Nautical_Twilight,Astronomical_Twilight
C-5863445,2,2021-03-24 08:46:00,2021-07-02 05:35:38,47.665826,-117.12913799999998,47.694406,-117.053058,4.05275268527,Various lane and ramp closures on I-90 both directions from milepost 295.7 near Harvard Rd Off-Ramp to milepost 296.6 near Harvard Rd Off Ramp until further notice. Crews will be widening the Harvard Road overpass. Expect nightly closures of various ramps at the interchange and to I-90.,,I-90 E,R,Greenacres,Spokane,WA,99016,US,US/Pacific,KSFF,2021-03-24 08:53:00,40.0,36.0,60.0,27.88,10.0,SW,6.0,0.0,Cloudy,False,False,False,False,True,False,False,False,False,False,False,False,False,Day,Day,Day,Day
C-5863446,2,2021-08-23 20:19:00,2021-08-23 22:32:16,35.3901,-97.547838,35.391768,-97.547784,0.1152879540359999,Slow traffic from SW 89th St (Pennsylvania Ave) to W I-240 Service Rd/SW 74th St (Pennsylvania Ave) due to roadwork.,7549.0,S Pennsylvania Ave,R,Oklahoma City,Oklahoma,OK,73159-5214,US,US/Central,KOKC,2021-08-23 19:52:00,86.0,86.0,51.0,28.53,10.0,S,10.0,0.0,Fair,False,False,False,False,False,False,False,False,False,False,False,True,False,Night,Day,Day,Day
C-5863447,4,2021-02-23 08:55:00,2021-02-24 13:55:00,45.650896,-123.114357,45.67463400000001,-123.103737,1.71844145371,Construction @ Sellers Road between Davidson Road and Woollen Road -- Impact: Closure,18001.0,NW Sellers Rd,L,Banks,Washington,OR,97106-7219,US,US/Pacific,KHIO,2021-02-23 08:53:00,39.0,36.0,96.0,30.24,10.0,N,5.0,0.0,Cloudy,False,False,False,False,False,False,False,False,False,False,False,False,False,Day,Day,Day,Day
C-5863448,4,2021-10-22 11:47:33,2021-10-24 23:59:00,38.634742,-90.235288,38.635179,-90.237296,0.112502470822,Closed road from S Grand Blvd / N Grand Blvd to S Spring Ave due to roadwork.,3640.0,Laclede Ave,L,Saint Louis,St. Louis City,MO,63108,US,US/Central,KCPS,2021-10-22 11:53:00,52.0,52.0,77.0,29.66,10.0,W,6.0,0.0,Cloudy,False,False,True,False,False,False,False,False,False,False,False,False,False,Day,Day,Day,Day
C-5863449,2,2021-12-27 12:21:09,2021-12-28 02:57:52,35.539131,-78.62523,35.540368,-78.629866,0.274301323648,Roadwork from Jonquil Ln to White Memorial Church Rd.,1312.0,Honeycutt Rd,R,Willow Spring,Johnston,NC,27592-7754,US,US/Eastern,KHRJ,2021-12-27 12:15:00,66.0,66.0,65.0,29.74,10.0,S,7.0,0.0,Fair,False,False,False,False,False,False,False,False,False,False,False,False,False,Day,Day,Day,Day
C-5863450,2,2021-09-17 15:53:03,2021-09-17 16:14:04,40.621401,-79.91857399999998,40.618761,-79.908014,0.583083683566,Stationary traffic on PA-910 from Turner Rd (PA-910) to Middle Rd (PA-910) due to roadwork.,3498.0,Haven Hill Dr,R,Gibsonia,Allegheny,PA,15044,US,US/Eastern,KBTP,2021-09-17 15:56:00,81.0,81.0,62.0,28.78,10.0,SSE,5.0,0.0,Partly Cloudy,False,False,False,False,False,False,False,False,False,False,False,False,False,Day,Day,Day,Day
C-5863451,2,2020-01-27 01:51:02,2020-01-30 06:51:16,39.95592,-75.1807,39.95592,-75.1807,0.0,At I-676/US-30/Exit 344/Exit 345 - Roadwork. Open.,,N 29th St,R,Philadelphia,Philadelphia,PA,19104,US,US/Eastern,KPHL,2020-01-27 01:54:00,32.0,26.0,79.0,29.77,10.0,WSW,7.0,0.0,Mostly Cloudy,False,False,False,False,False,False,False,False,False,False,False,False,False,Night,Night,Night,Night
C-5863452,2,2020-09-08 16:00:00,2020-10-09 21:35:15,40.507171,-80.136961,40.514271,-80.134299,0.510104502248,Roadwork on I-79 northbound between Exit 65: NEVILLE ISLAND and Exit 66: PA 65 - EMSWORTH/SEWICKLEY/GLENFIELD. There is a shoulder closed.,,Station St,R,Coraopolis,Allegheny,PA,15108,US,US/Eastern,KPIT,2020-09-08 15:51:00,84.0,84.0,49.0,28.81,10.0,CALM,0.0,0.0,Fair,False,False,False,False,False,False,False,False,False,False,False,False,False,Day,Day,Day,Day
C-5863453,2,2021-12-22 18:07:57,2021-12-22 20:10:41,27.900072,-81.600011,27.897051,-81.599949,0.20876555169,Slow traffic on US-27 S - FL-25 from Washington Ave (US-27) to FL-60 (US-27) due to roadwork.,,Highway 27,R,Lake Wales,Polk,FL,33853,US,US/Eastern,KBOW,2021-12-22 18:15:00,59.0,59.0,63.0,29.87,10.0,WNW,7.0,0.0,Fair,False,False,False,False,False,False,False,False,False,False,False,False,False,Night,Night,Day,Day
C-5863454,2,2021-11-27 11:50:00,2021-11-27 13:52:22,28.507841,-82.16818599999998,28.506224,-82.170761,0.192161302485,Slow traffic on US-301 S - FL-35 - FL-50 from Ridge Manor Blvd to Ridge Manor due to roadwork.,35104.0,Cortez Blvd,L,Dade City,Hernando,FL,33523,US,US/Eastern,KZPH,2021-11-27 11:55:00,64.0,64.0,37.0,29.97,10.0,NNW,7.0,0.0,Fair,False,False,False,False,False,False,False,False,False,False,False,False,False,Day,Day,Day,Day
C-5863455,3,2020-09-15 00:04:01,2020-09-15 05:00:00,33.596909000000004,-117.675682,,,1.23000001907,Entry ramp to I-5 Southbound from La Paz Rd Northbound closed due to construction work.,,I-5 S,R,Laguna Hills,Orange,CA,92653,US,US/Pacific,KSNA,2020-09-15 00:53:00,68.0,68.0,87.0,29.95,3.0,SSW,3.0,0.0,Fair,False,False,False,False,False,False,False,False,False,False,False,False,False,Night,Night,Night,Night
C-5863456,2,2020-08-30 14:00:00,2020-08-31 03:30:00,37.596508,-75.787564,37.597367,-75.777463,0.556147715699,Construction on VA-620 SB near LANKFORD HWY Construction. Drive with caution.,32661.0,Boggs Rd,R,Painter,Accomack,VA,23420-4131,US,US/Eastern,KMFV,2020-08-30 13:55:00,80.0,80.0,45.0,29.8,10.0,NW,8.0,0.0,Fair,False,False,False,False,False,False,False,False,False,False,False,False,False,Day,Day,Day,Day
C-5863457,2,2021-09-05 09:00:00,2021-09-05 19:37:30,41.893551,-87.654889,41.873603,-87.645613,1.45853519267,Slow traffic on I-94 E - I-90 E - Kennedy Expy E from Ogden Ave/Exit 50A (I-90/I-94) to Taylor St/Exit 52A (I-90/I-94) due to roadwork.,,I-90 E,R,Chicago,Cook,IL,60642,US,US/Central,KMDW,2021-09-05 08:53:00,68.0,68.0,63.0,29.26,10.0,WNW,5.0,0.0,Fair,False,False,False,False,False,False,False,False,False,False,False,False,False,Day,Day,Day,Day
C-5863458,2,2016-10-25 19:17:02,2016-10-26 01:13:35,40.36992,-76.18876999999998,40.360886,-76.174121,0.99214003354,Between Church Rd and Bernville Rd/May St - Roadwork. Lane blocked.,,N 3rd St,R,Womelsdorf,Berks,PA,19567,US,US/Eastern,KRDG,2016-10-25 18:54:00,45.0,42.6,48.0,30.32,10.0,North,4.6,,Partly Cloudy,False,False,False,False,False,False,False,False,False,True,False,True,False,Night,Night,Night,Day
C-5863459,2,2021-12-08 13:43:00,2021-12-08 16:20:54,28.469355,-81.36779399999998,28.474283000000003,-81.367861,0.340516687919,Slow traffic on FL-527 from FL-482/Sand Lake Rd/McCoy Rd (FL-527) to W Holden Ave (FL-527) due to roadwork.,6298.0,Hansel Ave,R,Orlando,Orange,FL,32809,US,US/Eastern,KMCO,2021-12-08 13:53:00,83.0,83.0,49.0,29.88,10.0,SW,7.0,0.0,Mostly Cloudy,False,False,True,False,False,False,False,False,False,False,False,False,False,Day,Day,Day,Day
C-5863460,2,2020-08-23 01:47:00,2020-08-24 02:37:25,40.66095,-80.090743,40.690072,-80.111688,2.29200985476,Construction on I-76 WB near MP 28 Construction. Left lane closed.,,I-76 W,R,Warrendale,Allegheny,PA,15086,US,US/Eastern,KBTP,2020-08-23 01:56:00,67.0,67.0,90.0,28.68,10.0,CALM,0.0,0.0,Light Rain,False,False,False,False,True,False,False,False,False,False,False,False,False,Night,Night,Night,Night
C-5863461,2,2021-09-30 07:58:37,2021-09-30 19:00:00,38.193057,-81.50058299999998,38.161377,-81.447973,3.59950357172,Other Maintenance on I-77 SB from Mile Marker 81.5 to Mile Marker 80.5.,,I-64 E,R,Cabin Creek,Kanawha,WV,25035,US,US/Eastern,KCRW,2021-09-30 07:54:00,51.0,51.0,100.0,29.12,0.25,CALM,0.0,0.0,Fog,False,False,False,False,True,False,False,False,False,False,False,False,False,Day,Day,Day,Day
C-5863462,3,2020-10-20 09:00:09,2020-10-20 10:15:55,43.638557,-72.280136,,,3.41000008583,Left lane blocked due to construction work on I-89 Northbound from Exit 20 NH-12A Main St to Exit 19 NH-10.,,I-89 N,R,Lebanon,Grafton,NH,03766,US,US/Eastern,KLEB,2020-10-20 08:53:00,57.0,57.0,81.0,29.55,10.0,S,7.0,0.0,Cloudy,False,False,False,False,False,False,False,False,False,False,False,False,False,Day,Day,Day,Day
C-5863463,2,2021-10-26 13:04:00,2021-10-26 15:22:03,26.16634,-80.15289,26.165584,-80.154657,0.121389768323,Stationary traffic on FL-816 - FL-845 from NW 7th Ave to NW 30th Ct due to roadwork.,2856.0,NW 7th Ave,R,Fort Lauderdale,Broward,FL,33309,US,US/Eastern,KFXE,2021-10-26 12:53:00,86.0,86.0,65.0,29.89,10.0,WNW,10.0,0.0,Partly Cloudy,False,False,False,False,False,False,False,False,False,False,False,False,False,Day,Day,Day,Day
C-5863464,2,2020-03-26 02:40:46,2020-03-27 02:40:46,36.22638,-80.31984,36.18853,-80.28072,3.4052538500400003,Between Moore-RJR Dr/Exit 122 and Hanes Mill Rd/Exit 116 - Construction work.,,John Gold Memorial Expy S,R,Rural Hall,Forsyth,NC,27045,US,US/Eastern,KINT,2020-03-26 02:54:00,47.0,44.0,90.0,29.03,10.0,E,7.0,0.0,Cloudy,False,False,False,False,True,False,False,False,False,False,False,False,False,Night,Night,Night,Night
C-5863465,2,2021-12-11 20:21:30,2021-12-11 22:26:30,33.410115999999995,-111.926274,33.407437,-111.925604,0.18909201547,Slow traffic from E Vista del Cerro Dr to S Jentilly Ln due to roadwork.,817.0,E Vista del Cerro Dr,R,Tempe,Maricopa,AZ,85281-5709,US,US/Mountain,KPHX,2021-12-11 20:51:00,52.0,52.0,57.0,28.88,10.0,SW,6.0,0.0,Fair,False,False,True,False,False,True,False,False,True,False,False,True,False,Night,Night,Night,Night
C-5863466,2,2021-08-25 20:01:00,2021-08-26 05:46:00,36.922082,-120.019845,36.951876,-120.053476,2.7726001821,Alternating Lanes closure due to Striping Operation between Cottonwood Crossing and 4th Street O/C,,Highway 99,R,Madera,Madera,CA,93637,US,US/Pacific,KMAE,2021-08-25 19:53:00,80.0,80.0,42.0,29.61,9.0,NW,7.0,0.0,Mostly Cloudy,False,False,False,False,False,False,False,False,False,False,False,False,False,Night,Day,Day,Day
C-5863467,2,2020-12-29 23:37:42,2020-12-30 00:03:37,34.744359,-95.896644,34.730835,-95.899201,0.945630970733,Slow traffic on US-69 S from Indian Nation Tpke (US-69) to OK-63/8th St (Garfield Ave/US-69) due to roadwork.,16166.0,S US Highway 69,L,Kiowa,Pittsburg,OK,74553,US,US/Central,KMLC,2020-12-29 23:53:00,57.0,57.0,87.0,29.1,10.0,S,9.0,0.0,Cloudy,False,False,False,False,False,False,False,False,False,False,False,False,False,Night,Night,Night,Night
C-5863468,4,2019-01-25 04:15:26,2019-01-25 06:14:42,35.73909000000001,-83.02579,35.73397,-83.0246,0.359998817447,At Gov Rd/Harmon Den Rd/Exit 7 - Roadwork.,,I-40 E,R,Clyde,Haywood,NC,28721,US,US/Eastern,KAVL,2019-01-25 03:54:00,28.0,17.0,72.0,30.08,10.0,North,13.8,,Partly Cloudy,False,False,False,False,False,False,False,False,False,False,False,False,False,Night,Night,Night,Night
C-5863469,1,2020-06-10 20:00:00,2020-06-11 05:00:00,47.568573,-122.179718,,,1.01999998093,Intermittent lane closures due to construction during the night on Coal Creek Pkwy both ways from 124th Ave to I-405.,,SE Coal Creek Pkwy,R,Bellevue,King,WA,98006,US,US/Pacific,KRNT,2020-06-10 19:53:00,68.0,68.0,61.0,30.01,10.0,W,5.0,0.0,Partly Cloudy,False,False,False,False,False,False,False,False,False,False,False,True,False,Day,Day,Day,Night
C-5863470,2,2021-03-13 05:29:00,2021-03-13 18:17:07,29.649406,-82.37228,29.65046,-82.373077,0.0871418924467,Stationary traffic on FL-121 from Radio Rd to SW 35th Ter due to roadwork.,313.0,SW 34th St,R,Gainesville,Alachua,FL,32607-2857,US,US/Eastern,KGNV,2021-03-13 05:53:00,52.0,52.0,93.0,30.11,10.0,CALM,0.0,0.0,Fair,False,False,True,False,False,False,False,False,False,False,False,False,False,Night,Night,Night,Day
C-5863471,4,2020-09-30 02:01:00,2020-09-30 13:44:00,34.265903,-118.472621,34.26543,-118.469696,0.170188582176,Construction on CA-118 EB near SEPULVEDA BLVD Use alternate exit ramp.,,CA-118 E,R,Granada Hills,Los Angeles,CA,91344,US,US/Pacific,KVNY,2020-09-30 01:51:00,79.0,79.0,25.0,29.1,10.0,CALM,0.0,0.0,Fair,False,False,False,False,False,False,False,False,False,False,False,False,False,Night,Night,Night,Night
C-5863472,4,2021-02-13 00:00:00,2021-02-21 00:44:00,34.151537,-118.62466299999998,34.152269,-118.62498,0.0537262157902,Construction on AIDA PL NB near MARGARITA DR Road closed. Take alternate route.,4501.0,Aida Pl,L,Woodland Hills,Los Angeles,CA,91364-3840,US,US/Pacific,KVNY,2021-02-13 00:51:00,53.0,53.0,61.0,29.08,10.0,N,5.0,0.0,Fair,False,False,False,False,False,False,False,False,False,False,False,False,False,Night,Night,Night,Night
C-5863473,2,2020-09-04 14:11:00,2020-09-04 21:41:17,26.515402,-80.059055,26.514554,-80.059752,0.0727317988351999,Stationary traffic on FL-805 - US-1 S - FL-5 in To Be Determined due to resurfacing work.,1451.0,S Federal Hwy,R,Boynton Beach,Palm Beach,FL,33435-6003,US,US/Eastern,KPBI,2020-09-04 13:53:00,91.0,91.0,61.0,30.03,10.0,NE,10.0,0.0,Mostly Cloudy,False,False,False,False,False,False,False,False,False,False,False,False,False,Day,Day,Day,Day
C-5863474,3,2021-03-03 21:00:00,2021-03-04 05:00:00,40.334061,-104.980659,,,1.7200000286099997,Entry ramp to I-25 Southbound from County Road 48 closed due to construction work.,,I-25 S,R,Berthoud,Weld,CO,80513,US,US/Mountain,KFNL,2021-03-03 20:56:00,39.0,39.0,38.0,24.96,10.0,CALM,0.0,0.0,Fair,False,False,False,False,False,False,False,False,False,False,False,False,False,Night,Night,Night,Night
C-5863475,4,2019-10-23 12:09:13,2019-10-23 17:08:40,39.60951,-105.94704,39.68707,-105.8833,6.34164206783,Closed between Swan Mountain Rd and I-70 (East) - Closed due to roadwork.,,US-6 E,R,Dillon,Summit,CO,80435,US,US/Mountain,KCCU,2019-10-23 11:53:00,35.0,24.0,48.0,20.77,10.0,WNW,18.0,0.0,Partly Cloudy,False,False,False,False,False,False,False,False,False,False,False,False,False,Day,Day,Day,Day
C-5863476,2,2020-09-21 14:00:00,2021-09-01 07:44:00,41.32908,-96.346787,41.334522,-96.353765,0.521966337232,Construction on US-275 NB near NE-64 Allow extra time.,,US-275 W,R,Valley,Douglas,NE,68064,US,US/Central,KFET,2020-09-21 13:55:00,80.0,80.0,44.0,28.87,10.0,S,9.0,0.0,Fair,False,False,False,False,False,False,False,False,False,False,False,False,False,Day,Day,Day,Day
C-5863477,3,2018-06-15 19:41:30,2018-06-19 21:22:01,32.780042,-97.061383,32.763779,-97.06381,1.13247808105,Between Green Oaks Blvd/North Carrier Pky and Avenue H E/E Lamar Blvd - Roadwork.,1961.0,N State Highway 360,L,Grand Prairie,Tarrant,TX,75050-1422,US,US/Central,KGPM,2018-06-15 19:50:00,93.2,,34.0,29.83,10.0,SE,6.9,,Clear,False,False,False,False,False,False,False,False,False,False,False,False,False,Day,Day,Day,Day
C-5863478,2,2019-02-06 08:02:59,2019-02-11 08:02:04,41.82031,-71.43738,41.81702,-71.4392,0.245877866937,Between Harris Ave and US-6/Westminster St - Construction work. Left lane blocked.,,RI-10 S,R,Providence,Providence,RI,02909,US,US/Eastern,KPVD,2019-02-07 07:51:00,36.0,28.5,97.0,30.12,1.2,NNE,10.4,0.02,Light Rain,False,False,False,False,False,False,False,False,False,False,False,False,False,Day,Day,Day,Day
C-5863479,2,2021-03-05 09:28:00,2021-03-05 13:45:00,40.823636,-73.342726,40.823508,-73.343308,0.0316888851789999,Construction on NORTHERN STATE PKWY WB near NY-231 Construction. Left lane closed.,,Northern State Pkwy W,R,Huntington Station,Suffolk,NY,11746,US,US/Eastern,KFRG,2021-03-05 09:53:00,29.0,20.0,32.0,29.79,10.0,NW,10.0,0.0,Fair,False,False,False,False,False,False,False,False,False,False,False,False,False,Day,Day,Day,Day
C-5863480,4,2021-04-26 00:00:00,2021-05-31 00:45:00,39.778502,-104.831535,39.780435,-104.830516,0.144101734591,Construction on N CHANDLER CT NB near E 46TH AVE Expect delays.,14251.0,E 46th Ave,L,Denver,Denver,CO,80239,US,US/Mountain,KBKF,2021-04-26 00:58:00,53.0,53.0,28.0,24.05,10.0,S,14.0,0.0,Fair,False,False,False,False,False,False,False,False,False,False,False,False,False,Night,Night,Night,Night
C-5863481,2,2021-11-05 22:46:30,2021-11-05 23:35:00,33.422031,-111.923723,33.422038,-111.926299,0.148553200543,Stationary traffic from S McClintock Dr (E University Dr) to S Rural Rd (E University Dr) due to roadwork.,971.0,E University Dr,R,Tempe,Maricopa,AZ,85281-4205,US,US/Mountain,KPHX,2021-11-05 22:51:00,72.0,72.0,30.0,28.75,10.0,E,3.0,0.0,Partly Cloudy,False,False,True,False,False,False,False,False,False,False,False,True,False,Night,Night,Night,Night
C-5863482,2,2018-06-15 11:00:00,2018-06-15 16:00:00,38.893314,-77.021927,,,0.3700000047680001,Intermittent lane closures due to crews filming on Pennsylvania Ave both ways between US-1 6th St and 7th St.,698.0,Pennsylvania Ave NW,R,Washington,District of Columbia,DC,20004,US,US/Eastern,KDCA,2018-06-15 10:52:00,80.1,,36.0,30.01,10.0,NNW,8.1,,Mostly Cloudy,False,False,True,False,False,False,False,False,False,False,False,True,False,Day,Day,Day,Day
C-5863484,4,2019-10-22 21:57:16,2019-10-27 21:56:25,33.6881,-117.88549,33.687529999999995,-117.88711,0.1011195247739999,Ramp closed to Bristol St - Closed due to roadwork.,,Bristol St,R,Costa Mesa,Orange,CA,92626,US,US/Pacific,KSNA,2019-10-22 21:53:00,74.0,74.0,43.0,29.9,10.0,CALM,0.0,0.0,Fair,False,False,True,False,False,False,False,False,False,False,False,False,False,Night,Night,Night,Night
C-5863485,2,2019-10-04 09:03:10,2019-10-08 09:02:29,39.22628,-76.69611,39.22731,-76.69521,0.0859363680176,At US-1-ALT/Washington Blvd - Construction work.,4863.0,Washington Blvd,L,Halethorpe,Baltimore County,MD,21227,US,US/Eastern,KBWI,2019-10-04 08:54:00,71.0,71.0,57.0,29.91,10.0,N,8.0,0.0,Fair,False,False,False,False,False,False,False,False,False,False,False,False,False,Day,Day,Day,Day
C-5863486,2,2021-05-24 10:38:42,2021-05-26 23:59:00,39.706188,-75.450185,39.708558,-75.445995,0.276438130279,Construction on I-295 northbound Exit 4 - NJ 48 (Carneys Point Twp) Not currently Scheduled,,I-295 N,R,Penns Grove,Salem,NJ,08069,US,US/Eastern,KILG,2021-05-24 10:51:00,65.0,65.0,52.0,30.2,10.0,E,13.0,0.0,Cloudy,False,False,False,False,False,False,False,False,False,False,False,False,False,Day,Day,Day,Day
C-5863487,2,2021-02-16 06:45:30,2021-02-16 19:37:34,25.776367,-80.140861,25.773805,-80.140468,0.17869819774,Stationary traffic on FL-907 from 6th St to 4th St due to roadwork.,654.0,Alton Rd,L,Miami Beach,Miami-Dade,FL,33139,US,US/Eastern,KMIA,2021-02-16 06:53:00,77.0,77.0,94.0,30.0,10.0,S,6.0,0.0,Mostly Cloudy,True,False,False,False,False,False,False,False,True,False,False,False,False,Night,Day,Day,Day
C-5863488,2,2021-11-14 16:19:00,2021-11-14 16:40:00,30.265648,-95.831081,30.2731,-95.832256,0.519636428222,Stationary traffic on FM-1774 from FM-1486 (FM-1774) to TX-105 (FM-1774) due to roadwork.,21337.0,FM 1774,R,Plantersville,Grimes,TX,77363,US,US/Central,KDWH,2021-11-14 15:53:00,76.0,76.0,54.0,29.92,10.0,SW,7.0,0.0,Mostly Cloudy,False,False,False,False,False,False,False,False,False,False,False,False,False,Day,Day,Day,Day
C-5863489,2,2020-11-02 13:47:30,2020-11-02 21:42:25,29.560907,-95.176141,29.557254,-95.180184,0.35035367712,Stationary traffic on TX-2351 from I-45/Gulf Fwy (Clear Lake City Blvd/TX-2351) to Beamer Rd (TX-2351) due to roadwork.,3670.0,FM 2351 Rd,L,Friendswood,Harris,TX,77546,US,US/Central,KLVJ,2020-11-02 13:53:00,72.0,72.0,21.0,30.36,10.0,N,6.0,0.0,Fair,False,False,False,False,False,False,False,False,False,False,False,False,False,Day,Day,Day,Day
C-5863490,2,2020-09-13 21:14:00,2020-09-13 22:56:00,40.347772,-120.903156,40.332252,-120.928576,1.7152461063100002,Stationary traffic on CA-36 from CA-44/Feather Lake Hwy (CA-36) to CR-A21/Mooney Rd (CA-36) due to roadwork.,,State Highway 36,R,Susanville,Lassen,CA,96130,US,US/Pacific,KRTS,2020-09-13 21:15:00,73.0,73.0,11.0,25.04,10.0,WNW,14.0,0.0,Fair,False,False,False,False,False,False,False,False,False,False,False,False,False,Night,Night,Night,Night
C-5863491,2,2021-09-30 07:51:30,2021-09-30 08:11:30,45.648197,-107.657173,45.66349,-107.657351,1.0566806322799998,Slow traffic on MT-313 - County Hwy-313 from Crow Street X Cutoff (MT-313) to CR-216C (MT-313) due to roadwork.,,State Highway 313,R,Crow Agency,Big Horn,MT,59022,US,US/Mountain,KM46,2021-09-30 07:53:00,40.0,35.0,73.0,27.51,10.0,SSE,7.0,0.0,Fair,False,False,False,False,False,False,False,False,False,False,False,False,False,Day,Day,Day,Day
C-5863492,3,2021-12-03 07:00:00,2021-12-03 15:00:00,41.683681,-69.96093,,,0.119999997318,Road closed due to construction work on MA-28 Old Harbor Rd Northbound from Main St to Dugans Pond Rd.,39.0,Old Harbor Rd,L,Chatham,Barnstable,MA,02633-2314,US,US/Eastern,KCQX,2021-12-03 06:52:00,43.0,38.0,58.0,29.59,10.0,W,9.0,0.0,Fair,False,False,False,False,False,False,False,False,False,False,False,False,False,Day,Day,Day,Day
C-5863493,2,2021-06-18 19:00:00,2021-06-19 06:00:00,32.069638,-81.198374,32.068988,-81.16659399999998,1.86126746883,Lane closed on I-16 E - GA-404 E from GA-307/Exit 160 (I-16) to Chatham Pkwy/Exit 162 (I-16) due to roadwork.,,GA-404 E,R,Savannah,Chatham,GA,31405,US,US/Eastern,KSVN,2021-06-18 18:56:00,83.0,83.0,68.0,29.99,10.0,ESE,8.0,0.0,Fair,False,False,False,False,False,False,False,False,False,False,False,False,False,Day,Day,Day,Day
C-5863494,2,2021-10-15 08:11:30,2021-10-16 01:59:38,28.854175,-97.451487,28.889587,-97.47724,2.90077172011,Roadwork on FM-884 (TX-119) from TX-72 (TX-119) to TX-119.,5699.0,State Highway 119,R,Yorktown,Goliad,TX,78164,US,US/Central,KVCT,2021-10-15 07:51:00,76.0,76.0,94.0,29.79,6.0,SSE,3.0,0.0,Partly Cloudy,False,False,False,False,False,False,False,False,False,False,False,False,False,Day,Day,Day,Day
C-5863495,2,2021-08-04 10:46:27,2021-09-21 15:30:55,40.700441,-73.950763,40.701589,-73.948747,0.132072135062,Stationary traffic from Marcy Ave to Harrison Ave due to roadwork.,304.0,Wallabout St,R,Brooklyn,Kings,NY,11206-4907,US,US/Eastern,KJRB,2021-09-21 14:51:00,75.0,,62.0,30.22,10.0,,,0.0,Partly Cloudy,False,False,False,False,False,False,False,False,False,False,False,True,False,Day,Day,Day,Day
C-5863496,2,2021-03-05 04:36:00,2021-03-05 05:26:30,28.465816,-99.013476,28.465851,-98.999967,0.8205419576549999,Stationary traffic on TX-97 from FM-624 (TX-97) to FM-469 (TX-97) due to roadwork.,,TX-97,R,Cotulla,La Salle,TX,78014,US,US/Central,KCOT,2021-03-05 04:21:00,63.0,63.0,90.0,29.42,4.0,ENE,7.0,0.0,Cloudy,False,False,False,False,False,False,False,False,False,False,False,False,False,Night,Night,Night,Night
C-5863497,3,2020-04-14 15:07:54,2020-04-16 15:22:54,42.54913,-70.93663000000002,42.54913,-70.93663000000002,0.0,At RT-114/Andover St/Exit 25 - Construction work.,,Endicott St,R,Danvers,Essex,MA,01923,US,US/Eastern,KBVY,2020-04-14 14:53:00,58.0,58.0,31.0,29.82,10.0,W,8.0,0.0,Fair,False,False,False,False,True,False,False,False,True,False,False,False,False,Day,Day,Day,Day
C-5863498,3,2019-09-28 07:02:57,2019-10-02 07:02:22,44.883084,-93.584028,44.891752,-93.58064,0.621441634858,At Highway 7 - Construction work. Lane blocked.,6701.0,Hazeltine Blvd,L,Excelsior,Carver,MN,55331-8039,US,US/Central,KFCM,2019-09-28 06:53:00,46.0,42.0,83.0,29.16,10.0,NNE,7.0,0.0,Fair,False,False,True,False,False,False,False,False,False,False,False,True,False,Night,Day,Day,Day
C-5863499,2,2021-06-18 09:05:46,2021-12-31 16:59:32,29.960634,-90.170409,29.960424,-90.170758,0.0254357069265999,Emergency Maintenance on US-90 Eastbound from Highway Dr to S Clearview Pkwy . Right Lane Closed. Starting 6/18/2021 11:05 AM,4211.0,Jefferson Hwy,R,New Orleans,Jefferson,LA,70121-1535,US,US/Pacific,KAUD,2021-06-18 08:55:00,79.0,79.0,88.0,29.94,6.0,ESE,12.0,0.0,Light Rain,True,False,False,False,False,False,False,False,False,False,False,False,False,Day,Day,Day,Day
C-5863500,2,2020-10-19 16:30:00,2020-11-13 23:30:00,33.414882,-111.896191,33.414741,-111.896189,0.00974285496481,APACHE BLVD and RIVER DR - Construction - APACHE BLVD is restricted Northbound between RIVER DR to PRICE RD to allow for utility work. APACHE BLVD is restricted 1 Lane Eastbound between RIVER DR to PRICE RD to allow for utility work. APACHE BLVD is restricted 2 Lanes Westbound between RIVER DR to PRICE RD to allow for utility work.,2098.0,E Apache Blvd,R,Tempe,Maricopa,AZ,85281-4849,US,US/Mountain,KPHX,2020-10-19 16:51:00,95.0,95.0,11.0,28.62,10.0,WNW,3.0,0.0,Fair,False,False,True,False,False,False,True,False,False,False,False,True,False,Day,Day,Day,Day
C-5863501,2,2021-02-05 13:19:00,2021-02-06 00:59:49,25.684137,-80.416422,25.685394,-80.417583,0.113000164654,Slow traffic on FL-825 - FL-94 from SW 96th St to SW 137th Ct due to roadwork.,8913.0,SW 137th Ave,L,Miami,Miami-Dade,FL,33186,US,US/Eastern,KTMB,2021-02-05 12:53:00,77.0,77.0,56.0,29.99,10.0,SSE,9.0,0.0,Mostly Cloudy,False,False,True,False,False,False,False,False,True,False,False,False,False,Day,Day,Day,Day
C-5863502,2,2021-06-10 19:24:30,2021-06-11 07:23:32,40.091398,-77.858531,40.089989,-77.850442,0.438513466704,Roadwork on Waters Dr (Pennsylvania Tpke/I-76) from PA-75/Exit 189 (I-76) to Pennsylvania Tpke E - I-76 E.,,I-76 E,R,Neelyton,Huntingdon,PA,17239,US,US/Eastern,KAOO,2021-06-10 19:39:00,72.0,72.0,81.0,28.39,10.0,ESE,6.0,0.01,Cloudy,False,False,False,False,False,False,False,False,False,False,False,False,False,Day,Day,Day,Day
C-5863503,2,2020-10-06 15:58:00,2020-10-06 21:17:34,29.696871,-95.153692,29.677801,-95.156342,1.32717804512,Slow traffic from TX-225 (Sam Houston Tollway) to Pasadena Blvd/Red Bluff Rd (Sam Houston Tollway) due to roadwork.,,E Sam Houston Tollway S,R,Pasadena,Harris,TX,77503,US,US/Central,KEFD,2020-10-06 15:50:00,82.0,82.0,39.0,29.94,10.0,N,6.0,,Fair,False,False,False,False,False,False,False,False,False,False,False,False,False,Day,Day,Day,Day
C-5863504,2,2020-11-30 11:30:00,2020-11-30 23:12:39,28.190416,-82.378165,28.193981,-82.383251,0.3957265245899999,Stationary traffic on FL-56 from CR-581/Bruce B Downs Blvd (FL-56) to I-75 (FL-56) due to roadwork.,2300.0,Willow Oak Dr,R,Wesley Chapel,Pasco,FL,33544-5604,US,US/Eastern,KVDF,2020-11-30 11:35:00,72.0,,69.0,29.91,10.0,,,0.0,Cloudy,False,False,False,False,False,False,False,False,False,False,False,False,False,Day,Day,Day,Day
C-5863505,2,2021-04-09 05:49:00,2021-04-09 16:13:25,26.681669,-80.24981899999999,26.681543,-80.245088,0.292202957612,Slow traffic on FL-80 - FL-700 - US-98 E - US-441 S from Big Blue Trl/F Rd (US-98) to Royal Palm Beach Blvd (US-98) due to roadwork.,12624.0,Southern Blvd,L,Wellington,Palm Beach,FL,33414,US,US/Eastern,KPBI,2021-04-09 05:53:00,65.0,65.0,81.0,29.98,10.0,N,3.0,0.0,Fair,False,False,False,False,False,False,False,False,False,False,False,False,False,Night,Night,Night,Day
C-5863506,3,2020-02-14 21:00:00,2020-02-15 05:00:00,32.924747,-96.786232,,,0.0,Two lanes closed due to construction during the night on Lyndon B Johnson Fwy Eastbound at Hillcrest Rd.,,LBJ Express,R,Dallas,Dallas,TX,75240,US,US/Central,KADS,2020-02-14 20:55:00,41.0,38.0,70.0,29.65,10.0,SSE,6.0,0.0,Fair,False,False,False,False,False,False,False,False,False,False,False,False,False,Night,Night,Night,Night
C-5863507,2,2019-09-19 18:00:00,2019-09-20 06:00:00,30.72295,-86.126869,,,0.0,Intermittent lane closures due to new road layout new traffic signals and maintenance work on 20th St Southbound from Wabash Ave to Baldwin Ave. Observe signals.,20.0,S 20th St,L,Defuniak Springs,Walton,FL,32435,US,US/Central,K54J,2019-09-19 17:53:00,89.0,89.0,40.0,29.84,10.0,ESE,7.0,0.0,Fair,False,False,True,False,False,False,True,False,False,False,False,False,False,Day,Day,Day,Day
C-5863508,2,2021-04-19 08:23:00,2021-04-19 09:38:00,45.614199,-118.65126399999998,45.59948,-118.638308,1.19433770285,Slow traffic on Old Oregon Trail Hwy No 6 - I-84 E - US-30 E - Old Oregon Trl from OR-331/Market Rd/Exit 216 (I-84) to Poverty Flat Rd/Exit 224 (I-84) due to roadwork.,,I-84 E,R,Pendleton,Umatilla,OR,97801,US,US/Pacific,KPDT,2021-04-19 08:53:00,48.0,44.0,48.0,28.72,10.0,N,9.0,0.0,Fair,False,False,False,False,False,False,False,False,False,False,False,False,False,Day,Day,Day,Day
C-5863509,2,2021-11-17 16:15:30,2021-11-17 20:07:03,38.972982,-94.667648,38.978489,-94.666994,0.382115644104,Stationary traffic from W 86th St to Travis Ln due to roadwork.,7098.0,W 86th St,R,Overland Park,Johnson,KS,66212-1110,US,US/Central,KOJC,2021-11-17 15:53:00,53.0,53.0,22.0,28.95,10.0,NNW,15.0,0.0,Fair,False,False,False,False,False,False,False,False,False,False,False,False,False,Day,Day,Day,Day
C-5863510,2,2017-04-03 15:18:36,2017-04-03 21:20:22,40.03883,-76.50761999999997,40.03833,-76.45859,2.59385393936,At Prospect Rd - Roadwork. Lane blocked.,,US-30 W,R,Columbia,Lancaster,PA,17512,US,US/Eastern,KLNS,2017-04-03 14:53:00,64.9,,50.0,29.94,10.0,SSE,17.3,,Overcast,False,False,False,False,False,False,False,False,False,False,False,False,False,Day,Day,Day,Day
C-5863511,2,2021-11-19 18:07:30,2021-11-19 18:28:00,47.619272,-122.355452,47.624575,-122.355401,0.366410101661,Slow traffic from Denny Way (1st Ave) to Mercer St (1st Ave) due to roadwork.,117.0,1st Ave N,L,Seattle,King,WA,98109-4902,US,US/Pacific,KBFI,2021-11-19 17:53:00,45.0,45.0,76.0,30.33,10.0,SSE,3.0,0.0,Mostly Cloudy,True,False,True,False,False,False,False,False,True,False,False,True,False,Night,Night,Night,Day
C-5863512,2,2021-12-20 07:40:00,2021-12-20 09:57:30,45.209544,-121.698957,45.228404,-121.700037,1.30416157004,Slow traffic on US-26 E - US-26 W from Oregon Skyline Rd (US-26) to OR-35/Mount Hood Hwy (US-26) due to roadwork.,,Warm Springs Hwy,R,Maupin,Wasco,OR,97037,US,US/Pacific,KDLS,2021-12-20 07:41:00,34.0,34.0,89.0,29.87,1.0,CALM,0.0,0.02,Light Snow,False,False,False,False,False,False,False,False,False,False,False,False,False,Day,Day,Day,Day
C-5863513,3,2019-03-26 10:42:56,2019-03-30 10:42:27,43.0477,-77.65162,43.015923,-77.48337099999998,8.776572038889999,Between I-390/Exit 46 and I-490/Exit 45 - Construction work. Right lane blocked.,,I-90 E,R,Henrietta,Monroe,NY,14467,US,US/Eastern,KROC,2019-03-26 10:54:00,34.0,27.2,35.0,30.46,10.0,NNE,8.1,,Partly Cloudy,False,False,False,False,False,False,False,False,False,False,False,False,False,Day,Day,Day,Day
C-5863514,2,2021-12-10 19:15:16,2021-12-10 21:23:10,25.684137,-80.416422,25.685394,-80.417583,0.113000164654,Slow traffic on FL-825 - FL-94 from SW 96th St to SW 137th Ct due to roadwork.,8913.0,SW 137th Ave,L,Miami,Miami-Dade,FL,33186,US,US/Eastern,KTMB,2021-12-10 18:53:00,74.0,74.0,82.0,30.09,10.0,E,6.0,0.0,Fair,False,False,True,False,False,False,False,False,True,False,False,False,False,Night,Night,Night,Night
C-5863515,2,2020-07-27 14:13:44,2020-10-04 05:13:48,40.089358,-98.725987,40.089218,-98.688627,1.9748491761,Construction on US-136 NB near WARRINER ST Expect long delays.,,Road 100,R,Inavale,Webster,NE,68952,US,US/Central,KHSI,2020-07-27 13:53:00,81.0,81.0,60.0,28.06,10.0,E,10.0,0.0,Fair,False,False,False,False,False,False,False,False,False,False,False,False,False,Day,Day,Day,Day
C-5863517,2,2021-04-14 04:04:00,2021-12-27 21:38:18,41.657916,-91.538921,41.658319,-91.542973,0.211014989164,Slow traffic on IA-1 from E Burlington St / S Capitol St to Byington Rd due to roadwork.,,Front St,R,Iowa City,Johnson,IA,52242,US,US/Central,KIOW,2021-12-14 11:52:00,47.0,43.0,66.0,29.45,10.0,ESE,8.0,0.0,Fair,False,False,True,False,False,False,True,False,False,False,False,False,False,Night,Night,Night,Night
C-5863518,2,2021-06-09 16:12:34,2021-12-22 10:27:00,41.539531,-87.539187,41.556091,-87.539377,1.14422920866,Slow traffic from 196th St to Otto St due to roadwork.,,Burnham Ave,R,Chicago Heights,Cook,IL,60411,US,US/Central,KIGQ,2021-09-30 16:15:00,77.0,77.0,47.0,29.47,10.0,NE,7.0,0.0,Fair,False,False,False,False,False,False,False,False,False,False,False,False,False,Day,Day,Day,Day
C-5863519,2,2020-12-30 14:38:30,2020-12-31 00:16:31,30.158122,-92.046732,30.156092,-92.047881,0.156155878415,Slow traffic on LA-3073 from Meadow Farm Rd to Creek Farm Rd due to roadwork.,2441.0,Kaliste Saloom Rd,R,Lafayette,Lafayette,LA,70508-6809,US,US/Central,KLFT,2020-12-30 14:53:00,72.0,72.0,71.0,29.89,10.0,SSE,16.0,0.0,Cloudy,False,False,False,False,False,False,False,False,False,False,False,False,False,Day,Day,Day,Day
C-5863520,2,2020-07-20 16:00:00,2020-10-15 23:00:00,35.678944,-78.82181899999998,35.678857,-78.81740400000002,0.247862443698,In Holly Springs / Both Directions. Intermittent lane closures for clearing along Sunset Lake Road,4257.0,Sunset Lake Rd,R,Holly Springs,Wake,NC,27540-3701,US,US/Eastern,KTTA,2020-07-20 15:55:00,94.0,94.0,51.0,29.69,10.0,SSW,7.0,0.0,Fair,False,False,False,False,False,False,False,False,False,False,False,False,False,Day,Day,Day,Day
C-5863521,2,2021-02-05 14:04:30,2021-02-05 17:56:35,34.441601,-86.94179,34.442588,-86.943179,0.104474015083,Slow traffic on AL-36 - US-31 N - AL-3 from US-31 to Rooks St NW due to roadwork.,699.0,Wiggins St SW,R,Hartselle,Morgan,AL,35640,US,US/Central,K3A1,2021-02-05 13:53:00,47.0,44.0,52.0,29.29,10.0,W,6.0,0.0,Mostly Cloudy,False,False,False,False,False,False,False,False,False,False,False,False,False,Day,Day,Day,Day
C-5863522,2,2021-11-10 15:16:10,2021-11-10 15:38:52,36.365658,-95.90869,36.36575,-95.919444,0.598358336298,Stationary traffic on OK-20 from N Sheridan Rd (E 146th St N/OK-20) to US-75 (E 146th St N/OK-20) due to roadwork.,14483.0,N 59th East Ave,R,Collinsville,Tulsa,OK,74021,US,US/Central,KTUL,2021-11-10 15:27:00,66.0,66.0,81.0,29.06,9.0,SSE,15.0,0.0,Light Rain,False,False,False,True,False,False,False,False,False,True,False,False,False,Day,Day,Day,Day
C-5863523,2,2019-09-17 08:00:00,2019-09-17 14:00:00,41.181648,-95.82353,41.201919,-95.82329,1.40064829416,At US-275/IA-92/Exit 47 - Roadwork.,,US-275 N,R,Council Bluffs,Pottawattamie,IA,51503,US,US/Central,KCBF,2019-09-17 07:55:00,72.0,72.0,100.0,28.66,7.0,SSE,10.0,0.0,Fair,False,False,False,False,False,False,False,False,False,False,False,False,False,Day,Day,Day,Day
C-5863524,2,2021-04-12 22:00:00,2021-04-14 07:45:00,40.845108,-73.918939,40.845865,-73.92949399999998,0.554157504279,NYSDOT - Region 11: Construction construction on I-95 southbound at Nelson Avenue (New York) 1 Right lane of 3 lanes closed until 7:00 A.M.,,Cross Bronx Expy W,R,Bronx,Bronx,NY,10452,US,US/Eastern,KLGA,2021-04-12 22:07:00,47.0,44.0,90.0,29.91,6.0,E,7.0,0.01,Light Rain,False,False,False,False,True,True,False,False,False,False,False,False,False,Night,Night,Night,Night
C-5863525,2,2021-09-23 18:14:30,2021-09-23 18:38:30,33.422034000000004,-111.924908,33.42264,-111.92629,0.0900261819279,Slow traffic from S Athletes Pl to E 6th St due to roadwork.,934.0,E University Dr,L,Tempe,Maricopa,AZ,85281-4276,US,US/Mountain,KPHX,2021-09-23 17:51:00,94.0,94.0,25.0,28.61,10.0,S,14.0,0.0,Partly Cloudy,False,False,False,False,False,False,False,False,True,False,False,False,False,Day,Day,Day,Day
C-5863526,2,2020-10-28 16:49:33,2020-10-28 17:58:30,36.012593,-100.261863,36.034723,-100.222703,2.66957071419,Slow traffic on US-60 from TX-305/FM-2758 (US-60) to TX-213/FM-1453/Main St (Commercial St/US-60) due to roadwork.,11909.0,US Highway 60,L,Canadian,Hemphill,TX,79014,US,US/Central,KHHF,2020-10-28 14:35:00,32.0,32.0,99.0,27.42,0.25,NW,3.0,0.01,Drizzle and Fog,False,False,False,False,False,False,False,False,False,False,False,False,False,Day,Day,Day,Day
C-5863527,4,2021-02-14 19:00:00,2021-02-15 12:00:00,30.500782,-91.021996,30.470692,-91.010856,2.18226646514,Bridge closure from Frenchtown Rd to S Choctaw Drive Ext.,,Frenchtown Rd,R,Greenwell Springs,East Baton Rouge,LA,70739,US,US/Central,KBTR,2021-02-14 18:53:00,31.0,23.0,89.0,29.98,9.0,N,8.0,0.0,Cloudy,False,False,False,False,False,False,False,False,False,False,False,False,False,Night,Night,Night,Day
C-5863528,2,2021-08-03 15:31:15,2021-08-03 16:52:30,42.730518,-86.148444,42.709228,-86.163934,1.66796245364,Slow traffic on US-31 S - I-196 W from US-31/Exit 44 (I-196) to CR-2/Blue Star Hwy/Exit 41 (I-196) due to roadwork.,,I-196 W,R,Holland,Allegan,MI,49423,US,US/Eastern,KBIV,2021-08-03 15:53:00,78.0,78.0,46.0,29.35,10.0,W,9.0,0.0,Fair,False,False,False,False,False,False,False,False,False,False,False,False,False,Day,Day,Day,Day
C-5863529,2,2021-11-06 17:55:30,2021-11-06 20:08:54,28.593083,-81.363702,28.592428,-81.365061,0.0940507655425,Slow traffic on FL-424A - US-92 E - FL-426 - US-17 N - US-92 W - US-17 S from Ward Ave to Gene St due to roadwork.,1070.0,W Fairbanks Ave,L,Winter Park,Orange,FL,32789-4754,US,US/Eastern,KORL,2021-11-06 17:53:00,57.0,57.0,87.0,29.81,10.0,WNW,15.0,0.0,Cloudy,False,False,False,False,False,False,False,False,False,False,False,False,False,Day,Day,Day,Day
C-5863530,2,2021-12-16 17:00:45,2021-12-16 17:26:46,25.685645,-80.409237,25.684322,-80.41662099999998,0.4687735627409999,Slow traffic on FL-825 - FL-94 from SW 132nd Pl to SW 90th St due to roadwork.,13235.0,SW 88th St,L,Miami,Miami-Dade,FL,33186-1748,US,US/Eastern,KTMB,2021-12-16 16:53:00,78.0,78.0,68.0,30.11,10.0,E,17.0,0.0,Fair,False,False,True,False,False,False,False,False,True,False,False,False,False,Day,Day,Day,Day
C-5863531,2,2021-11-01 17:55:30,2021-11-01 20:03:45,28.593086,-81.36200600000002,28.593725,-81.365094,0.192470889754,Slow traffic on FL-424A - US-92 E - FL-426 - US-17 N - US-92 W - US-17 S from S Denning Dr to W Comstock Ave due to roadwork.,989.0,W Fairbanks Ave,R,Winter Park,Orange,FL,32789-4718,US,US/Eastern,KORL,2021-11-01 17:53:00,76.0,76.0,58.0,29.96,10.0,NNE,8.0,0.0,Fair,True,False,True,False,False,False,False,False,False,False,False,False,False,Day,Day,Day,Day
C-5863533,2,2019-12-03 10:00:00,2019-12-04 17:00:00,44.09537,-116.94008999999998,44.08713,-116.93837,0.575692551065,Between Idaho/Oregon and 7th Ave N - Bridge maintenance work.,,ID-52,R,Payette,Payette,ID,83661,US,US/Mountain,KONO,2019-12-03 09:53:00,35.0,35.0,89.0,28.04,0.25,CALM,0.0,0.0,Fog,False,False,False,False,False,False,False,False,False,False,False,False,False,Day,Day,Day,Day
C-5863534,2,2021-12-22 14:33:30,2021-12-22 16:55:13,34.016289,-118.40488899999998,34.013328,-118.403246,0.225187466789,Slow traffic from Washington Blvd to Coombs Ave due to roadwork.,10701.0,Oregon Ave,R,Culver City,Los Angeles,CA,90232-3727,US,US/Pacific,KSMO,2021-12-22 14:51:00,59.0,59.0,60.0,29.82,10.0,CALM,0.0,0.0,Fair,False,False,True,False,False,False,False,False,True,True,False,False,False,Day,Day,Day,Day
C-5863535,2,2020-12-19 15:14:00,2020-12-19 17:36:37,34.421969,-118.584657,34.422243,-118.584327,0.0266862793849,BTWN MAGIC MT and RYE. BO CLOSURE PATTERN - ADVISED WORKERS TO MAKE CORRECTION,,Magic Mountain Pkwy,R,Valencia,Los Angeles,CA,91355,US,US/Pacific,K3A6,2020-12-19 14:51:00,73.0,73.0,16.0,29.33,10.0,SSE,8.0,0.0,Fair,False,False,True,False,False,False,False,False,False,False,True,True,False,Day,Day,Day,Day
C-5863536,3,2020-02-13 15:31:03,2020-02-17 16:41:45,42.15126,-88.25769,42.11434000000001,-88.18319,4.59120102966,Between IL-25/Elgin Rd/Haegers Bend Rd and IL-68/Dundee Rd - Roadwork.,,Algonquin Rd,R,Algonquin,Kane,IL,60102,US,US/Central,KDPA,2020-02-13 16:52:00,9.0,-8.0,59.0,29.44,10.0,NW,15.0,0.0,Fair,False,False,False,False,False,False,False,False,False,False,False,True,False,Day,Day,Day,Day
C-5863537,2,2019-08-17 07:15:55,2019-08-19 06:00:00,38.34586,-85.75404,38.345451,-85.76801,0.757544010097,Between I-65/Exit 7 and IN-311/Charlestown Rd/Exit 4 - Construction work. Left lane closed.,,I-65 N,R,Clarksville,Clark,IN,47129,US,US/Eastern,KLOU,2019-08-17 06:53:00,71.0,71.0,81.0,29.38,10.0,SSE,3.0,0.0,Fair,False,False,False,False,False,False,False,False,False,False,False,False,False,Day,Day,Day,Day
C-5863538,2,2021-03-24 05:13:00,2021-07-03 16:06:33,39.032769,-95.590857,39.033959,-95.598339,0.409892623763,Slow traffic on I-70 W from I-470/Kansas Tpke (I-70) to I-470/KS-4/Exit 366 (I-70) due to roadwork.,,I-70 W,R,Tecumseh,Shawnee,KS,66542,US,US/Central,KTOP,2021-03-24 05:30:00,45.0,38.0,86.0,28.77,8.0,W,15.0,0.0,Cloudy,False,False,False,False,True,False,False,False,False,False,False,False,False,Night,Night,Night,Night
C-5863539,2,2017-11-17 15:23:55,2017-11-17 21:23:55,40.85306,-73.96011,40.84992,-73.94408,0.8654082136560001,Between Hudson Ter/Palisades Pky and RT-9/US-9/Hudson Pky/178th St - Construction work. Left lane blocked.,,I-95 N,R,Fort Lee,Bergen,NJ,07024,US,US/Eastern,KTEB,2017-11-17 15:51:00,46.9,,29.0,30.07,10.0,NNW,11.5,,Smoke,False,False,False,False,True,False,False,False,False,False,False,False,False,Day,Day,Day,Day
C-5863540,2,2021-11-22 05:12:19,2021-12-23 12:00:00,43.076302,-86.209053,,,0.439999997616,One lane closed and traffic shift due to construction work on M-104 Savidge St Eastbound from US-31 to Savidge Ct.,101.0,Mill Point Dr,R,Spring Lake,Ottawa,MI,49456,US,US/Eastern,KMKG,2021-11-22 05:27:00,32.0,22.0,59.0,29.4,10.0,WNW,14.0,0.0,Cloudy,False,False,False,False,False,False,False,False,False,False,False,False,False,Night,Night,Night,Night
C-5863541,2,2020-06-21 05:30:15,2020-06-22 05:30:15,35.6527,-97.38949,35.65267,-97.40718,0.993170135428,At I-35/Shannon Miller Pky - Roadwork. Roadway reduced to 1 lane.,2.0,N Midwest Blvd,R,Edmond,Oklahoma,OK,73034-8471,US,US/Central,KGOK,2020-06-21 05:51:00,73.0,73.0,83.0,28.77,10.0,ENE,8.0,0.0,Thunder in the Vicinity,False,False,False,False,False,False,False,False,False,True,False,False,False,Night,Night,Day,Day
C-5863542,2,2018-02-16 22:01:43,2018-02-17 04:01:43,40.85306,-73.96011,40.84992,-73.94408,0.8654082136560001,Between Hudson Ter/Palisades Pky and RT-9/US-9/Hudson Pky/178th St - Construction work. Roadway reduced to 2 lanes.,,I-95 N,R,Fort Lee,Bergen,NJ,07024,US,US/Eastern,KTEB,2018-02-16 21:51:00,37.9,28.5,51.0,30.09,10.0,NW,17.3,,Clear,False,False,False,False,True,False,False,False,False,False,False,False,False,Night,Night,Night,Night
C-5863543,2,2021-04-26 09:00:06,2021-04-26 19:04:43,30.282085,-81.98362900000002,30.288102,-81.982446,0.42168420878,Slow traffic on US-301 N - FL-200 from US-301 to I-10 E due to roadwork.,1243.0,US Highway 301 S,L,Jacksonville,Duval,FL,32234-3609,US,US/Eastern,KVQQ,2021-04-26 08:50:00,66.0,66.0,83.0,29.98,10.0,NNE,7.0,0.0,Fair,False,False,False,False,False,False,False,False,False,False,False,False,False,Day,Day,Day,Day
C-5863544,4,2020-06-01 00:22:05,2020-06-01 05:00:00,41.46699,-73.82125,41.33077,-73.81783,9.41357456728,Closed between RT-301 and US-6/Inspiration Rd - Closed due to roadwork.,,Taconic State Pkwy,R,Carmel,Putnam,NY,10512,US,US/Eastern,KDXR,2020-06-01 00:53:00,45.0,45.0,68.0,29.71,10.0,WSW,3.0,0.0,Fair,False,False,False,False,True,False,False,False,False,True,False,False,False,Night,Night,Night,Night
C-5863545,2,2021-10-19 14:36:32,2021-10-19 14:57:30,25.939729,-80.279459,25.939501,-80.289019,0.594196912175,Slow traffic on FL-860 from FL-847/47th Ave (FL-860) to FL-823/57th Ave/Red Rd (FL-860) due to roadwork.,,FL-860,R,Opa Locka,Miami-Dade,FL,33055,US,US/Eastern,KOPF,2021-10-19 14:53:00,84.0,84.0,44.0,30.07,10.0,ENE,15.0,0.0,Mostly Cloudy,False,False,False,False,False,False,False,False,True,False,False,False,False,Day,Day,Day,Day
C-5863547,2,2021-11-19 15:28:23,2021-11-19 15:55:40,26.275224,-80.11513199999997,26.275145,-80.119412,0.265221717379,Stationary traffic on FL-834 from FL-811/Dixie Hwy (FL-834) to 3rd Ave (FL-834) due to roadwork.,617.0,E Sample Rd,L,Pompano Beach,Broward,FL,33064-4427,US,US/Eastern,KPMP,2021-11-19 15:53:00,77.0,77.0,79.0,30.01,8.0,NE,16.0,0.0,Light Rain,False,False,False,False,False,False,False,False,False,False,False,True,False,Day,Day,Day,Day
C-5863548,3,2020-02-06 07:01:36,2020-02-10 07:01:32,33.19388,-117.23434,33.2024,-117.2439,0.807490712313,At CR-S13/Vista Village Dr - Construction work.,,S Santa Fe Ave,R,Vista,San Diego,CA,92083,US,US/Pacific,KCRQ,2020-02-06 06:53:00,45.0,45.0,46.0,29.79,10.0,E,3.0,0.0,Fair,False,False,True,False,False,False,False,False,True,False,False,True,False,Day,Day,Day,Day
C-5863549,2,2020-07-13 06:10:30,2020-07-20 08:45:00,33.475973,-112.289896,33.482605,-112.28996200000002,0.458243344137,Construction on 107TH AVE near WINDSOR AVE Drive with caution.,2848.0,N 107th Ave,L,Avondale,Maricopa,AZ,85392-4903,US,US/Mountain,KGEU,,,,,,,,,,,False,False,True,False,False,False,False,False,False,True,False,False,False,Day,Day,Day,Day
C-5863550,2,2021-12-13 13:40:30,2021-12-13 15:42:33,27.841542,-82.685475,27.839578000000003,-82.684097,0.159694485106,Stationary traffic on US-19 S from CR-611/49th St (US-19) to FL-694/Gandy Blvd/Park Blvd (US-19) due to roadwork.,7598.0,US Highway 19 N,L,Pinellas Park,Pinellas,FL,33781-2746,US,US/Eastern,KPIE,2021-12-13 13:53:00,80.0,80.0,62.0,30.24,10.0,NNE,3.0,0.0,Fair,False,False,True,False,False,False,False,False,False,False,False,True,False,Day,Day,Day,Day
C-5863551,2,2021-09-20 15:25:30,2021-09-20 17:27:44,25.749454,-80.335813,25.747587,-80.335122,0.135976457128,Slow traffic on County Hwy-913 - FL-973 - FL-972 from SW 21st Ter to SW 84th Ave due to roadwork.,2214.0,SW 87th Ave,R,Miami,Miami-Dade,FL,33165-2090,US,US/Eastern,KMIA,2021-09-20 15:15:00,86.0,86.0,70.0,29.98,10.0,ESE,9.0,0.0,Thunder in the Vicinity,False,False,True,False,False,False,False,False,True,False,False,False,False,Day,Day,Day,Day
C-5863552,2,2019-02-22 04:48:36,2019-04-22 05:17:00,45.149212,-122.650673,,,28.9699993134,Restrictions due to construction work on OR-211 both ways between OR-99E and Dryland Rd.,,Woodburn-Estacada Hwy,R,Canby,Clackamas,OR,97013,US,US/Pacific,KUAO,2019-02-22 04:53:00,30.0,,92.0,30.15,10.0,Calm,,,Clear,False,False,False,False,False,False,False,False,False,False,False,False,False,Night,Night,Night,Night
C-5863553,2,2021-07-22 08:56:30,2021-07-22 10:57:39,29.690756,-98.452445,29.694426,-98.451929,0.25545721273,Stationary traffic on US-281 N from Stone Oak Pkwy (US-281) to E Borgfeld Dr (US-281) due to roadwork.,26384.0,US Highway 281 N,L,San Antonio,Bexar,TX,78258,US,US/Central,KSAT,2021-07-22 08:51:00,76.0,76.0,85.0,29.28,10.0,SE,7.0,0.0,Partly Cloudy,False,False,False,False,False,False,False,False,False,False,False,False,False,Day,Day,Day,Day
C-5863554,2,2021-12-28 17:07:00,2021-12-28 19:18:02,29.528926,-95.808154,29.532041,-95.808155,0.2152260102919999,Stationary traffic on TX-36 from FM-2218 Rd (TX-36) to US-59/Southwest Fwy (1st St/TX-36) due to roadwork.,3547.0,1st St,R,Rosenberg,Fort Bend,TX,77471-9155,US,US/Central,KSGR,2021-12-28 16:53:00,80.0,80.0,62.0,29.59,10.0,S,13.0,0.0,Cloudy,False,False,False,False,False,False,False,False,False,False,False,False,False,Day,Day,Day,Day
C-5863555,2,2020-09-03 16:00:00,2020-09-04 16:49:09,40.249355,-76.81286899999998,40.24226,-76.805267,0.6332798496509999,Construction on I-283 SB near I-83 Allow extra time.,,I-283 S,R,Harrisburg,Dauphin,PA,17111,US,US/Eastern,KCXY,2020-09-03 15:56:00,77.0,77.0,79.0,29.38,10.0,E,6.0,0.11,Light Rain,False,False,False,False,False,False,False,False,False,False,False,False,False,Day,Day,Day,Day
C-5863556,2,2021-08-07 11:34:44,2021-08-07 12:00:57,41.126093,-73.79172700000002,41.122492,-73.783221,0.507836510821,Slow traffic on Saw Mill River Pkwy S - Saw Mill River Pkwy from Bedford Rd/Exit 28 (Saw Mill River Pkwy) to Taconic State Pkwy/Exit 26 (Saw Mill River Pkwy) due to roadwork.,,Saw Mill River Pkwy,R,Pleasantville,Westchester,NY,10570,US,US/Eastern,KHPN,2021-08-07 11:56:00,81.0,81.0,49.0,29.6,10.0,VAR,6.0,0.0,Fair,False,False,False,False,False,False,False,False,False,False,False,False,False,Day,Day,Day,Day
C-5863557,2,2019-07-26 21:02:47,2019-07-30 21:02:39,42.768102,-71.07642,42.8024,-71.09543000000002,2.55832131641,Between Elm St and I-495 - Roadwork.,240.0,S Main St,L,Haverhill,Essex,MA,01835-7366,US,US/Eastern,KLWM,2019-07-26 20:54:00,73.0,73.0,73.0,30.11,10.0,ESE,6.0,0.0,Fair,False,False,False,False,False,False,False,False,False,False,False,True,False,Night,Night,Day,Day
C-5863558,2,2021-11-10 12:13:30,2021-11-10 14:14:44,29.734296,-95.409671,29.735105,-95.41067,0.0819557757728,Slow traffic from McDuffie St to Colquitt St due to roadwork.,2066.0,Richmond Ave,R,Houston,Harris,TX,77098-3424,US,US/Central,KMCJ,2021-11-10 11:53:00,81.0,81.0,54.0,29.92,10.0,SSE,14.0,0.0,Partly Cloudy,False,False,False,False,False,False,False,False,False,False,False,False,False,Day,Day,Day,Day
C-5863559,2,2021-07-19 02:46:35,2021-07-20 01:01:33,42.60579,-114.245418,42.60565,-114.213531,1.6216357100999998,Roadwork on S 1400 E from Lewiston St to ID-25.,2038.0,Highway 25,R,Eden,Jerome,ID,83325-5110,US,US/Mountain,KJER,2021-07-19 02:53:00,79.0,79.0,34.0,25.99,10.0,CALM,0.0,0.0,Fair,False,False,False,False,False,False,False,False,False,False,False,False,False,Night,Night,Night,Night
C-5863560,4,2021-05-18 19:40:38,2021-05-25 23:59:00,30.34577100000001,-97.555471,30.346607,-97.555262,0.0590911302933,Closed road from E Rector St to US Highway 290 E due to roadwork.,698.0,N Burnet St,L,Manor,Travis,TX,78653,US,US/Central,KEDC,2021-05-18 19:35:00,68.0,68.0,94.0,29.1,8.0,E,6.0,0.0,Cloudy,False,False,False,False,False,False,False,False,False,False,False,False,False,Day,Day,Day,Day
C-5863561,2,2021-10-04 15:49:47,2021-10-04 17:52:29,44.997454,-93.281541,45.0,-93.28175,0.1762079641599999,Slow traffic on County Hwy-152 from I-394/3rd Ave (Washington Ave/MN-152) to CR-153/Lowry Ave (Washington Ave/MN-152) due to roadwork.,1800.0,Washington Ave N,L,Minneapolis,Hennepin,MN,55411-3426,US,US/Central,KMIC,2021-10-04 15:53:00,72.0,,49.0,29.17,10.0,,,0.0,Fair,False,False,False,False,False,False,False,False,False,False,False,False,False,Day,Day,Day,Day
C-5863562,2,2020-10-15 14:44:00,2020-10-16 01:36:55,33.318767,-111.91109,33.320864,-111.911097,0.1448894644559999,Queuing traffic from W Chandler Blvd (N McClintock Dr) to E Warner Rd (S McClintock Dr) due to roadwork.,889.0,N McClintock Dr,R,Chandler,Maricopa,AZ,85226-2241,US,US/Mountain,KCHD,2020-10-15 14:47:00,93.0,93.0,11.0,28.58,10.0,WSW,8.0,,Fair,False,False,False,False,False,False,False,False,False,False,False,False,False,Day,Day,Day,Day
C-5863563,4,2019-04-17 23:00:00,2019-04-18 05:00:00,33.705219,-117.954407,,,1.70000004768,Road closed due to bridge maintenance work on I-405 Southbound between Warner Ave and Brookhurst St.,,Brookhurst St,R,Fountain Valley,Orange,CA,92708,US,US/Pacific,KSNA,2019-04-17 22:53:00,64.0,64.0,56.0,30.03,10.0,CALM,0.0,0.0,Partly Cloudy,False,False,False,False,False,False,False,False,False,False,False,False,False,Night,Night,Night,Night
C-5863564,2,2021-08-10 07:00:00,2021-08-11 16:15:00,39.859954,-85.14433199999998,39.854224,-85.144412,0.395928031417,Construction on IN-1 SB near FRANK MYERS RD Allow extra time.,2288.0,N State Road 1,L,Cambridge City,Wayne,IN,47327-9438,US,US/Eastern,KAID,2021-08-10 06:55:00,74.0,74.0,84.0,29.0,10.0,SSW,9.0,0.0,Thunder in the Vicinity,False,False,False,False,False,False,False,False,False,False,False,False,False,Day,Day,Day,Day
C-5863565,3,2019-09-24 04:03:41,2019-09-24 05:43:59,40.746391,-73.974686,,,2.21000003815,Left lane closed due to construction work on I-495 \tQueens Midtown Tunnel Westbound from Borden Ave to 37th St.,672.0,2nd Ave,L,New York,New York,NY,10016-4272,US,US/Eastern,KNYC,2019-09-24 03:51:00,68.0,68.0,76.0,29.62,10.0,W,8.0,0.0,Fair,False,False,True,False,False,False,False,False,True,False,False,False,False,Night,Night,Night,Night
C-5863567,4,2021-01-29 08:00:00,2021-01-29 12:00:00,38.86665,-77.30845699999998,38.864762,-77.307735,0.136108267659,On I-66E on the ramp to VA-123 in the County of Fairfax motorists can expect potential delays in this area from 01/29/21 at 12:00 AM until 01/29/21 at 4:00 AM due to construction activities. All east lanes are closed.,,Chain Bridge Rd,R,Fairfax,Fairfax County,VA,22030,US,US/Eastern,KIAD,2021-01-29 07:52:00,23.0,10.0,50.0,29.97,10.0,WNW,15.0,0.0,Fair,False,False,False,False,False,False,False,False,False,False,False,True,False,Day,Day,Day,Day
C-5863568,2,2021-09-23 12:26:30,2021-09-23 12:47:00,40.69903,-73.938912,40.700738,-73.941956,0.198372044824,Slow traffic from Myrtle Ave (Broadway) to Flushing Ave (Broadway) due to roadwork.,844.0,Broadway,R,Brooklyn,Kings,NY,11206-7305,US,US/Eastern,KJRB,2021-09-23 12:29:00,78.0,,74.0,29.83,10.0,,,0.0,Cloudy,False,False,False,False,False,False,True,False,True,False,False,False,False,Day,Day,Day,Day
C-5863569,2,2021-05-27 15:24:36,2021-05-27 17:59:40,41.703418,-87.788741,41.737133,-87.8234,2.93621500996,Slow traffic on Tri State Tollway N - I-294 N from IL-50/Cicero Ave (I-294) to 82nd/83rd St Toll Plaza (I-294) due to roadwork.,,I-294 N,R,Chicago Ridge,Cook,IL,60415,US,US/Central,KMDW,2021-05-27 15:53:00,51.0,51.0,77.0,29.32,6.0,NE,22.0,0.04,Light Rain / Windy,False,False,False,False,False,False,False,False,False,False,False,False,False,Day,Day,Day,Day
C-5863570,2,2021-06-29 10:32:31,2021-06-29 12:34:51,28.811152000000003,-81.363035,28.81196,-81.36416,0.0880646749873999,Slow traffic on FL-46 from Wayside Dr to N Center Rd due to roadwork.,157.0,Orange Blvd,L,Sanford,Seminole,FL,32771,US,US/Eastern,KSFB,2021-06-29 10:53:00,85.0,85.0,67.0,30.12,10.0,ESE,10.0,0.03,Fair,False,False,False,False,False,False,False,False,False,False,False,False,False,Day,Day,Day,Day
C-5863571,2,2017-07-23 07:00:00,2017-08-05 19:01:00,38.956425,-104.727348,,,10.3199996948,Intermittent lane closures due to paving repairs and maintenance work on Research Pkwy both ways from Chapel Hills Dr to CO-21 Powers Blvd.,,Research Pkwy,R,Colorado Springs,El Paso,CO,80920,US,US/Mountain,KAFF,2017-07-23 06:58:00,54.5,,87.0,30.06,10.0,North,6.9,,Clear,False,False,True,False,False,False,False,False,False,False,False,True,False,Day,Day,Day,Day
C-5863572,2,2021-07-03 13:18:00,2021-07-03 16:00:38,39.776842,-104.940511,39.779964,-104.940518,0.2157099760800001,Stationary traffic on US-85 N - CO-2 - US-6 E from CO-33/E 40th Ave (Colorado Blvd/CO-2) to I-70 (Colorado Blvd/CO-2) due to roadwork.,,N Colorado Blvd,R,Denver,Denver,CO,80216,US,US/Mountain,KBJC,2021-07-03 12:45:00,86.0,86.0,29.0,24.46,10.0,CALM,0.0,0.0,Partly Cloudy,False,False,False,False,False,False,False,False,False,False,False,False,False,Day,Day,Day,Day
C-5863573,4,2021-05-16 20:00:00,2021-05-29 05:45:00,36.777302,-76.248368,36.778382,-76.245708,0.165040625739,Construction on I-64 WB near MM 292 Use alternate exit ramp.,,I-64 W,R,Chesapeake,Chesapeake,VA,23320,US,US/Eastern,KCPK,2021-05-16 19:55:00,64.0,64.0,64.0,30.22,7.0,E,5.0,0.0,Cloudy,False,False,False,False,True,False,False,False,False,False,False,False,False,Day,Day,Day,Day
C-5863574,2,2021-11-14 12:40:00,2021-11-14 14:45:41,39.763718,-86.339596,39.763699,-86.33254000000002,0.374755907691,Slow traffic on US-36 E - US-36 W from IN-267 (US-36) to Raceway Rd (Rockville Rd/US-36) due to roadwork.,10342.0,E US Highway 36,L,Avon,Hendricks,IN,46123-7050,US,US/Eastern,KIND,2021-11-14 12:54:00,37.0,27.0,93.0,28.9,9.0,W,17.0,0.0,Cloudy,False,False,False,False,False,False,False,False,False,False,False,False,False,Day,Day,Day,Day
C-5863575,2,2021-02-09 14:09:10,2021-02-10 01:01:44,25.883551,-80.21345500000002,25.883047,-80.210559,0.183359192239,Stationary traffic on FL-924 - US-441 S from NW 10th Ave to NW 121st St due to roadwork.,886.0,NW 119th St,L,Miami,Miami-Dade,FL,33168-2339,US,US/Eastern,KOPF,2021-02-09 13:53:00,81.0,81.0,65.0,30.09,10.0,SSE,9.0,0.0,Partly Cloudy,False,False,False,False,False,False,False,False,False,False,False,False,False,Day,Day,Day,Day
C-5863576,2,2016-09-29 10:52:06,2016-09-29 15:45:00,42.034641,-94.455493,42.03442,-94.261714,9.94446590913,Between IA-25/CR-N65/E Ave and IA-144 - Slow moving maintenance vehicle.,998.0,220th St,R,Jefferson,Greene,IA,50129,US,US/Central,KPRO,2016-09-29 10:55:00,61.0,,79.0,30.42,10.0,North,8.1,,Clear,False,False,False,False,False,False,False,False,False,False,False,False,False,Day,Day,Day,Day
C-5863577,2,2021-05-30 16:43:30,2021-05-30 17:09:30,39.763758,-105.002374,39.7494,-105.017644,1.2814146844299998,Slow traffic on US-85 S - I-25 S - US-87 S - US-6 W from Park Ave/Exit 213 (I-25) to W 23rd Ave/Exit 211 (I-25) due to roadwork.,,I-25 S,R,Denver,Denver,CO,80202,US,US/Mountain,KBJC,2021-05-30 16:47:00,48.0,43.0,100.0,24.6,4.0,W,12.0,0.0,Light Rain,False,False,False,False,True,False,False,False,False,False,False,False,False,Day,Day,Day,Day
C-5863578,3,2019-11-06 19:00:00,2019-11-07 07:00:00,32.953018,-83.812531,,,0.0,Intermittent lane closures due to construction work on I-475 Southbound at Exit 15 I-75 Exit 177.,,GA-408 S,R,Macon,Monroe,GA,31210,US,US/Eastern,KMCN,2019-11-06 18:53:00,59.0,59.0,78.0,29.89,10.0,CALM,0.0,0.0,Fair,False,False,False,False,False,False,False,False,False,False,False,False,False,Night,Night,Night,Day
C-5863579,2,2021-05-07 05:13:30,2021-05-07 17:22:42,28.81170800000001,-81.32803100000002,28.811417,-81.33725600000002,0.5588461361029999,Slow traffic on FL-46 from CR-15/Monroe Rd/Upsala Rd (FL-46) to I-4 (FL-46) due to roadwork.,4370.0,W State Road 46,L,Sanford,Seminole,FL,32771-9005,US,US/Eastern,KSFB,2021-05-07 05:13:00,71.0,71.0,90.0,29.92,10.0,NW,10.0,0.0,Mostly Cloudy,False,False,False,False,False,False,False,False,False,False,False,True,False,Night,Night,Night,Day
C-5863580,2,2019-08-04 21:01:40,2021-08-01 07:00:00,25.78489,-80.32088,25.802986,-80.32096999999997,1.25032705573,Between NW 14th St and NW 31st St - Construction work.,,Palmetto Expy N,R,Miami,Miami-Dade,FL,33126,US,US/Eastern,KMIA,2019-08-04 20:53:00,82.0,82.0,79.0,30.02,10.0,CALM,0.0,0.0,Cloudy,False,False,False,False,False,False,False,False,False,False,False,False,False,Night,Night,Night,Day
C-5863581,3,2019-11-11 21:00:00,2019-11-12 05:00:00,40.439575,-80.00919300000002,,,7.130000114439999,Intermittent lane closures due to construction during the night on I-376 Westbound between Exit 74 Beechwood Blvd and Exits 70C 70D 71A 71B Fort Pitt Blvd.,,Fort Pitt Brg,R,Pittsburgh,Allegheny,PA,15222,US,US/Eastern,KAGC,2019-11-11 20:53:00,46.0,40.0,76.0,28.46,7.0,NNW,15.0,0.0,Cloudy,False,False,False,False,False,False,False,False,False,False,False,False,False,Night,Night,Night,Night
C-5863582,2,2021-12-27 10:14:30,2021-12-27 10:36:30,44.428528,-121.720758,44.416918,-121.700148,1.29530832207,Stationary traffic on US-20 W - US-20 E - OR-126 from NFD-2076 (US-20) to Nfd-11 (US-20) due to roadwork.,,Highway 20,R,Camp Sherman,Jefferson,OR,97730,US,US/Pacific,KRDM,2021-12-27 09:56:00,24.0,24.0,71.0,26.47,10.0,CALM,0.0,0.0,Cloudy,False,False,False,False,False,False,False,False,False,False,False,False,False,Day,Day,Day,Day
C-5863583,4,2018-07-24 16:16:30,2018-07-24 21:14:06,40.887136,-82.191008,40.866078,-82.244265,3.13976888709,At US-250/Exit 186 - Roadwork.,,I-71 S,R,Polk,Ashland,OH,44866,US,US/Eastern,KMFD,2018-07-24 15:52:00,79.0,,69.0,29.95,10.0,Variable,4.6,,Overcast,False,False,False,False,False,False,False,False,False,False,False,False,False,Day,Day,Day,Day
C-5863584,2,2020-09-08 15:45:30,2020-09-08 17:47:00,33.717201,-85.02067199999998,33.721931,-84.945922,4.3082554574900005,Slow traffic on I-20 from GA-113/Exit 19 (I-20) to GA-61/GA-101/Exit 24 (I-20) due to roadwork.,,GA-402 E,R,Temple,Carroll,GA,30179,US,US/Eastern,KCTJ,2020-09-08 15:55:00,82.0,82.0,48.0,28.68,10.0,E,7.0,0.0,Partly Cloudy,False,False,False,False,True,False,False,False,False,False,False,False,False,Day,Day,Day,Day
C-5863585,2,2020-09-29 12:58:00,2020-09-30 02:58:19,30.246669,-90.921276,30.246893,-90.920842,0.0301756107623,Queuing traffic on LA-44 - US-61 S from Airline Hwy to E Bayou Narcisse St due to roadwork.,1699.0,N Airline Hwy,L,Gonzales,Ascension,LA,70737-2101,US,US/Central,KL38,2020-09-29 12:53:00,75.0,75.0,37.0,30.0,10.0,NW,12.0,0.0,Fair,False,False,False,False,False,False,False,False,False,False,False,False,False,Day,Day,Day,Day
C-5863586,2,2021-02-16 09:33:30,2021-02-16 15:15:00,40.827679,-73.930966,40.880068,-73.902206,3.91938285508,Pothole repairs on I-87 Major Deegan Expressway northbound between Macombs Dam Bridge (New York) and West 231st Street; Ramp (New York) 1 Center lane of 3 lanes closed until 2:30 P.M.,,Major Deegan Expy N,R,Bronx,Bronx,NY,10451,US,US/Eastern,KLGA,2021-02-16 09:32:00,41.0,41.0,93.0,29.54,3.0,ESE,3.0,0.0,Mostly Cloudy,False,False,False,False,True,False,False,False,False,False,False,False,False,Day,Day,Day,Day
C-5863587,3,2017-06-19 09:30:00,2017-06-19 14:30:00,42.341454,-71.263283,,,1.25,Exit ramp from I-95 Northbound to I-90 Westbound lane closed due to maintenance work.,,MA-128 S,R,Weston,Middlesex,MA,02493,US,US/Eastern,KBED,2017-06-19 09:56:00,78.1,,74.0,29.87,10.0,SSW,15.0,,Overcast,False,False,False,False,False,False,False,False,False,False,False,False,False,Day,Day,Day,Day
C-5863588,2,2020-01-03 04:37:31,2020-06-30 05:00:00,42.964489,-85.66922,,,0.0,Road closed due to construction work on Louis St both ways from US-131-BR Division Ave to Ionia Ave.,46.0,Ionia Ave NW,R,Grand Rapids,Kent,MI,49503-3012,US,US/Eastern,KGRR,2020-01-03 04:53:00,34.0,34.0,92.0,28.73,3.0,W,3.0,0.0,Fair,True,False,True,False,False,False,False,False,False,False,False,True,False,Night,Night,Night,Night
C-5863589,2,2021-03-27 07:52:00,2021-03-27 20:05:30,32.883427000000005,-87.232015,32.891877,-87.24806600000002,1.09916233925,Slow traffic on AL-25 from AL-5 (Brent) (AL-25) to CR-732 (AL-25) due to roadwork.,717.0,Payne Lake Rd,R,Brent,Bibb,AL,35034,US,US/Central,KEET,2021-03-27 07:53:00,71.0,71.0,90.0,29.46,8.0,S,9.0,0.0,Cloudy,False,False,False,False,False,False,False,False,False,False,False,False,False,Day,Day,Day,Day
C-5863590,3,2019-11-07 08:00:00,2019-11-08 15:00:00,42.677109,-88.52239200000002,,,1.37999999523,Exit ramp from I-43 Southbound at Exits 27A 27B to US-12 Westbound closed due to maintenance work.,,US-12 W,R,Elkhorn,Walworth,WI,53121,US,US/Central,KBUU,2019-11-07 07:55:00,14.0,14.0,80.0,29.61,10.0,CALM,0.0,0.0,Fair,False,False,False,False,False,False,False,False,False,False,False,False,False,Day,Day,Day,Day
C-5863591,2,2021-11-16 15:43:30,2021-11-16 17:55:34,27.843867,-82.381563,27.849778000000004,-82.38126199999998,0.408824973296,Stationary traffic on FL-45 - US-41 N from Cliff Ave to Gibsonton Dr due to roadwork.,10886.0,S US Highway 41,R,Gibsonton,Hillsborough,FL,33534-4708,US,US/Eastern,KTPF,2021-11-16 15:35:00,79.0,79.0,44.0,30.15,10.0,E,7.0,0.0,Fair,False,False,True,False,False,False,True,False,False,False,False,False,False,Day,Day,Day,Day
C-5863592,2,2021-04-12 14:54:26,2021-10-30 21:46:44,40.76162,-73.822067,40.760461,-73.82652900000002,0.246863838112,Stationary traffic from Parsons Blvd (Roosevelt Ave) to Grand Central Pkwy/114th St (Roosevelt Ave) due to roadwork.,3842.0,Parsons Blvd,R,Flushing,Queens,NY,11354-5832,US,US/Eastern,KLGA,2021-04-12 14:51:00,51.0,51.0,61.0,29.76,10.0,NE,6.0,0.0,Cloudy,True,False,True,False,False,False,False,False,True,False,False,True,False,Day,Day,Day,Day
C-5863593,4,2021-05-04 20:40:09,2021-05-11 23:59:00,35.798748,-78.58943599999998,35.800035,-78.591265,0.135693992401,Closed road from New Bern Ave (Yonkers Rd) to I-440 (Yonkers Rd) due to roadwork.,3204.0,Yonkers Rd,R,Raleigh,Wake,NC,27604-3654,US,US/Eastern,KRDU,2021-05-04 20:51:00,68.0,68.0,93.0,29.34,10.0,S,8.0,0.0,Cloudy,False,False,False,False,False,False,False,False,False,False,False,False,False,Night,Night,Day,Day
C-5863594,3,2021-06-21 20:30:00,2021-06-22 06:00:00,38.871868,-77.045097,,,0.0,Single alternate line traffic due to construction on I-395 Southbound at George Washington Memorial Pkwy .,,Henry Shirley Memorial Hwy N,R,Arlington,Arlington,VA,22202,US,US/Eastern,KDCA,2021-06-21 20:52:00,80.0,80.0,74.0,29.66,10.0,E,3.0,0.0,Mostly Cloudy,False,False,False,False,False,False,False,False,False,False,False,False,False,Day,Day,Day,Day
C-5863595,2,2021-06-09 07:42:30,2021-09-18 15:09:00,39.113451,-94.590067,39.106956,-94.590984,0.451446601503,Slow traffic on US-169 S from N Richards Rd to I-70 E due to roadwork.,,N Broadway Fwy S,R,Kansas City,Clay,MO,64116,US,US/Central,KMKC,2021-06-09 07:54:00,75.0,75.0,82.0,29.19,10.0,CALM,0.0,0.0,Fair,False,False,False,False,False,False,False,False,False,False,False,False,False,Day,Day,Day,Day
C-5863596,2,2021-01-05 05:08:37,2021-01-10 23:59:00,36.175419,-83.34683199999998,,,0.0,Restrictions due to construction work on TN-160 Gov Dewitt Clinton Sentor Hwy both ways at TN-474 Merchants Greene Blvd.,,S Air Park Blvd,R,Morristown,Hamblen,TN,37813,US,US/Eastern,K0VG,2021-01-05 04:53:00,39.0,39.0,79.0,28.28,10.0,CALM,0.0,0.0,Mostly Cloudy,False,False,False,False,False,False,False,False,False,False,False,False,False,Night,Night,Night,Night
C-5863597,2,2018-03-23 10:17:25,2018-03-23 21:45:00,40.800139,-77.877664,40.807931,-77.895161,1.061720459,Between W Park Ave and US-220/US-322/Mt Nittany Expy - Roadwork. Lane blocked. Traffic problem.,984.0,N Atherton St,L,State College,Centre,PA,16803-3540,US,US/Eastern,KUNV,2018-03-23 09:53:00,32.0,24.2,60.0,30.12,10.0,NW,9.2,,Mostly Cloudy,False,False,True,False,False,False,False,False,False,True,False,True,False,Day,Day,Day,Day
C-5863598,4,2020-06-01 06:01:25,2020-06-01 11:01:25,45.61442,-122.67729,45.62137,-122.67309,0.521333909533,Closed at Interstate Bridge - Closed. Maintenance work.,,I-5 N,R,Portland,Multnomah,OR,97217,US,US/Pacific,KVUO,2020-06-01 05:53:00,47.0,47.0,80.0,30.1,10.0,CALM,0.0,0.0,Fair,False,False,False,False,False,False,False,False,False,False,False,False,False,Day,Day,Day,Day
C-5863599,4,2021-01-14 08:00:00,2021-05-09 23:59:00,37.98465,-87.543003,37.984692,-87.556599,0.7404130700220001,Closed road from Highway 41 N to N Garvin St due to roadwork.,799.0,N Fares Ave,R,Evansville,Vanderburgh,IN,47711,US,US/Central,KEVV,2021-01-14 07:54:00,37.0,32.0,76.0,29.32,10.0,S,7.0,0.0,Fair,False,False,False,False,False,False,False,False,False,False,False,False,False,Day,Day,Day,Day
C-5863600,2,2021-05-11 19:38:23,2021-05-21 23:59:00,40.715256,-74.29544,40.714456,-74.30111,0.302041044148,Construction on I-78 Express Lanes westbound ramp from westbound Exit 49 - NJ 124/Springfield Ave (Springfield Twp) Not currently Scheduled,,I-78 W,R,Union,Union,NJ,07083,US,US/Eastern,KEWR,2021-05-11 19:51:00,62.0,62.0,35.0,30.0,10.0,WNW,13.0,0.0,Mostly Cloudy,False,False,False,False,False,False,False,False,False,False,False,False,False,Day,Day,Day,Day
C-5863601,2,2021-02-24 05:03:30,2021-02-24 18:44:57,25.895961,-80.351219,25.897092,-80.350713,0.0842361458382,Slow traffic from W 80th St to W 32nd Ave due to roadwork.,8025.0,Hialeah Gardens Blvd,R,Hialeah,Miami-Dade,FL,33018,US,US/Eastern,KOPF,2021-02-24 04:53:00,67.0,67.0,90.0,30.08,10.0,CALM,0.0,0.0,Fair,False,False,False,False,False,False,False,False,False,False,False,False,False,Night,Night,Night,Night
C-5863602,2,2021-05-05 05:35:00,2021-05-05 15:43:09,39.622384,-104.987986,39.624136,-104.988775,0.1281276062,Stationary traffic on CO-88 - CO-75 from E Centennial Ave to S Acoma St due to roadwork.,5177.0,S Broadway,R,Englewood,Arapahoe,CO,80113-6705,US,US/Mountain,KAPA,2021-05-05 05:53:00,40.0,37.0,86.0,24.26,10.0,S,5.0,0.0,Fair,False,False,False,False,False,False,False,False,False,False,False,False,False,Night,Day,Day,Day
C-5863603,4,2018-10-29 22:02:39,2018-10-30 03:02:04,45.52537,-122.66225,45.52669,-122.6645,0.142056709506,Ramp closed to I-5 Northbound and NE 1st Ave - Closed due to roadwork.,,US-30 W,R,Portland,Multnomah,OR,97232,US,US/Pacific,KPDX,2018-10-29 21:53:00,48.0,,96.0,30.31,5.0,Calm,,,Mostly Cloudy,False,False,True,False,True,False,False,False,False,False,False,False,False,Night,Night,Night,Night
C-5863604,2,2020-01-31 13:49:08,2020-03-11 05:00:00,40.7165,-74.0132,40.71436,-74.00841,0.291186076511,Between RT-9A/West St and Church St - Construction work.,,Warren St,R,New York,New York,NY,10282,US,US/Eastern,KJRB,2020-01-31 13:51:00,42.0,42.0,65.0,30.13,10.0,VAR,3.0,0.0,Cloudy,True,False,True,False,False,False,True,False,True,False,False,True,False,Day,Day,Day,Day
C-5863605,2,2021-07-30 09:58:44,2021-12-11 09:43:30,32.950776,-117.0675,32.95257,-117.062813,0.29867967574,Stationary traffic on County Hwy-S4 from Oak Knoll Rd to Robison Blvd due to roadwork.,12200.0,Oak Knoll Rd,L,Poway,San Diego,CA,92064-5318,US,US/Pacific,KRNM,2021-12-10 13:53:00,56.0,56.0,62.0,28.6,10.0,WSW,6.0,0.0,Mostly Cloudy,False,False,False,False,False,False,False,False,False,False,False,True,False,Day,Day,Day,Day
C-5863606,2,2020-09-12 20:46:00,2020-09-12 21:29:30,44.68823,-103.678396,44.68282,-103.625096,2.64484818661,Stationary traffic on US-212 from US-212 Bus/US-85/5th Ave (US-212) to SD-79 (US-212) due to roadwork.,11859.0,US Highway 212,R,Belle Fourche,Butte,SD,57717-7600,US,US/Mountain,KEFC,2020-09-12 20:56:00,65.0,65.0,34.0,26.66,10.0,CALM,0.0,0.0,Fair,False,False,False,False,False,False,False,False,False,False,False,False,False,Night,Night,Night,Day
C-5863607,3,2018-06-21 19:01:43,2018-06-22 02:01:44,41.77875,-87.90762,41.8477,-87.91892,4.79939967007,Between I-55/Stevenson Expy (North) and Cermak Rd/22nd St - Roadwork.,,I-294 N,R,Hinsdale,Cook,IL,60521,US,US/Central,KMDW,2018-06-21 18:53:00,66.0,,90.0,29.75,9.0,ENE,12.7,,Overcast,False,False,False,False,False,False,False,False,False,False,False,False,False,Day,Day,Day,Day
C-5863608,2,2021-05-20 08:00:00,2021-05-26 17:45:00,41.367288,-85.050024,41.366713,-85.091459,2.1489396808900003,Construction on IN-8 WB near MCCLELLAN ST Drive with caution.,100.0,S McClellan St,R,Auburn,DeKalb,IN,46706-2416,US,US/Eastern,KGWB,2021-05-20 07:55:00,64.0,64.0,88.0,29.38,10.0,CALM,0.0,0.0,Fair,False,False,False,False,False,False,False,False,False,False,False,False,False,Day,Day,Day,Day
C-5863609,2,2021-09-13 06:42:30,2021-09-13 07:06:30,39.740319,-104.826649,39.740324,-104.837598,0.581713614275,Slow traffic on US-40 W - I-70 Bus W - US-287 N from I-225 (Colfax Ave) to Peoria St (Colfax Ave) due to roadwork.,13863.0,E Colfax Ave,R,Aurora,Adams,CO,80011,US,US/Mountain,KBKF,2021-09-13 06:58:00,62.0,62.0,57.0,24.4,10.0,S,13.0,0.0,Partly Cloudy,False,False,True,False,False,False,False,False,True,False,False,True,False,Day,Day,Day,Day
C-5863610,2,2017-07-18 10:00:00,2020-10-31 23:59:00,40.45937,-86.84852,40.49508,-86.86355,2.59069235268,Between IN-25/Exit 175 and IN-43/Exit 178 - Construction work.,,I-65 N,R,Lafayette,Tippecanoe,IN,47905,US,US/Eastern,KLAF,2017-07-18 09:54:00,75.0,,79.0,30.05,10.0,Variable,3.5,,Partly Cloudy,False,False,False,False,True,False,False,False,False,False,False,False,False,Day,Day,Day,Day
C-5863611,2,2020-05-02 00:01:00,2020-05-02 06:00:00,40.63564,-74.20929,40.63564,-74.20929,0.0,At I-278/Exit 13 - Ramps closed. Roadwork. Ramp restrictions.,,New Jersey Tpke S,R,Linden,Union,NJ,07036,US,US/Eastern,KLDJ,2020-05-02 00:15:00,58.0,58.0,63.0,29.79,10.0,NNW,9.0,0.0,Partly Cloudy,False,False,False,False,False,False,False,False,False,False,False,False,False,Night,Night,Night,Night
C-5863612,2,2020-12-16 04:30:00,2020-12-16 13:46:00,37.7859,-122.390929,37.808252,-122.366974,2.02375984692,Lane closure due to Bridge Repair between SFOBB Pier 1 (W-1) and SFOBB TOWER 6 (W-6),,I-80 E,R,San Francisco,San Francisco,CA,94105,US,US/Pacific,KOAK,2020-12-16 04:53:00,46.0,46.0,76.0,30.28,10.0,ENE,3.0,0.0,Partly Cloudy,False,False,False,False,True,False,False,False,False,True,False,False,False,Night,Night,Night,Night
C-5863613,2,2021-12-28 10:44:30,2021-12-28 12:45:48,27.338918,-82.542686,27.339833,-82.546737,0.2565451245439999,Slow traffic on FL-45 - US-41 N - FL-780 from Central Ave to 5th St due to roadwork.,1401.0,Fruitville Rd,L,Sarasota,Sarasota,FL,34236,US,US/Eastern,KSRQ,2021-12-28 10:53:00,76.0,76.0,60.0,30.03,10.0,SE,9.0,0.0,Fair,False,False,False,False,False,False,False,False,False,False,False,True,False,Day,Day,Day,Day
C-5863614,2,2021-12-15 18:38:00,2021-12-15 20:41:43,33.495044,-112.18868700000002,33.495689,-112.186455,0.136108507105,Stationary traffic from N 61st Ave to W Monterosa St due to roadwork.,6000.0,W Indian School Rd,R,Phoenix,Maricopa,AZ,85033,US,US/Mountain,KGEU,2021-12-15 18:58:00,50.0,50.0,57.0,28.98,10.0,W,3.0,0.0,Fair,False,False,False,False,False,False,False,False,False,False,False,False,False,Night,Night,Night,Day
C-5863615,2,2021-07-10 18:15:00,2021-07-10 20:29:34,47.509699,-121.883436,47.50675800000001,-121.884107,0.2056027519509999,Stationary traffic on WA-18 from I-90 W to SE 104th St due to roadwork.,,State Highway 18,R,Snoqualmie,King,WA,98065,US,US/Pacific,KRNT,2021-07-10 17:53:00,80.0,80.0,43.0,30.07,10.0,N,6.0,0.0,Fair,False,False,False,False,False,False,False,False,False,False,False,True,False,Day,Day,Day,Day
C-5863616,2,2021-12-01 15:23:01,2021-12-01 15:43:01,30.250617,-81.552525,30.258074,-81.555094,0.537559382485,Stationary traffic on FL-115 from Deerwood Park Blvd (FL-115) to Hogan Rd (FL-115) due to roadwork.,,Southside Blvd,R,Jacksonville,Duval,FL,32216,US,US/Eastern,KCRG,2021-12-01 15:53:00,68.0,68.0,59.0,30.11,10.0,E,6.0,0.0,Fair,False,False,False,False,True,False,False,False,False,False,False,False,False,Day,Day,Day,Day
C-5863618,2,2020-10-30 11:43:00,2020-10-31 02:01:28,25.790709,-80.23964000000002,25.794266,-80.239756,0.245871216973,Stationary traffic on FL-9 from NW 17th St to NW 29th Ave due to roadwork.,1699.0,NW 27th Ave,L,Miami,Miami-Dade,FL,33125-2162,US,US/Eastern,KMIA,2020-10-30 11:53:00,88.0,88.0,67.0,29.95,10.0,SE,9.0,0.0,Mostly Cloudy,False,False,True,False,False,False,False,False,True,False,False,True,False,Day,Day,Day,Day
C-5863619,2,2021-05-20 18:53:06,2021-05-20 20:56:26,27.298283,-98.663071,27.297778000000005,-98.663069,0.0348923929542,Roadwork on TX-285 / Fal Hwy from Casa Redonda Ln to FM-1017.,898.0,Fal Hwy,R,Hebbronville,Jim Hogg,TX,78361,US,US/Central,KHBV,2021-05-20 18:55:00,79.0,79.0,70.0,29.75,10.0,ESE,13.0,0.0,Fair,False,False,False,False,False,False,False,False,False,False,False,False,False,Day,Day,Day,Day
C-5863620,2,2021-12-15 13:59:00,2021-12-15 19:31:30,38.494108,-106.326681,38.438338,-106.383761,4.937973964369999,Slow traffic on US-50 W - US-50 E from US-285/Kimberlin Ln (US-50) to CO-114 (US-50) due to roadwork.,,US Highway 50,R,Gunnison,Gunnison,CO,81230,US,US/Mountain,KGUC,2021-12-15 13:56:00,29.0,17.0,51.0,22.47,10.0,WSW,17.0,0.0,Mostly Cloudy,False,False,False,False,False,False,False,False,False,False,False,False,False,Day,Day,Day,Day
C-5863621,2,2021-02-02 13:43:30,2021-02-03 07:41:30,26.136509,-80.16651999999998,26.136532,-80.163945,0.159731056914,Stationary traffic on FL-838 from I-95 (FL-838) to FL-845/Powerline Rd (FL-838) due to roadwork.,1898.0,W Sunrise Blvd,L,Fort Lauderdale,Broward,FL,33311,US,US/Eastern,KFXE,2021-02-02 13:53:00,63.0,63.0,34.0,29.9,10.0,WNW,17.0,0.0,Fair,True,False,False,False,False,False,False,False,False,False,False,True,False,Day,Day,Day,Day
C-5863622,2,2021-12-06 10:23:30,2021-12-06 12:40:09,25.928097,-80.201785,25.928253,-80.204391,0.1622917098929999,Stationary traffic on FL-826 from NE 167th St / N Miami Ave to NW 2nd Ave due to roadwork.,95.0,NW 167th St,R,Miami,Miami-Dade,FL,33169-6017,US,US/Eastern,KHWO,2021-12-06 10:25:00,78.0,78.0,84.0,30.14,10.0,SSW,7.0,0.0,Mostly Cloudy,False,False,False,False,False,False,False,False,True,False,False,False,False,Day,Day,Day,Day
C-5863623,2,2021-02-18 18:21:42,2021-02-18 21:23:52,33.65797,-92.063008,33.660034,-92.062765,0.14329191685,Roadwork on AR-376 (AR-15) from AR-35 (AR-15) to US-63 S - AR-15 - US-63 N.,596.0,US Highway 63 N,L,Warren,Bradley,AR,71671-9712,US,US/Central,KLLQ,2021-02-18 17:53:00,29.0,23.0,67.0,30.06,10.0,N,6.0,0.0,Mostly Cloudy,False,False,False,False,False,False,False,False,False,False,False,False,False,Night,Night,Day,Day
C-5863624,2,2021-08-27 11:46:55,2021-08-27 12:24:30,41.407813,-73.416341,41.405103,-73.42147800000002,0.325467619517,Slow traffic from I-84/US-6 (Newtown Rd) to Triangle St/Beaver Brook Rd/Cross St (Newtown Rd) due to roadwork.,67.0,Newtown Rd,R,Danbury,Fairfield,CT,06810-6232,US,US/Eastern,KDXR,2021-08-27 11:53:00,90.0,90.0,55.0,29.62,10.0,W,3.0,0.0,Fair,False,False,True,False,False,False,False,False,False,False,False,False,False,Day,Day,Day,Day
C-5863625,2,2021-05-10 05:40:00,2021-05-10 13:14:30,41.05607,-75.780034,41.056192,-75.766368,0.712062608832,Slow traffic on I-80 E from PA-309/Exit 262 (I-80) to PA-534/Exit 274 (I-80) due to roadwork.,,I-80 E,R,White Haven,Luzerne,PA,18661,US,US/Eastern,KAVP,2021-05-10 05:43:00,45.0,42.0,90.0,28.82,9.0,N,6.0,0.0,Cloudy,False,False,False,False,False,False,False,False,False,False,False,False,False,Night,Day,Day,Day
C-5863626,2,2016-12-20 09:52:43,2016-12-20 15:00:00,34.18756,-118.93386,34.200319,-118.958514,1.66203554865,Between Ventura Fwy and Wendy Dr/Exit 47C - Construction work.,,US-101 N,R,Newbury Park,Ventura,CA,91320,US,US/Pacific,KCMA,2016-12-20 09:55:00,69.1,,9.0,30.25,10.0,ENE,16.1,,Clear,False,False,False,False,True,False,False,False,False,False,False,False,False,Day,Day,Day,Day
C-5863627,4,2021-09-30 02:45:12,2021-10-07 23:59:00,34.540468,-117.271243,34.540392,-117.27253,0.0734363862568,Closed road from Quantico Rd to Apple Valley Rd due to roadwork.,18031.0,Wika Rd,R,Apple Valley,San Bernardino,CA,92307,US,US/Pacific,KVCV,2021-09-30 05:45:00,46.0,43.0,29.0,27.08,10.0,S,7.0,0.0,Fair,False,False,False,False,False,False,False,False,False,False,False,True,False,Night,Night,Night,Night
C-5863628,4,2018-09-30 08:30:58,2018-09-30 13:30:39,37.775185,-122.389902,37.77768,-122.39131,0.188759834769,Closed at 24 Willie Mays Plz/King St - Closed due to roadwork. Major event.,1033.0,3rd St,R,San Francisco,San Francisco,CA,94158-2100,US,US/Pacific,KOAK,2018-09-30 08:53:00,63.0,,75.0,29.94,10.0,SE,8.1,,Partly Cloudy,True,False,True,False,False,False,False,False,False,False,False,True,False,Day,Day,Day,Day
C-5863629,4,2021-11-14 08:00:00,2021-11-14 19:00:00,32.755486,-84.891367,32.757866,-84.876675,0.8693855631559999,GA-116 is closed from Mountain Creek Dr to S College St due to roadwork.,2.0,Mountain Creek Dr,R,Hamilton,Harris,GA,31811-6069,US,US/Eastern,KCSG,2021-11-14 07:51:00,37.0,37.0,79.0,29.72,10.0,NW,3.0,0.0,Fair,False,False,False,False,False,False,False,False,False,False,False,False,False,Day,Day,Day,Day
C-5863630,2,2021-04-12 17:04:54,2021-12-14 16:36:04,32.740805,-96.821287,32.743799,-96.815575,0.391135786942,Roadwork on exit [422B] from 429A to US-67 S - I-35E N - US-77 S - R L Thornton Fwy S - US-67 N - US-77 N - R L Thornton Fwy N - I-35E S.,,I-35E N,R,Dallas,Dallas,TX,75203,US,US/Central,KRBD,2021-04-12 16:53:00,84.0,84.0,44.0,29.03,10.0,SSE,9.0,0.0,Fair,False,False,False,False,False,False,False,False,False,False,False,False,False,Day,Day,Day,Day
C-5863631,2,2020-05-01 10:01:39,2020-05-02 03:00:00,40.93005,-73.11541,40.92999,-73.11547,0.00519574476041,At CR-97/Nicolls Rd - Roadwork. Lane blocked. Ramp restrictions.,688.0,N Country Rd,R,East Setauket,Suffolk,NY,11733,US,US/Eastern,KISP,2020-05-01 09:56:00,56.0,56.0,93.0,29.61,10.0,SSW,9.0,0.0,Cloudy,False,False,True,False,False,False,False,False,False,False,False,True,False,Day,Day,Day,Day
C-5863632,2,2021-12-03 14:28:03,2021-12-03 16:29:52,35.891416,-78.863222,35.89151500000001,-78.861651,0.0882017056085,Stationary traffic on NC-54 from Park Dr to I-40 E due to roadwork.,3679.0,E NC Highway 54,L,Durham,Durham,NC,27709,US,US/Eastern,KRDU,2021-12-03 14:51:00,72.0,72.0,27.0,29.58,10.0,CALM,0.0,0.0,Fair,False,False,False,False,False,False,False,False,False,False,False,False,False,Day,Day,Day,Day
C-5863633,2,2021-11-05 13:19:30,2021-11-05 15:21:15,33.447140999999995,-112.075928,33.446069,-112.075034,0.0902358613296,Slow traffic from S 3rd Ave to W Madison St due to roadwork.,92.0,W Jefferson St,R,Phoenix,Maricopa,AZ,85003-2337,US,US/Mountain,KPHX,2021-11-05 12:51:00,83.0,83.0,19.0,28.8,10.0,VAR,6.0,0.0,Fair,True,False,True,False,False,False,True,False,False,False,False,True,False,Day,Day,Day,Day
C-5863634,2,2020-02-05 09:01:00,2020-02-05 20:49:35,37.37604,-122.06215,37.37487,-122.0591,0.1859563440419999,At Crestview Drive - Construction work.,,E El Camino Real,R,Mountain View,Santa Clara,CA,94040,US,US/Pacific,KNUQ,,,,,,,,,,,False,False,True,False,False,False,False,False,False,True,False,True,False,Day,Day,Day,Day
C-5863635,2,2016-04-05 06:44:49,2016-04-05 14:00:00,37.78743,-122.38939,37.80937,-122.36581,1.98879218609,Between Fremont St/Harrison St and Hillcrest Rd - Roadwork. Right lane blocked.,444.0,Main St,R,San Francisco,San Francisco,CA,94105-2006,US,US/Pacific,KOAK,2016-04-05 06:53:00,50.0,,83.0,30.22,7.0,East,4.6,,Clear,False,False,False,False,False,False,False,False,False,False,False,False,False,Night,Day,Day,Day
C-5863636,3,2020-04-24 00:09:22,2020-04-24 02:08:06,40.72994,-74.03965,40.72164,-74.00731,1.7878514298,Between Boyle Plz and Hudson St/Exit 1/Exit 2 - Roadwork. Major event.,550.0,Luis Munoz Marin Blvd,R,Jersey City,Hudson,NJ,07310-1414,US,US/Eastern,KJRB,2020-04-24 00:25:00,42.0,39.0,85.0,29.83,5.0,VAR,5.0,0.04,Light Rain,False,False,True,False,False,False,False,False,False,False,False,True,False,Night,Night,Night,Night
C-5863637,2,2020-12-16 15:01:00,2020-12-17 00:46:00,35.469821,-118.750919,35.461468,-118.76323700000002,0.901993128543,Construction on CA-178 WB near DIRT Expect long delays.,,State Route 178,R,Wofford Heights,Kern,CA,93285,US,US/Pacific,KIYK,2020-12-16 14:56:00,60.0,60.0,19.0,27.73,10.0,VAR,3.0,0.0,Mostly Cloudy,False,False,False,False,False,False,False,False,False,False,False,False,False,Day,Day,Day,Day
C-5863638,2,2021-01-28 18:29:30,2021-01-29 03:45:19,33.483528,-112.168924,33.48048,-112.168569,0.2115880794179999,Slow traffic from W Earll Dr to N 50th Dr due to roadwork.,2806.0,N 51st Ave,L,Phoenix,Maricopa,AZ,85035-2021,US,US/Mountain,KGEU,2021-01-28 18:02:00,63.0,63.0,48.0,28.78,10.0,N,6.0,0.0,Light Drizzle,True,False,True,False,False,False,False,False,True,False,False,True,False,Night,Night,Day,Day
C-5863639,2,2020-09-26 00:50:04,2020-09-26 01:40:02,37.067212,-95.938762,37.06717800000001,-95.927863,0.6008844971580001,Queuing traffic on US-166 from C St (N 2nd St/US-166) to US-75 (US-166) due to roadwork.,,US Highway 166,R,Havana,Montgomery,KS,67347,US,US/Central,KIDP,2020-09-26 00:55:00,66.0,66.0,92.0,28.99,10.0,S,13.0,0.0,Fair,False,False,False,False,False,False,False,False,False,False,False,False,False,Night,Night,Night,Night
C-5863641,2,2020-11-18 19:27:00,2020-11-19 01:21:00,40.238531,-75.569447,40.220771,-75.546807,1.71231995477,Stationary traffic on Pottstown Expy E - US-422 E from Evergreen Rd (US-422) to Lewis Rd (US-422) due to roadwork.,,Pottstown Expy E,R,Pottstown,Montgomery,PA,19464,US,US/Eastern,KPTW,2020-11-18 19:54:00,28.0,28.0,61.0,30.24,10.0,CALM,0.0,0.0,Fair,False,False,False,False,True,False,False,False,False,False,False,False,False,Night,Night,Night,Night
C-5863642,2,2020-01-01 10:41:25,2020-01-05 14:19:26,38.89407,-77.00061,38.8931,-77.0006,0.0670227743943999,Between H St NE and C St NE/Maryland Ave NE - Construction work.,395.0,Massachusetts Ave NE,R,Washington,District Of Columbia,DC,20002-5701,US,US/Eastern,KDCA,2020-01-01 10:52:00,47.0,42.0,39.0,29.87,10.0,W,12.0,0.0,Fair,False,False,True,False,False,False,False,False,False,False,False,True,False,Day,Day,Day,Day
C-5863643,3,2020-12-02 09:00:00,2020-12-02 14:00:00,42.961922,-87.967148,,,0.800000011921,Exit ramp from I-894 Westbound to WI-36 closed due to maintenance work.,,I-41 N,R,Milwaukee,Milwaukee,WI,53221,US,US/Central,KMKE,2020-12-02 08:52:00,33.0,29.0,52.0,29.54,10.0,WNW,5.0,0.0,Fair,False,False,False,False,False,False,False,False,False,False,False,False,False,Day,Day,Day,Day
C-5863644,2,2021-09-13 06:00:00,2021-09-24 17:00:00,44.124396,-91.000018,44.123074,-91.003868,0.211673976515,Mainline Moving Lane Closure on WIS 54 Westbound from WIS 71 to SOUTH RD.,399.0,S Washington St,L,Melrose,Jackson,WI,54642-8288,US,US/Central,KBCK,2021-09-13 05:55:00,44.0,44.0,100.0,29.19,10.0,CALM,0.0,0.0,Fair,False,False,False,False,False,False,False,False,False,False,False,False,False,Night,Night,Day,Day
C-5863645,2,2021-07-09 16:31:36,2021-07-09 18:47:23,41.925751,-87.785515,41.923664,-87.784537,0.152711318742,Stationary traffic from W Wrightwood Ave to N Mulligan Ave due to roadwork.,2499.0,N Narragansett Ave,L,Chicago,Cook,IL,60639,US,US/Central,KORD,2021-07-09 16:51:00,76.0,76.0,36.0,29.34,10.0,ENE,8.0,0.0,Partly Cloudy,False,False,False,False,False,False,False,False,True,False,False,False,False,Day,Day,Day,Day
C-5863646,4,2021-11-12 19:00:03,2021-11-13 03:00:01,40.642845,-74.258961,40.635643,-74.24713299999998,0.795103975158,TRANSCOM Jersey City: Construction line striping on CR-619 eastbound between CR-619 (Linden) and CR-514 (Linden) All lanes closed Until 6:00 AM,1808.0,Roselle St,R,Linden,Union,NJ,07036,US,US/Eastern,KLDJ,2021-11-12 18:55:00,56.0,56.0,46.0,29.94,10.0,W,5.0,0.0,Fair,False,False,False,False,False,False,False,False,True,False,False,True,False,Night,Night,Night,Night
C-5863647,2,2020-09-18 10:16:30,2020-09-18 23:13:23,40.760561,-73.73186700000002,40.762347,-73.728691,0.207012516758,Stationary traffic lane closed on I-495 E in Little Neck Pkwy exit [32] due to roadwork.,,Long Island Expy E,R,Little Neck,Queens,NY,11362,US,US/Eastern,KLGA,2020-09-18 10:24:00,67.0,67.0,59.0,29.94,10.0,NNE,14.0,0.0,Cloudy,False,False,False,False,False,False,False,False,False,False,False,False,False,Day,Day,Day,Day
C-5863648,2,2021-08-04 09:14:30,2021-08-06 14:46:39,35.848267,-90.125062,35.8489,-90.126379,0.0857505411925,Roadwork on AR-181/N CR-407 (AR-18) from AR-18/Baltimore Ave (AR-18) to AR-18.,2151.0,W State Highway 18,L,Manila,Mississippi,AR,72442-9093,US,US/Central,KBYH,2021-08-04 08:53:00,72.0,72.0,78.0,29.82,10.0,N,7.0,0.0,Fair,False,False,False,False,False,False,False,False,False,False,False,False,False,Day,Day,Day,Day
C-5863649,2,2020-11-05 17:13:00,2020-11-06 02:45:00,37.998016,-77.416579,37.996743,-77.416814,0.0888817496389,Construction on ROGERS CLARK BLVD SB near JEFFERSON DAVIS HWY Drive with caution.,19304.0,Rogers Clark Blvd,L,Ruther Glen,Caroline,VA,22546-4011,US,US/Eastern,KOFP,2020-11-05 16:54:00,63.0,63.0,67.0,30.13,10.0,CALM,0.0,0.0,Fair,False,False,False,False,False,False,False,False,False,False,False,False,False,Night,Day,Day,Day
C-5863650,2,2021-07-12 17:48:00,2021-12-27 17:05:01,40.766702,-73.967157,40.764358,-73.961614,0.332218194039,Slow traffic from 65th St Transverse Rd (65th St) to 2nd Ave (E 65th St) due to roadwork.,98.0,E 65th St,R,New York,New York,NY,10065-7056,US,US/Eastern,KNYC,2021-09-24 12:51:00,71.0,,44.0,29.97,10.0,,,0.0,Fair,True,False,True,False,False,False,False,False,False,False,False,True,False,Day,Day,Day,Day
C-5863651,2,2021-06-11 22:54:00,2021-06-17 17:18:14,33.409881,-112.082006,33.4067,-112.082053,0.2198028844199999,Slow traffic from I-17/US-60/W Maricopa Fwy (S 7th Ave) to W Southern Ave (S 7th Ave) due to roadwork.,636.0,W Southgate Ave,R,Phoenix,Maricopa,AZ,85041-1530,US,US/Mountain,KPHX,2021-06-17 13:51:00,113.0,113.0,8.0,28.51,10.0,SSE,12.0,0.0,Partly Cloudy,False,False,True,False,False,False,False,False,False,False,False,True,False,Night,Night,Night,Night
C-5863652,4,2020-07-15 02:01:00,2020-07-15 12:46:00,33.048931,-117.288233,33.048465,-117.288221,0.0322050330675,Construction on I-5 SB near ENCINITAS BLVD Use alternate exit ramp.,,Encinitas Blvd,R,Encinitas,San Diego,CA,92024,US,US/Pacific,KCRQ,2020-07-15 01:53:00,67.0,67.0,76.0,29.59,10.0,ESE,5.0,0.0,Cloudy,False,False,True,False,False,False,False,False,True,False,False,True,False,Night,Night,Night,Night
C-5863653,2,2019-02-08 09:02:58,2019-02-12 09:02:50,33.65473,-84.50376,33.65473,-84.50376,0.0,At Commerce Dr - Construction work.,,N Commerce Dr,R,Atlanta,Fulton,GA,30344,US,US/Eastern,KATL,2019-02-08 08:52:00,51.1,,66.0,30.29,10.0,NW,19.6,0.0,Mostly Cloudy,False,False,True,False,False,False,False,False,False,False,False,True,False,Day,Day,Day,Day
C-5863654,2,2021-03-11 04:39:00,2021-03-11 19:47:13,33.566509,-112.236534,33.565433,-112.237793,0.103831248125,Stationary traffic from N 81st Ave to W Alice Ave due to roadwork.,8197.0,W Olive Ave,L,Peoria,Maricopa,AZ,85345,US,US/Mountain,KGEU,2021-03-11 04:58:00,48.0,48.0,50.0,28.81,10.0,CALM,0.0,0.0,Fair,False,False,False,False,False,False,False,False,False,False,False,False,False,Night,Night,Night,Night
C-5863655,4,2019-07-24 19:00:00,2019-08-03 06:00:00,40.658943,-74.41604699999998,40.65526,-74.40406,0.6778841402500001,Closed between CR-527/Valley Rd and CR-655/New Providence Rd/Park Ave - Closed due to roadwork.,1898.0,Plainfield Ave,R,Watchung,Somerset,NJ,07069-5480,US,US/Eastern,KLDJ,2019-07-24 18:55:00,83.0,83.0,36.0,29.92,10.0,CALM,0.0,0.0,Fair,False,False,False,False,False,False,False,False,False,False,False,True,False,Day,Day,Day,Day
C-5863656,2,2020-10-30 16:30:00,2020-10-30 21:46:00,37.848597,-122.235184,37.849967,-122.223254,0.6577248375429999,Construction on CA-24 EB near I-980 Expect delays.,,CA-24 E,R,Oakland,Alameda,CA,94618,US,US/Pacific,KOAK,2020-10-30 16:53:00,69.0,69.0,53.0,30.01,10.0,WNW,9.0,0.0,Fair,False,False,False,False,False,False,False,False,False,False,False,False,False,Day,Day,Day,Day
C-5863657,2,2021-10-08 17:16:34,2021-10-08 17:36:34,40.765525,-73.98003100000003,40.767926,-73.985722,0.34089588155,Slow traffic from 6th Ave/Avenue of the Americas (W 57th St) to 9th Ave (W 57th St) due to roadwork.,201.0,W 57th St,R,New York,New York,NY,10019-2104,US,US/Eastern,KNYC,2021-10-08 16:51:00,72.0,72.0,66.0,30.04,10.0,E,6.0,0.0,Cloudy,True,False,True,False,False,False,True,False,True,False,False,True,False,Day,Day,Day,Day
C-5863658,2,2021-11-20 13:59:30,2021-11-20 16:00:37,33.640384999999995,-112.063733,33.639517,-112.065609,0.1234580824029999,Slow traffic from N 9th St to E Greenway Pkwy due to roadwork.,764.0,E Bell Rd,L,Phoenix,Maricopa,AZ,85022-2657,US,US/Mountain,KDVT,2021-11-20 13:53:00,76.0,76.0,17.0,28.36,10.0,WSW,6.0,0.0,Fair,True,False,False,False,False,False,False,False,True,False,False,False,False,Day,Day,Day,Day
C-5863659,2,2020-09-01 19:00:00,2020-09-02 05:00:00,40.32164,-75.30349,,,2.0,Lane closed due to paving repairs on PA-113 Souderton Rd between County Line Rd and Bethlehem Pike.,794.0,Route 113,R,Telford,Bucks,PA,18969,US,US/Eastern,KUKT,2020-09-01 18:55:00,73.0,73.0,83.0,29.5,10.0,CALM,0.0,0.0,Mostly Cloudy,False,False,False,False,False,False,False,False,False,False,False,True,False,Day,Day,Day,Day
C-5863660,2,2021-09-15 06:21:00,2021-09-17 01:00:44,40.368651,-111.886545,40.372431,-111.886501,0.261183396006,Roadwork from W 7350 N to W 1300 S / W 7750 N.,7532.0,N 9550 W,L,Lehi,Utah,UT,84043-3143,US,US/Mountain,KPVU,2021-09-15 05:56:00,54.0,54.0,57.0,25.51,10.0,SE,5.0,0.0,Fair,False,False,False,False,False,False,False,False,False,False,False,False,False,Night,Night,Day,Day
C-5863661,4,2018-05-16 21:01:27,2018-05-17 03:01:27,40.70205,-74.00948000000002,40.70205,-74.00948000000002,0.0,At Marginal St/South St/Exit 1 - Exit ramp closed. Construction work.,19.0,South St,R,New York,New York,NY,10004,US,US/Eastern,KJRB,2018-05-16 20:56:00,57.9,,97.0,30.09,10.0,NE,6.9,0.01,Overcast,False,False,True,False,True,False,False,False,False,False,False,False,False,Night,Night,Day,Day
C-5863662,2,2021-12-14 04:09:27,2021-12-14 14:00:00,40.436729,-77.16346,,,10.970000267,Temporary width limit of 9' due to construction work on PA-34 both ways between Bloomfield Ave and State Park Rd.,1.0,State Park Rd,R,New Bloomfield,Perry,PA,17068,US,US/Eastern,KCXY,2021-12-14 03:56:00,41.0,41.0,43.0,30.0,10.0,W,3.0,0.0,Fair,False,False,False,False,False,False,False,False,False,False,False,False,False,Night,Night,Night,Night
C-5863663,2,2021-04-04 12:04:00,2021-04-04 16:58:30,35.050169,-81.801937,35.044033,-81.816925,0.947897027554,Slow traffic on I-85 S from Green River Rd/Exit 86 (I-85) to Gossett Rd/Exit 80 (I-85) due to roadwork.,,I-85 S,R,Cowpens,Cherokee,SC,29330,US,US/Eastern,KSPA,2021-04-04 11:55:00,64.0,64.0,22.0,29.41,10.0,CALM,0.0,0.0,Fair,False,False,False,False,False,False,False,False,False,False,False,False,False,Day,Day,Day,Day
C-5863664,2,2021-05-29 19:09:19,2021-06-03 18:31:29,25.927299,-80.18821700000002,25.929215,-80.188303,0.1324908073729999,Slow traffic on FL-915 from NE 159th St (NE 6th Ave/FL-915) to FL-860/NE 181st St/Miami Gardens Dr (NE 6th Ave/FL-915) due to roadwork.,16546.0,NE 6th Ave,L,Miami,Miami-Dade,FL,33162-3646,US,US/Eastern,KHWO,2021-05-29 18:53:00,83.0,83.0,56.0,29.92,10.0,SSE,15.0,0.0,Fair,False,False,False,False,False,False,False,False,True,False,False,False,False,Day,Day,Day,Day
C-5863665,2,2021-11-16 17:13:38,2021-11-16 18:00:40,44.441816,-73.20992700000002,44.44687,-73.209347,0.350368215229,Stationary traffic on US-7 N - US-7 S from Bostwick Rd/Marsett Rd (Shelburne Rd/US-7) to I-189 (Shelburne Rd/US-7) due to roadwork.,986.0,Shelburne Rd,L,South Burlington,Chittenden,VT,05403-6938,US,US/Eastern,KBTV,2021-11-16 16:54:00,37.0,30.0,57.0,29.74,10.0,NW,10.0,0.0,Cloudy,False,False,True,False,False,False,False,False,False,False,False,False,False,Night,Night,Day,Day
C-5863666,4,2020-06-02 18:47:17,2020-06-02 23:44:55,32.92409,-96.77748,32.878840000000004,-96.68844,6.037830865219999,Closed between I-635/US-75 and Town East Blvd/Exit 7 - Closed due to roadwork.,,LBJ Express,R,Dallas,Dallas,TX,75251,US,US/Central,KADS,2020-06-02 18:47:00,88.0,88.0,46.0,29.3,10.0,SSE,12.0,0.0,Fair,False,False,False,False,True,False,False,False,False,False,False,False,False,Day,Day,Day,Day
C-5863667,2,2021-08-29 19:15:00,2021-08-29 19:55:30,40.35491500000001,-75.950829,40.371751,-75.921183,1.94655588765,Slow traffic on PA-12 E from US-422/Benjamin Franklin Hwy (Warren St Byp/PA-12) to US-222 Bus/N 5th Street Hwy (Warren St Byp/PA-12) due to roadwork.,374.0,Warren Street Byp E,R,Reading,Berks,PA,19601,US,US/Eastern,KRDG,2021-08-29 18:54:00,80.0,80.0,74.0,29.71,10.0,SE,5.0,0.0,Cloudy,False,False,False,False,True,False,False,False,False,True,False,False,False,Day,Day,Day,Day
C-5863668,2,2021-08-27 06:01:00,2021-08-27 15:44:00,37.049901,-120.635556,37.047954,-120.63558,0.134531398005,Construction on CA-33 SB near AVENUE 152 Expect long delays.,,CA-33,R,Dos Palos,Merced,CA,93620,US,US/Pacific,KMCE,2021-08-27 05:53:00,62.0,62.0,72.0,29.59,6.0,CALM,0.0,0.0,Haze,True,False,False,False,False,False,False,False,False,False,False,False,False,Night,Night,Day,Day
C-5863669,4,2020-07-24 04:01:00,2020-07-24 12:46:00,32.770489000000005,-117.205871,32.773299,-117.207311,0.211409298846,Construction on I-5 NB near SEA WORLD DR Take alternate route.,,Tecolote Rd,R,San Diego,San Diego,CA,92110,US,US/Pacific,KSAN,2020-07-24 03:51:00,67.0,67.0,70.0,29.9,10.0,WSW,3.0,0.0,Cloudy,False,False,False,False,False,False,False,False,False,False,False,True,False,Night,Night,Night,Night
C-5863670,2,2021-02-09 21:10:00,2021-02-10 00:48:40,33.1348,-91.872493,33.134309,-91.846559,1.50087501486,Slow traffic on US-82 E - US-82 W from AR-133/N Main St (US-82) to US-425/AR-52 (US-82) due to roadwork.,118.0,Fleming Rd,R,Hamburg,Ashley,AR,71646-9566,US,US/Central,KLLQ,2021-02-09 20:53:00,37.0,32.0,96.0,29.89,1.0,NE,6.0,0.0,Fog,False,False,False,False,False,False,False,False,False,False,False,False,False,Night,Night,Night,Night
C-5863672,2,2021-09-15 17:50:26,2021-09-15 18:50:01,34.036904,-81.110547,33.982667,-81.19319200000002,6.03727280156,Slow traffic on I-20 W from US-176/Broad River Rd/Exit 65 (I-20) to US-1/Exit 58 (I-20) due to roadwork.,,I-20 W,R,Columbia,Richland,SC,29210,US,US/Eastern,KCAE,2021-09-15 17:45:00,72.0,72.0,93.0,29.72,1.0,CALM,0.0,0.62,Heavy T-Storm,False,False,False,False,False,False,False,False,False,False,False,False,False,Day,Day,Day,Day
C-5863673,2,2021-08-19 11:45:02,2021-08-19 12:32:49,29.866081,-96.346736,29.873539,-96.370485,1.51335320602,Slow traffic on FM-1094 from Schwanbeck Rd to Westcreek Dr due to roadwork.,14665.0,FM 1094,L,Cat Spring,Austin,TX,78933-5163,US,US/Central,K11R,2021-08-19 11:35:00,91.0,91.0,64.0,29.71,10.0,S,10.0,0.0,Partly Cloudy,False,False,False,False,False,False,False,False,False,False,False,False,False,Day,Day,Day,Day
C-5863674,2,2019-05-23 19:03:41,2019-05-30 19:01:07,28.66183,-81.38979,28.66146,-81.3892,0.043966401063,Ramp to I-4 Westbound - Construction work. Right lane blocked.,,W Altamonte Dr,R,Altamonte Springs,Seminole,FL,32714,US,US/Eastern,KORL,2019-05-24 18:53:00,84.0,84.0,51.0,29.97,10.0,E,13.0,0.0,Fair,False,False,True,False,False,False,False,False,False,False,False,False,False,Day,Day,Day,Day
C-5863675,2,2021-05-10 07:01:00,2021-05-31 17:15:00,37.798503,-121.052085,37.798472,-121.053945,0.1015704576039999,Construction on CA-120 WB near VAN ALLEN RD Expect delays.,17998.0,S Van Allen Rd,L,Escalon,San Joaquin,CA,95320-9728,US,US/Pacific,KMOD,2021-05-10 06:53:00,64.0,64.0,41.0,29.7,10.0,WNW,18.0,0.0,Fair,False,False,True,False,False,False,True,False,False,True,False,False,False,Day,Day,Day,Day
C-5863676,2,2020-10-02 12:40:00,2020-10-03 02:27:57,27.838501,-82.78695400000002,27.840305,-82.786953,0.1246445438409999,Queuing traffic from FL-666 (US-19 Alt) to 102nd Ave (US-19 Alt) due to resurfacing work.,7291.0,Seminole Blvd,R,Seminole,Pinellas,FL,33772,US,US/Eastern,KPIE,2020-10-02 12:53:00,82.0,82.0,51.0,29.99,10.0,NNE,7.0,0.0,Fair,False,False,False,False,False,False,False,False,True,False,False,False,False,Day,Day,Day,Day
C-5863677,2,2021-09-29 07:45:17,2021-09-29 08:05:17,36.345531,-92.392973,36.343339,-92.390607,0.200688813883,Stationary traffic on AR-5 from AR-126/AR-178 (AR-5) to US-62/AR-178 (AR-5) due to roadwork.,618.0,Highway 5 N,L,Mountain Home,Baxter,AR,72653-3012,US,US/Central,KBPK,2021-09-29 07:53:00,67.0,67.0,90.0,28.99,5.0,CALM,0.0,0.0,Partly Cloudy,False,False,False,False,False,False,False,False,False,False,False,False,False,Day,Day,Day,Day
C-5863678,2,2021-07-21 15:42:20,2021-11-23 17:06:36,41.952881,-87.788967,41.952317,-87.786505,0.132374795957,Slow traffic on IL-19 from N Natchez Ave to W Dakin St due to roadwork.,6520.0,W Irving Park Rd,R,Chicago,Cook,IL,60634-2436,US,US/Central,KORD,2021-07-21 15:51:00,74.0,74.0,66.0,29.42,10.0,N,8.0,0.0,Mostly Cloudy,False,False,False,False,False,False,False,False,True,False,False,True,False,Day,Day,Day,Day
C-5863679,2,2021-07-02 16:14:55,2021-07-02 17:34:04,43.671694,-84.01293299999998,43.732654,-84.015323,4.21362637056,Slow traffic on I-75 N - US-23 N from Beaver Rd/Exit 168 (I-75) to Linwood Rd/Exit 173 (I-75) due to roadwork.,,I-75 N,R,Kawkawlin,Bay,MI,48631,US,US/Eastern,KMBS,2021-07-02 15:53:00,76.0,76.0,46.0,29.3,10.0,N,6.0,0.0,Fair,False,False,False,False,False,False,False,False,False,False,False,False,False,Day,Day,Day,Day
C-5863680,4,2021-12-07 04:52:33,2021-12-08 23:59:00,39.167781,-84.497573,39.167713,-84.49613199999997,0.0773345403658,Closed road from Vine St / Burnet Ave to Tower Ave due to roadwork.,4798.0,Burnet Ave,L,Cincinnati,Hamilton,OH,45217,US,US/Eastern,KLUK,2021-12-07 04:53:00,25.0,16.0,51.0,29.72,10.0,N,9.0,0.0,Fair,True,False,True,False,False,False,False,False,True,False,False,True,False,Night,Night,Night,Night
C-5863681,2,2021-04-30 06:24:00,2021-04-30 14:17:00,39.981394,-75.83035600000002,39.979944,-75.835102,0.270506801543,Stationary traffic on US-30 Bus E - US-30 Bus W - PA-82 from PA-340/Bondsville Rd (US-30 Bus/Lincoln Hwy) to Old Wilmington Rd (US-30 Bus/Lincoln Hwy) due to roadwork.,228.0,W Lincoln Hwy,L,Coatesville,Chester,PA,19320-3019,US,US/Eastern,KMQS,2021-04-30 06:15:00,55.0,55.0,77.0,28.91,10.0,WNW,29.0,0.0,Mostly Cloudy / Windy,False,False,False,False,False,False,False,False,False,False,False,False,False,Day,Day,Day,Day
C-5863682,2,2021-05-04 20:00:00,2021-05-05 05:45:00,40.05676500000001,-74.153479,40.056348,-74.15635,0.15454168916,NJ DOT - TOC South: Construction paving operations on NJ 70 westbound East of Shorrock St (Brick Twp) 1 Right lane of 2 lanes closed Until 5:00 AM,534.0,State Highway 70,L,Brick,Ocean,NJ,08723-4014,US,US/Eastern,KBLM,2021-05-04 19:56:00,57.0,57.0,89.0,29.63,10.0,SSE,9.0,0.0,Fair,False,False,True,False,False,False,False,False,False,False,False,True,False,Night,Day,Day,Day
C-5863683,2,2021-07-12 16:15:18,2021-07-12 16:36:31,40.237179,-79.580881,40.230415,-79.586883,0.564483440087,Slow traffic on US-119 S from Depot St (3rd St/4th St/US-119) to Burton Ave (US-119) due to roadwork.,198.0,S 4th St,L,Youngwood,Westmoreland,PA,15697-1204,US,US/Eastern,KLBE,2021-07-12 15:45:00,84.0,84.0,66.0,28.87,10.0,SSW,14.0,0.0,Partly Cloudy,False,False,False,False,False,False,False,False,False,False,False,True,False,Day,Day,Day,Day
C-5863684,2,2021-08-27 16:08:30,2021-08-27 18:10:02,39.482219,-84.41984000000002,39.481001,-84.420564,0.0925899745057,Stationary traffic on OH-73 from Diamond Loop to Locust St due to roadwork.,3185.0,S Main St,L,Middletown,Butler,OH,45044-7422,US,US/Eastern,KMWO,2021-08-27 16:15:00,90.0,90.0,56.0,29.36,10.0,NE,6.0,0.0,Mostly Cloudy,False,False,False,False,False,False,False,False,False,False,False,False,False,Day,Day,Day,Day
