ID,Severity,Start_Time,End_Time,Start_Lat,Start_Lng,End_Lat,End_Lng,Distance(mi),Description,Number,Street,Side,City,County,State,Zipcode,Country,Timezone,Airport_Code,Weather_Timestamp,Temperature(F),Wind_Chill(F),Humidity(%),Pressure(in),Visibility(mi),Wind_Direction,Wind_Speed(mph),Precipitation(in),Weather_Condition,Amenity,Bump,Crossing,Give_Way,Junction,No_Exit,Railway,Roundabout,Station,Stop,Traffic_Calming,Traffic_Signal,Turning_Loop,Sunrise_Sunset,Civil_Twilight,Nautical_Twilight,Astronomical_Twilight
C-5821647,2,2021-09-06 18:24:00.000000000,2021-09-06 18:43:00.000000000,41.886726,-87.64649399999998,41.877029,-87.64612,0.6702750609179999,Slow traffic on I-94 E - I-90 E - Kennedy Expy E from exit [51B] to Eisenhower Expy exit [51H] due to roadwork.,,I-90 E,R,Chicago,Cook,IL,60661,US,US/Central,KMDW,2021-09-06 18:53:00,74.0,74.0,50.0,29.23,10.0,E,10.0,0.0,Fair,False,False,False,False,True,False,False,False,False,False,False,False,False,Day,Day,Day,Day
C-5821648,2,2021-11-12 13:45:00.000000000,2021-11-12 14:05:00.000000000,39.301253,-102.257981,39.301111,-102.262768,0.256131463936,Slow traffic on US-385 S - US-24 W from I-70 (Burlington) (Rose Ave/US-24) to US-385/Lincoln St (Rose Ave/US-24) due to roadwork.,600.0,Rose Ave,L,Burlington,Kit Carson,CO,80807-2018,US,US/Mountain,KITR,2021-11-12 13:53:00,50.0,50.0,28.0,25.91,10.0,NNW,24.0,0.0,Fair / Windy,False,False,False,False,False,False,False,False,False,True,False,False,False,Day,Day,Day,Day
C-5821649,2,2018-11-22 09:00:00.000000000,2018-11-22 16:00:00.000000000,26.556978000000004,-81.910439,,,7.730000019069999,Intermittent lane closures due to maintenance work on College Pkwy both ways from US-41 Cleveland Ave to Cape Coral Bridge Rd.,,College Pkwy,R,Fort Myers,Lee,FL,33919,US,US/Eastern,KFMY,2018-11-22 08:53:00,64.0,,65.0,30.16,10.0,NE,10.4,,Clear,False,False,False,False,False,False,False,False,False,False,False,True,False,Day,Day,Day,Day
C-5821650,2,2021-11-23 18:39:04.000000000,2021-11-23 18:59:37.000000000,40.677351,-73.930995,40.676854,-73.92183399999998,0.4812639415899999,Slow traffic from Nostrand Ave (Atlantic Ave) to Saratoga Ave (Atlantic Ave) due to roadwork.,1784.0,Atlantic Ave,L,Brooklyn,Kings,NY,11213-1208,US,US/Eastern,KJRB,2021-11-23 18:51:00,36.0,32.0,41.0,30.01,10.0,VAR,5.0,0.0,Fair,True,False,True,False,False,False,False,False,False,False,False,True,False,Night,Night,Night,Night
C-5821651,4,2020-04-27 06:49:12.000000000,2020-05-01 06:48:33.000000000,40.11665,-75.34875,40.11881,-75.34665,0.185970007065,Closed at Harding Blvd/Spruce St - Closed due to roadwork.,476.0,Markley St,R,Norristown,Montgomery,PA,19401-4617,US,US/Eastern,KLOM,2020-04-27 06:55:00,40.0,36.0,92.0,29.56,10.0,NNW,6.0,0.0,Cloudy,False,False,False,False,False,False,False,False,False,False,False,True,False,Day,Day,Day,Day
C-5821652,2,2021-10-26 15:18:00.000000000,2021-10-26 18:04:58.000000000,41.929225,-87.848475,41.93027100000001,-87.846378,0.1297781399299999,Stationary traffic from Spruce St to Cherry Ave due to roadwork.,8912.0,Grand Ave,L,River Grove,Cook,IL,60171-1323,US,US/Central,KORD,2021-10-26 14:51:00,54.0,54.0,69.0,29.33,10.0,NE,9.0,0.0,Mostly Cloudy,False,False,True,False,False,False,False,False,False,False,False,False,False,Day,Day,Day,Day
C-5821653,4,2019-12-07 23:09:49.000000000,2019-12-08 04:09:30.000000000,41.81333,-71.50929000000002,41.83599,-71.51519,1.59485487353,Closed between RI-14/Plainfield Pike/Exit 4 and US-6/Hartford Ave/Exit 6 - Closed due to roadwork.,,I-295 N,R,Johnston,Providence,RI,02919,US,US/Eastern,KSFZ,2019-12-07 22:56:00,21.0,13.0,68.0,29.97,10.0,WNW,6.0,0.0,Fair,False,False,False,False,False,False,False,False,False,False,False,False,False,Night,Night,Night,Night
C-5821654,2,2020-12-01 13:05:00.000000000,2020-12-02 01:02:00.000000000,39.706843,-75.607225,39.703181,-75.605476,0.269560298365,Slow traffic on US-202 S - DE-141 S from DE-4/Exit 4 (DE-141) to I-95/Exit 2/Exit 3 (US-202/DE-141) due to roadwork.,,DE-141 S,R,New Castle,New Castle,DE,19720,US,US/Eastern,KILG,2020-12-01 12:51:00,44.0,38.0,63.0,29.56,,WSW,12.0,0.0,Cloudy,False,False,False,False,False,False,False,False,False,False,False,False,False,Day,Day,Day,Day
C-5821655,2,2020-11-23 13:44:30.000000000,2020-11-23 23:41:04.000000000,40.849396,-73.90584,40.85222,-73.903565,0.228492294213,Slow traffic from E Tremont Ave (Grand Concourse) to E 188th St (Grand Concourse) due to roadwork.,1900.0,Grand Concourse,R,Bronx,Bronx,NY,10457-5222,US,US/Eastern,KLGA,2020-11-23 13:51:00,51.0,51.0,44.0,29.93,10.0,NNW,26.0,0.0,Partly Cloudy / Windy,False,False,False,False,False,False,False,False,True,False,False,True,False,Day,Day,Day,Day
C-5821656,2,2020-12-02 17:59:53.000000000,2020-12-02 23:00:00.000000000,39.04748,-94.678813,39.04456,-94.677283,0.217818150832,Construction on I-635 SB near MERRIAM DR Construction. Right lane closed.,,I-635 S,R,Kansas City,Wyandotte,KS,66106,US,US/Central,KNKA,2020-12-02 17:54:00,45.0,45.0,42.0,29.47,10.0,CALM,0.0,0.0,Fair,False,False,False,False,False,False,False,False,False,False,False,False,False,Night,Night,Night,Day
C-5821657,2,2020-03-16 07:00:00.000000000,2020-10-11 09:13:37.000000000,40.47885,-100.648611,40.533033,-100.648767,3.74369772172,Construction on US-83 NB near RED WILLOW DAM RD Construction. Expect long delays.,,Highway 83,R,Maywood,Frontier,NE,69038,US,US/Central,KMCK,2020-03-16 06:59:00,34.0,29.0,96.0,27.42,1.0,E,6.0,0.0,Fog,False,False,False,False,False,False,False,False,False,False,False,False,False,Night,Night,Day,Day
C-5821658,2,2018-03-22 06:00:00.000000000,2018-10-31 23:59:00.000000000,39.781311,-86.119972,,,0.0,Intermittent lane closures due to construction on 10th St both ways at Tacoma Ave.,2501.0,E 10th St,R,Indianapolis,Marion,IN,46201-2154,US,US/Eastern,KEYE,2018-03-22 05:53:00,27.0,18.7,75.0,30.26,10.0,NW,8.1,,Clear,False,False,True,False,False,False,False,False,False,False,False,False,False,Night,Night,Night,Night
C-5821659,2,2021-06-13 22:04:00.000000000,2021-06-13 22:44:00.000000000,39.924556,-75.193081,39.913065,-75.178229,1.11793408641,Slow traffic on Schuylkill Expy E - I-76 E from Vare Ave/Exit 347B (I-76) to Penrose Ave/Exit 348 (I-76) due to roadwork.,,I-76 E,R,Philadelphia,Philadelphia,PA,19145,US,US/Eastern,KPHL,2021-06-13 21:54:00,70.0,70.0,65.0,29.9,10.0,S,7.0,0.0,Cloudy,False,False,False,False,False,False,False,False,False,False,False,False,False,Night,Night,Night,Day
C-5821660,3,2018-06-27 22:00:59.000000000,2018-06-28 04:00:59.000000000,41.997402,-88.095853,41.997389,-88.089762,0.312765117448,At Mitchell Rd - Roadwork.,,Elgin Ohare Expy E,R,Schaumburg,Cook,IL,60193,US,US/Central,KDPA,2018-06-27 21:52:00,71.1,,90.0,29.87,6.0,Calm,,,Clear,False,False,False,False,False,False,False,False,False,False,False,False,False,Night,Night,Night,Day
C-5821661,2,2020-10-15 09:40:30.000000000,2020-10-15 13:38:00.000000000,33.94952,-96.416561,33.957604,-96.416554,0.558551347715,Slow traffic on US-69 from US-75 Bus/US-69 Bus (US-75/US-69) to US-70 Byp (US-75/US-69) due to roadwork.,4174.0,S Highway 69,L,Durant,Bryan,OK,74701-2279,US,US/Central,KDUA,2020-10-15 09:35:00,68.0,68.0,56.0,29.2,10.0,NNE,18.0,0.0,Cloudy,False,False,False,False,False,False,False,False,False,False,False,False,False,Day,Day,Day,Day
C-5821662,2,2021-12-21 04:52:30.000000000,2021-12-21 08:01:40.532121700,38.84636500000001,-120.37417,38.848276,-120.377165,0.208346017454,Roadwork from Jones Fork Power House Rd to North El Dorado.,14208.0,Ice House Rd,R,North El Dorado,El Dorado,CA,,US,,,,,,,,,,,,,False,False,False,False,False,False,False,False,False,False,False,False,False,Night,Night,Night,Night
C-5821663,3,2019-04-30 20:00:00.000000000,2019-05-01 06:00:00.000000000,37.549713,-77.285988,,,0.0,Intermittent lane closures due to construction work on I-295 both ways at Exits 31A 31B VA-156 Airport Dr.,,I-295 N,R,Sandston,Henrico,VA,23150,US,US/Eastern,KRIC,2019-04-30 19:54:00,77.0,77.0,60.0,30.01,10.0,ESE,3.0,0.0,Cloudy,False,False,False,False,True,False,False,False,False,False,False,False,False,Night,Day,Day,Day
C-5821664,2,2021-03-17 06:38:00.000000000,2021-12-16 11:37:00.000000000,26.941422,-80.09436099999998,26.942626,-80.093161,0.1112811530309999,Slow traffic on FL-A1A Alt - FL-811 from Town Hall Ave to S State Road A1A due to roadwork.,116.0,Center St,L,Jupiter,Palm Beach,FL,33458-4313,US,US/Eastern,KSUA,2021-12-07 07:50:00,64.0,64.0,88.0,30.08,10.0,NW,5.0,0.0,Fair,False,False,False,False,False,False,False,False,False,False,False,False,False,Night,Night,Day,Day
C-5821665,2,2020-11-11 03:00:00.000000000,2020-11-11 14:45:00.000000000,43.145163,-77.54298,43.143993,-77.54469499999998,0.1183635470209999,Bridge work on NY 590 southbound under CSX Railroad Bridge (Brighton) Tuesday November 10th 2020 thru Wednesday November 11th 2020 07:00 PM thru 06:00 AM alternate lanes closure,,NY-590 S,R,Rochester,Monroe,NY,14610,US,US/Eastern,KROC,2020-11-11 02:54:00,67.0,67.0,63.0,29.24,10.0,SSW,12.0,0.0,Cloudy,False,False,False,False,False,False,False,False,False,False,False,False,False,Night,Night,Night,Night
C-5821666,2,2021-12-26 16:26:00.000000000,2021-12-26 16:47:00.000000000,37.618469,-118.824606,37.601446,-118.802213,1.69872557763,Slow traffic on US-395 S from CA-203/Minaret Rd (US-395) to South Landing Rd (US-395) due to roadwork.,,US-395 S,R,Mammoth Lakes,Mono,CA,93546,US,US/Pacific,KMMH,2021-12-26 16:37:00,27.0,11.0,51.0,22.88,3.0,SW,28.0,0.0,,False,False,False,False,False,False,False,False,False,False,False,False,False,Day,Day,Day,Day
C-5821667,4,2018-09-13 21:40:53.000000000,2018-09-14 02:38:21.000000000,25.93136,-80.20421,25.94688,-80.18536999999998,1.58750053801,Between US-441/Florida's Tpke/Exit 12 and SR-860/Miami Gardens Dr/Exit 14 - Construction work.,,I-95 N,R,Miami,Miami-Dade,FL,33169,US,US/Eastern,KHWO,2018-09-13 21:53:00,84.9,,72.0,30.0,10.0,SE,3.5,,Overcast,False,False,False,False,False,False,False,False,False,False,False,False,False,Night,Night,Night,Night
C-5821668,2,2020-10-19 02:01:00.000000000,2020-10-19 12:38:00.000000000,39.979923,-111.352947,39.995503,-111.468867,6.230292037999999,Slow traffic on US-6 from Sheep Creek Rd (US-6) to US-89 (Uinta Ntl Forest) (US-6) due to roadwork.,,US-6 E,R,Springville-Mapleton,Utah,UT,,US,,,,,,,,,,,,,False,False,False,False,True,False,False,False,False,False,False,False,False,Night,Night,Night,Night
C-5821669,2,2021-03-17 05:05:00.000000000,2021-07-12 14:17:00.000000000,33.425247,-112.08242,33.428886,-112.082378,0.251442617998,Stationary traffic from W Broadway Rd (S 7th Ave) to I-17/US-60/W Maricopa Fwy (S 7th Ave) due to roadwork.,2415.0,S 7th Ave,L,Phoenix,Maricopa,AZ,85007-4302,US,US/Mountain,KPHX,2021-03-17 04:51:00,47.0,45.0,50.0,28.87,10.0,ESE,5.0,0.0,Fair,False,False,True,False,False,False,False,False,False,False,False,True,False,Night,Night,Night,Night
C-5821670,2,2021-12-16 14:33:54.000000000,2021-12-16 16:49:07.000000000,35.364605,-97.54765,35.3633,-97.547279,0.0925583666831,Stationary traffic at Greenbriar Pl due to roadwork.,10299.0,S Pennsylvania Ave,R,Oklahoma City,Cleveland,OK,73159-6906,US,US/Central,KOKC,2021-12-16 14:52:00,56.0,56.0,24.0,28.68,10.0,NE,15.0,0.0,Partly Cloudy,False,False,True,False,False,False,False,False,False,False,False,True,False,Day,Day,Day,Day
C-5821671,2,2021-03-01 06:15:00.000000000,2021-12-31 14:57:12.000000000,33.983058,-81.192828,34.004208,-81.165944,2.12302957034,Slow traffic on I-20 E from US-1/Exit 58 (I-20) to US-378/Exit 61 (I-20) due to roadwork.,,I-20 E,R,Lexington,Lexington,SC,29073,US,US/Eastern,KCAE,2021-12-15 06:56:00,38.0,38.0,76.0,30.24,10.0,CALM,0.0,0.0,Fair,False,False,False,False,False,False,False,False,False,False,False,False,False,Night,Night,Day,Day
C-5821672,2,2018-12-04 09:03:53.000000000,2018-12-10 09:02:09.000000000,33.68128,-84.40771,33.68128,-84.414487,0.389644140311,Between Metropolitan Pkwy SW and Springdale Rd - Construction work.,584.0,Cleveland Ave SW,L,Atlanta,Fulton,GA,30315,US,US/Eastern,KATL,2018-12-04 08:52:00,41.0,33.9,62.0,30.14,10.0,NNW,12.7,,Scattered Clouds,False,False,True,False,False,False,False,False,False,False,False,True,False,Day,Day,Day,Day
C-5821673,2,2021-05-13 05:00:00.000000000,2021-05-13 21:46:00.000000000,34.124511,-114.511002,34.188261,-114.574042,5.69145504298,Construction on US-95 NB near SBD COUNTY LINE Expect long delays.,4793.0,US Highway 95,L,Vidal,San Bernardino,CA,92280,US,US/Pacific,KBLH,2021-05-13 04:52:00,66.0,66.0,24.0,29.48,10.0,NNE,7.0,0.0,Fair,False,False,False,False,False,False,False,False,False,False,False,False,False,Night,Night,Day,Day
C-5821674,2,2021-06-07 09:08:32.000000000,2021-06-10 03:07:13.000000000,40.360308,-76.359052,40.369235,-76.333694,1.47056980886,Roadwork on US 422 both directions between PRESCOTT DR and RAMONA RD. There is a lane restriction.,2600.0,E Cumberland St,R,Lebanon,Lebanon,PA,17042-9215,US,US/Eastern,KMUI,2021-06-07 08:56:00,78.0,78.0,76.0,29.59,10.0,CALM,0.0,0.0,Cloudy,False,False,True,False,False,False,False,False,False,False,False,True,False,Day,Day,Day,Day
C-5821675,2,2021-08-29 05:58:30.000000000,2021-08-29 06:33:00.000000000,39.843269,-75.39703,39.839669,-75.409225,0.693129103652,Slow traffic on US-322 W - Vietnam Veterans Memorial Hwy - I-95 S from US-322/Exit 4 (I-95) to US-322/Exit 2/Exit 3 (I-95) due to roadwork.,,I-95 S,R,Chester,Delaware,PA,19013,US,US/Eastern,KPHL,2021-08-29 05:54:00,69.0,69.0,81.0,30.18,10.0,NE,8.0,0.0,Cloudy,False,False,False,False,False,False,False,False,False,False,False,False,False,Night,Day,Day,Day
C-5821676,2,2021-09-24 17:57:30.000000000,2021-09-24 20:04:40.000000000,41.647439,-91.54231,41.646602,-91.540223,0.122290710628,Stationary traffic on IA-1 from Orchard St to Airport Rd due to roadwork.,123.0,Highway 1 W,L,Iowa City,Johnson,IA,52246-4201,US,US/Central,KIOW,2021-09-24 17:52:00,63.0,63.0,67.0,29.2,10.0,NW,12.0,0.0,Light Rain,False,False,True,False,False,False,False,False,False,False,False,True,False,Day,Day,Day,Day
C-5821677,2,2019-07-18 10:24:00.000000000,2019-07-22 10:23:46.000000000,42.337108,-71.084373,42.338431,-71.081968,0.1531118246749999,At Northampton St - Roadwork.,981.0,Tremont St,L,Roxbury Crossing,Suffolk,MA,02120-2258,US,US/Eastern,KBOS,2019-07-18 10:06:00,68.0,68.0,73.0,29.99,2.0,NE,14.0,0.0,Light Rain,True,False,True,False,False,False,False,False,False,False,False,False,False,Day,Day,Day,Day
C-5821678,2,2020-06-01 07:00:00.000000000,2020-10-31 22:59:00.000000000,43.15731,-77.6895,43.15731,-77.6895,0.0,At I-390/Exit 9 - Construction work.,,I-490 E,R,Rochester,Monroe,NY,14606,US,US/Eastern,KROC,2020-06-01 06:54:00,49.0,47.0,93.0,29.64,10.0,WSW,5.0,0.0,Mostly Cloudy,False,False,False,False,True,False,False,False,False,False,False,False,False,Day,Day,Day,Day
C-5821679,2,2017-06-21 09:59:59.000000000,2017-06-21 16:02:07.000000000,40.07149,-75.621471,40.07853,-75.63428,0.83380193676,At PA-113/Uwchlan Ave - Roadwork. Traffic problem.,1411.0,Conestoga Rd,L,Chester Springs,Chester,PA,19425-1904,US,US/Eastern,KOQN,2017-06-21 09:55:00,77.0,77.0,61.0,29.28,10.0,W,8.0,0.0,Partly Cloudy,False,False,False,False,False,False,False,False,False,False,False,False,False,Day,Day,Day,Day
C-5821680,2,2021-12-16 19:28:00.000000000,2021-12-16 21:29:15.000000000,33.450489000000005,-111.954604,33.451477000000004,-111.955521,0.0863399955515,Stationary traffic from N Mill Ave to Papago Park / E Moreland St due to roadwork.,5977.0,E Van Buren St,R,Phoenix,Maricopa,AZ,85008-3410,US,US/Mountain,KPHX,2021-12-16 19:51:00,53.0,53.0,55.0,28.75,10.0,SW,3.0,0.0,Fair,False,False,False,False,False,False,False,False,False,False,False,False,False,Night,Night,Night,Night
C-5821681,2,2021-06-16 22:05:00.000000000,2021-06-17 02:45:00.000000000,42.053206,-94.629019,42.034593,-94.164602,23.8643384832,Construction on US-30 EB near COUNTY HWY-N50 Allow extra time.,400.0,220th St,R,Scranton,Greene,IA,51462-7638,US,US/Central,KCIN,2021-06-16 21:55:00,81.0,81.0,61.0,28.67,10.0,ESE,7.0,0.0,Fair,False,False,False,False,False,False,False,False,False,False,False,False,False,Night,Night,Day,Day
C-5821682,2,2021-12-16 07:26:00.000000000,2021-12-16 12:34:30.000000000,33.601244,-86.650725,33.631564000000004,-86.626365,2.52056380905,Slow traffic on I-59 N from I-459/Exit 137 (I-59) to Chalkville Mountain Rd/Exit 141 (I-59) due to roadwork.,,I-59 N,R,Birmingham,Jefferson,AL,35235,US,US/Central,KBHM,2021-12-16 07:53:00,58.0,58.0,87.0,29.54,10.0,SSE,5.0,0.0,Mostly Cloudy,False,False,False,False,False,False,False,False,False,False,False,False,False,Day,Day,Day,Day
C-5821683,2,2020-10-29 17:01:30.000000000,2020-10-29 17:49:02.000000000,30.067615000000004,-94.134709,30.041058000000003,-94.154308,2.17731902706,Slow traffic on I-10 from Calder St/Exit 852 (I-10) to Walden Rd/Exit 846 (I-10) due to roadwork.,,I-10 W,R,Beaumont,Jefferson,TX,77701,US,US/Central,KBMT,2020-10-29 17:10:00,63.0,63.0,55.0,30.01,10.0,NW,17.0,0.0,Partly Cloudy,False,False,False,False,False,False,False,False,False,False,False,False,False,Day,Day,Day,Day
C-5821684,2,2021-11-18 16:44:44.000000000,2021-11-18 19:13:54.000000000,27.84613,-82.38154,27.85101400000001,-82.381884,0.338106014543,Stationary traffic on FL-45 - US-41 N from Symmes Rd (US-41) to CR-676A/Pendola Point Rd/Madison Ave (US-41) due to roadwork.,10798.0,S US Highway 41,R,Gibsonton,Hillsborough,FL,33534,US,US/Eastern,KTPF,2021-11-18 16:35:00,73.0,73.0,88.0,30.11,7.0,CALM,0.0,0.0,Drizzle,False,False,False,False,False,False,False,False,True,False,False,False,False,Day,Day,Day,Day
C-5821685,2,2019-10-19 21:01:33.000000000,2019-10-23 21:01:09.000000000,33.842859999999995,-84.37098,33.85407,-84.38238,1.0138252920200002,Between E Wesley Rd NE and US-19/GA-9/Roswell Rd - Construction work. Right lane blocked.,3155.0,Piedmont Rd NE,R,Atlanta,Fulton,GA,30305-2516,US,US/Eastern,KPDK,2019-10-19 20:53:00,53.0,53.0,93.0,28.71,10.0,NE,9.0,0.0,Cloudy,False,False,False,False,False,False,False,False,False,False,False,False,False,Night,Night,Night,Night
C-5821686,4,2021-01-22 22:00:00.000000000,2021-01-25 13:00:00.000000000,47.614542,-122.332946,47.615462,-122.330726,0.121376080189,Closed road from Stewart St (Olive Way) to I-5/Melrose Ave (Olive Way) due to roadwork.,1701.0,9th Ave,L,Seattle,King,WA,98101,US,US/Pacific,KBFI,2021-01-22 21:53:00,35.0,35.0,82.0,30.1,10.0,CALM,0.0,0.0,Fair,True,False,True,False,False,False,False,False,True,False,False,True,False,Night,Night,Night,Night
C-5821687,2,2021-12-23 11:16:45.000000000,2021-12-23 13:16:46.000000000,30.401901,-90.019952,30.425834,-90.070224,3.4216027435000003,Stationary traffic on I-12 W from LA-1088/Exit 68 (I-12) to US-190 (I-12) due to roadwork.,,I-12 W,R,Mandeville,St. Tammany,LA,70471,US,US/Central,KASD,2021-12-23 10:53:00,62.0,62.0,56.0,30.21,10.0,SSE,6.0,0.0,Fair,False,False,False,False,False,False,False,False,False,False,False,False,False,Day,Day,Day,Day
C-5821688,2,2021-10-05 17:48:51.000000000,2021-10-05 20:01:49.000000000,40.635258,-73.927461,40.633228,-73.92944399999998,0.174596132802,Stationary traffic from NY-27/Remsen Ave/Linden Blvd (Kings Hwy) to Flatbush Ave (Kings Hwy) due to roadwork.,,Kings Hwy,R,Brooklyn,Kings,NY,11234,US,US/Eastern,KJRB,2021-10-05 17:51:00,63.0,63.0,84.0,30.17,10.0,ENE,3.0,0.0,Cloudy,False,False,False,False,False,False,False,False,True,False,False,True,False,Day,Day,Day,Day
C-5821689,2,2020-12-17 14:10:00.000000000,2020-12-17 22:22:07.000000000,26.682195,-81.897481,26.681167,-81.90150200000002,0.258202090573,Slow traffic on FL-78 - FL-45 - US-41 S from Woodward Ave to Pineapple Ln due to roadwork.,496.0,Pine Island Rd,R,North Fort Myers,Lee,FL,33903-3746,US,US/Eastern,KFMY,2020-12-17 13:53:00,71.0,71.0,70.0,30.05,10.0,NW,8.0,0.0,Mostly Cloudy,False,False,False,False,False,False,False,False,False,False,False,True,False,Day,Day,Day,Day
C-5821690,4,2019-05-04 06:52:27.000000000,2019-05-04 11:43:53.000000000,39.63809000000001,-84.17151899999998,39.63072,-84.20796,2.0048083249,Closed at OH-725/Exit 2 - Closed due to roadwork.,,I-675 S,R,Dayton,Montgomery,OH,45459,US,US/Eastern,KMGY,2019-05-04 06:53:00,56.0,56.0,87.0,28.92,3.0,NNW,7.0,0.0,Mostly Cloudy,False,False,False,False,False,False,False,False,False,False,False,False,False,Day,Day,Day,Day
C-5821691,2,2019-10-28 00:00:00.000000000,2019-11-29 00:00:00.000000000,47.569881,-122.370697,,,1.22000002861,Intermittent lane closures due to construction on Avalon Way both ways from Genesee St to Charlestown St.,2300.0,SW Charlestown St,L,Seattle,King,WA,98126,US,US/Pacific,KBFI,2019-10-28 00:53:00,38.0,38.0,83.0,30.33,10.0,CALM,0.0,0.0,Fair,False,False,True,False,False,False,False,False,True,False,False,False,False,Night,Night,Night,Night
C-5821692,2,2018-09-21 20:00:00.000000000,2018-09-22 08:00:00.000000000,38.558968,-122.82019,,,1.65999996662,Exit ramp from US-101 Northbound to Arata Lane closed due to construction.,,US-101 N,R,Windsor,Sonoma,CA,95492,US,US/Pacific,KSTS,2018-09-21 19:53:00,55.9,,90.0,29.94,9.0,SSE,8.1,,Partly Cloudy,False,False,False,False,True,False,False,False,False,False,False,False,False,Night,Night,Day,Day
C-5821693,2,2020-11-04 15:48:00.000000000,2020-11-04 17:29:30.000000000,44.67641500000001,-103.458794,44.676964,-103.480243,1.05450046528,Stationary traffic on US-212 from SD-79 (US-212) to US-212 Bus/US-85/5th Ave (US-212) due to roadwork.,,US Highway 212,R,Newell,Butte,SD,57760,US,US/Mountain,KEFC,2020-11-04 15:56:00,70.0,70.0,21.0,26.68,10.0,N,9.0,0.0,Fair,False,False,False,False,False,False,False,False,False,False,False,False,False,Day,Day,Day,Day
C-5821694,2,2021-02-06 20:19:00.000000000,2021-02-07 00:25:03.000000000,43.658475,-89.01639,43.666702,-89.021487,0.622912453371,Roadwork on N County Line Rd (WI-73) from CR-X (WI-73) to WI-73.,,N812 State Road 73,R,Markesan,Green Lake,WI,53946-7231,US,US/Central,KUNU,2021-02-06 20:15:00,0.0,-13.0,69.0,29.04,10.0,WSW,7.0,0.0,Fair,False,False,False,False,False,False,False,False,False,False,False,False,False,Night,Night,Night,Night
C-5821695,4,2016-09-06 10:36:54.000000000,2016-09-06 16:36:54.000000000,37.01184,-121.61926,37.011858,-121.61994,0.0375374717370999,Closed at Elks Dr - Closed due to roadwork.,2501.0,Hecker Pass Rd,R,Gilroy,Santa Clara,CA,95020-9402,US,US/Pacific,KE16,2016-09-06 10:35:00,69.8,,46.0,29.91,10.0,Calm,,,Clear,False,False,False,False,False,False,False,False,False,False,False,False,False,Day,Day,Day,Day
C-5821696,2,2020-01-29 21:30:00.000000000,2020-01-30 05:30:00.000000000,39.98535,-104.98808,39.98535,-104.98808,0.0,At E-470/Northwest Pky - Construction work.,,I-25 S,R,Broomfield,Broomfield,CO,80023,US,US/Mountain,KEIK,2020-01-29 21:23:00,32.0,32.0,94.0,24.93,7.0,CALM,0.0,0.0,Partly Cloudy,False,False,False,False,False,False,False,False,False,False,False,False,False,Night,Night,Night,Night
C-5821697,2,2021-06-28 22:27:00.000000000,2021-06-28 22:41:00.000000000,42.293854,-71.483241,42.280704,-71.51499100000002,1.85989691125,Slow traffic on I-90 W - Massachusetts Tpke W from MA-9/Exit 12 (I-90) to I-495/Exit 11 (I-90) due to roadwork.,,I-90 W,R,Framingham,Middlesex,MA,01702,US,US/Eastern,KOWD,2021-06-28 22:53:00,83.0,83.0,69.0,30.09,10.0,SSW,6.0,0.0,Fair,False,False,False,False,False,False,False,False,False,False,False,False,False,Night,Night,Night,Day
C-5821698,2,2020-09-15 15:30:00.000000000,2020-09-16 16:15:00.000000000,39.999223,-78.243346,39.999162,-78.247276,0.208054670481,Roadwork on US 30 westbound between MUNICIPAL RD and E GRACEVILLE RD. There is a lane restriction.,,Municipal Rd,R,Breezewood,Bedford,PA,15533,US,US/Eastern,KHMZ,2020-09-15 15:53:00,65.0,65.0,43.0,28.67,10.0,SE,5.0,0.0,Fair,False,False,False,False,False,False,False,False,False,False,False,False,False,Day,Day,Day,Day
C-5821699,2,2021-10-26 02:47:55.000000000,2021-11-13 00:59:59.000000000,46.998565,-109.81357,46.983027,-109.747464,3.2953383196599995,Roadwork on Central Ave/MT-239 (US-87) from US-191 (US-87) to US-87 N - MT-200 - US-87 S.,,US Highway 87,R,Hobson,Judith Basin,MT,59452,US,US/Mountain,KLWT,2021-10-26 02:41:00,43.0,39.0,93.0,25.36,10.0,WSW,7.0,0.0,Cloudy,False,False,False,False,False,False,False,False,False,False,False,False,False,Night,Night,Night,Night
C-5821700,2,2021-06-01 18:00:00.000000000,2021-12-28 10:34:00.000000000,40.277523,-106.964908,40.323408,-106.958831,3.1864831134,Roadwork on CR-27 (W Main St/CO-131) from CR-35 (CO-131) to CO-131.,24598.0,Highway 131,R,Oak Creek,Routt,CO,80467-9627,US,US/Mountain,K3MW,2021-12-24 16:55:00,29.0,29.0,96.0,22.94,10.0,E,3.0,,Partly Cloudy,False,False,False,False,False,False,False,False,False,False,False,False,False,Day,Day,Day,Day
C-5821701,4,2020-12-15 14:00:30.000000000,2021-01-07 18:07:22.000000000,40.35636,-79.81641,40.359554,-79.81456,0.2412237359519999,Roadwork on FOSTER RD / STATE ST / LINCOLN WY both directions at CARMELLA DR. All lanes closed.,3298.0,Foster Rd,L,White Oak,Allegheny,PA,15131-1243,US,US/Eastern,KAGC,2020-12-15 13:53:00,32.0,32.0,50.0,28.95,10.0,CALM,0.0,0.0,Fair,False,False,False,False,False,False,False,False,False,False,False,False,False,Day,Day,Day,Day
C-5821702,2,2020-11-06 11:57:00.000000000,2020-11-07 04:01:30.000000000,40.57743,-75.802816,40.576054,-75.76465999999998,2.00464058715,Slow traffic on I-78 from PA-143/Exit 35 (I-78) to PA-863/Exit 45 (I-78) due to roadwork.,,I-78 E,R,Lenhartsville,Berks,PA,19534,US,US/Eastern,KRDG,2020-11-06 11:54:00,69.0,69.0,49.0,29.88,10.0,VAR,5.0,0.0,Fair,False,False,False,False,False,False,False,False,False,False,False,False,False,Day,Day,Day,Day
C-5821703,3,2021-11-10 04:18:53.000000000,2021-11-10 06:00:00.000000000,42.994125,-78.928032,,,1.57000005245,Two lanes closed due to construction on I-190 Westbound from Exit 16 I-290 to Exit 17 NY-266 River Rd.,,I-190 N,R,Tonawanda,Erie,NY,14150,US,US/Eastern,KBUF,2021-11-10 03:54:00,48.0,45.0,86.0,29.32,10.0,W,6.0,0.0,Partly Cloudy,False,False,False,False,False,False,False,False,False,False,False,False,False,Night,Night,Night,Night
C-5821704,2,2020-11-06 17:24:00.000000000,2020-11-07 18:17:09.000000000,40.330988,-75.452843,40.334679,-75.449754,0.302501912476,Construction on SWAMP CREEK RD near GERYVILLE PIKE Allow extra time.,2898.0,Swamp Creek Rd,R,Green Lane,Montgomery,PA,18054-2252,US,US/Eastern,KUKT,2020-11-06 17:15:00,63.0,63.0,48.0,29.67,10.0,SSW,3.0,0.0,Fair,False,False,False,False,False,False,False,False,False,False,False,False,False,Night,Night,Day,Day
C-5821705,2,2020-07-29 02:00:00.000000000,2020-07-29 12:45:00.000000000,43.10373,-87.918176,43.059013,-87.923152,3.09983828459,Construction on I-43 SB near W HAMPTON AVE Drive with caution.,,I-43 S,R,Milwaukee,Milwaukee,WI,53217,US,US/Central,KMWC,2020-07-29 01:55:00,72.0,72.0,69.0,29.08,10.0,WSW,5.0,0.0,Fair,False,False,False,False,False,False,False,False,False,False,False,False,False,Night,Night,Night,Night
C-5821706,2,2020-09-28 13:00:00.000000000,2020-09-29 02:58:12.000000000,43.661868,-116.354308,43.662981,-116.353512,0.0865838268338,Stationary traffic on US-20 W - ID-55 - US-20 E - US-26 E - US-26 W from W Bristol Heights Dr / W Hobble Creek Dr to Stone Rd due to roadwork.,6286.0,N Eagle Rd,L,Boise,Ada,ID,83713-0955,US,US/Mountain,KBOI,2020-09-28 12:56:00,68.0,68.0,27.0,27.41,10.0,S,5.0,0.0,Fair,False,False,True,False,False,False,False,False,False,False,False,False,False,Day,Day,Day,Day
C-5821707,2,2019-11-12 05:13:14.000000000,2019-11-17 23:59:00.000000000,36.21468,-83.292824,,,0.0,Intermittent lane closures due to construction work on TN-343 Cumberland St both ways at TN-66 1st North St.,,N Cumberland St,R,Morristown,Hamblen,TN,37814,US,US/Eastern,K0VG,2019-11-12 05:13:00,34.0,25.0,89.0,28.45,1.0,N,14.0,0.01,Light Snow,False,False,False,False,False,False,False,False,False,False,False,True,False,Night,Night,Night,Night
C-5821708,2,2021-07-11 14:35:38.000000000,2021-07-11 20:35:30.000000000,41.747131,-85.700047,41.741518,-85.729683,1.57625581441,Slow traffic on I-90 W - I-80 W - Indiana East-West Toll Rd W from IN-13/Exit 107 (I-90/I-80) to IN-15/Exit 101 (I-90/I-80) due to roadwork.,,I-80 W,R,Middlebury,Elkhart,IN,46540,US,US/Eastern,KGSH,2021-07-11 14:53:00,67.0,67.0,90.0,29.07,2.0,NE,9.0,0.01,Light Rain,False,False,False,False,False,False,False,False,False,False,False,False,False,Day,Day,Day,Day
C-5821709,2,2021-10-06 19:38:00.000000000,2021-10-10 03:00:38.000000000,40.215574,-79.625401,40.208507,-79.677278,2.7804434324900003,Roadwork on W Pennsylvania Ave/N Center Ave (I-70) from Exit 53 (I-70) to I-70 W.,,I-70 W,R,Hunker,Westmoreland,PA,15639,US,US/Eastern,KLBE,2021-10-06 19:47:00,,,,29.03,20.0,CALM,0.0,0.0,Fair,False,False,False,False,True,False,False,False,False,False,False,False,False,Night,Night,Day,Day
C-5821710,2,2019-03-28 22:06:00.000000000,2020-07-17 05:11:28.000000000,39.948939,-76.68083100000003,39.967111,-76.689382,1.33474229568,Roadwork on I-83 northbound between 0 miles south of Exit 18: PA 124 - MT ROSE AVENUE and .1 miles south of Exit 19: PA 462 - MARKET ST. There is a lane restriction.,,I-83 N,R,York,York,PA,17403,US,US/Eastern,KTHV,2019-03-28 21:53:00,48.9,,56.0,30.2,10.0,SSE,5.8,,Partly Cloudy,False,False,False,False,False,False,False,False,False,False,False,False,False,Night,Night,Night,Night
C-5821711,2,2021-04-21 05:39:00.000000000,2021-09-08 17:45:58.000000000,28.313613,-82.505887,28.321229,-82.503132,0.552253215792,Slow traffic on FL-45 - US-41 S - US-41 N from CR-583/Ehren Cutoff (US-41) to FL-52 (US-41) due to roadwork.,10724.0,Land O'Lakes Blvd,R,Land O Lakes,Pasco,FL,34638,US,US/Eastern,KBKV,2021-04-21 05:53:00,64.0,64.0,96.0,29.9,0.25,CALM,0.0,0.0,Fog,False,False,False,False,False,False,False,False,False,False,False,True,False,Night,Night,Night,Day
C-5821712,2,2017-11-18 09:00:38.000000000,2017-11-18 15:00:38.000000000,40.75325,-74.02609,40.7356,-74.03143,1.25112612106,Between 15th St and Observer Hwy - Construction work.,100.0,14th St,R,Hoboken,Hudson,NJ,07030-5553,US,US/Eastern,KJRB,2017-11-18 08:56:00,45.0,40.1,60.0,,10.0,WSW,9.2,,Clear,True,False,True,False,False,False,False,False,False,False,False,True,False,Day,Day,Day,Day
C-5821713,2,2021-10-05 12:35:34.000000000,2021-11-16 23:03:00.000000000,32.743536,-96.757704,32.736188,-96.757763,0.507710025759,Slow traffic on TX-310 S from US-175/Hawn Fwy (S Central Expy/TX-310) to E Overton Rd (S Central Expy/TX-310) due to roadwork.,,S Central Expy,R,Dallas,Dallas,TX,75215,US,US/Central,KDAL,2021-11-16 22:53:00,69.0,69.0,68.0,29.37,10.0,S,15.0,0.0,Fair,False,False,False,False,False,False,False,False,False,False,False,False,False,Day,Day,Day,Day
C-5821714,2,2021-11-08 14:05:00.000000000,2021-11-09 00:58:56.000000000,37.569519,-88.955215,37.542769,-88.931925,2.24575491848,Roadwork on I-57/Exit 44 (I-24) from CR-12/Exit 7 (I-24) to I-24 E.,,I-24 E,R,Goreville,Johnson,IL,62939,US,US/Central,KMWA,2021-11-08 13:45:00,70.0,70.0,43.0,29.69,20.0,SSW,12.0,0.0,Fair,False,False,False,False,False,False,False,False,False,False,False,False,False,Day,Day,Day,Day
C-5821715,2,2021-09-30 08:51:00.000000000,2021-09-30 09:11:00.000000000,40.917431,-85.471733,40.906121,-85.480953,0.917838749836,Stationary traffic on IN-9 from W 1200 N (N 100 W/IN-9) to US-24/N Mishler Rd (IN-9) due to roadwork.,1001.0,W 600 N,R,Huntington,Huntington,IN,46750,US,US/Eastern,KFWA,2021-09-30 08:54:00,54.0,54.0,83.0,29.33,10.0,ENE,6.0,0.0,Mostly Cloudy,False,False,False,False,False,False,False,False,False,False,False,False,False,Day,Day,Day,Day
C-5821716,2,2021-10-13 07:06:00.000000000,2021-10-13 09:07:48.000000000,34.009516999999995,-118.07761200000002,34.010933,-118.082108,0.275464215481,Slow traffic from I-605/San Gabriel River Fwy (Beverly Blvd) to Paramount Blvd (Beverly Blvd) due to roadwork.,,Beverly Blvd,R,Pico Rivera,Los Angeles,CA,90660,US,US/Pacific,KEMT,2021-10-13 06:53:00,49.0,49.0,61.0,29.85,10.0,CALM,0.0,0.0,Fair,False,False,False,False,False,False,False,False,False,False,False,False,False,Day,Day,Day,Day
C-5821717,2,2020-11-20 20:02:50.000000000,2020-11-20 22:48:44.000000000,40.752294,-73.983954,40.75413,-73.988331,0.261870205154,Slow traffic from 5th Ave (E 39th St) to 8th Ave (W 39th St) due to roadwork.,34.0,W 39th St,L,New York,New York,NY,10018-4077,US,US/Eastern,KNYC,2020-11-20 19:51:00,59.0,59.0,41.0,30.16,10.0,WSW,7.0,0.0,Fair,True,False,False,False,False,False,True,False,False,False,False,True,False,Night,Night,Night,Night
C-5821718,2,2021-11-02 00:45:30.000000000,2021-11-02 01:07:30.000000000,40.250483,-74.87117099999998,40.237913,-74.881721,1.03144319888,Stationary traffic on I-295 W from Taylorsville Rd/Exit 51 (I-95) to PA-332/Exit 49 (I-95) due to roadwork.,,I-295 W,R,Morrisville,Bucks,PA,19067,US,US/Eastern,KTTN,2021-11-02 00:53:00,46.0,46.0,66.0,29.96,10.0,WNW,3.0,0.0,Fair,False,False,False,False,True,False,False,False,False,False,False,False,False,Night,Night,Night,Night
C-5821719,2,2016-10-03 11:10:47.000000000,2016-10-03 18:00:00.000000000,33.55323,-116.70064,33.55509,-116.674755,1.49598723061,At Contreras Rd - Resurfacing work. Single alternate lane traffic.,54598.0,Cahuilla Rd,L,Anza,Riverside,CA,92539,US,US/Pacific,KPSP,2016-10-03 10:53:00,77.0,,29.0,29.93,10.0,NW,17.3,,Clear,False,False,False,False,False,False,False,False,False,False,False,False,False,Day,Day,Day,Day
C-5821720,2,2021-03-17 09:17:00.000000000,2021-10-25 17:46:36.000000000,37.579411,-77.321938,37.581101,-77.328588,0.3823951385549999,On I-295 North in the County of Hanover from mile marker 34 to mile marker 35 motorists can expect potential delays in this area from 03/17/21 at 9:17 AM until 03/17/21 at 3:00 PM due to maintenance activities.,,I-295 N,R,Mechanicsville,Hanover,VA,23111,US,US/Eastern,KRIC,2021-03-17 08:54:00,43.0,39.0,97.0,29.96,1.0,N,7.0,0.0,Light Drizzle,False,False,False,False,True,False,False,False,False,False,False,False,False,Day,Day,Day,Day
C-5821721,2,2021-12-23 12:42:02.000000000,2021-12-23 14:53:15.000000000,27.819285,-82.679462,27.821140000000003,-82.6802,0.135870788693,Stationary traffic on US-19 N from 52nd Ave N to 35th Way N due to roadwork.,5201.0,34th St N,R,Saint Petersburg,Pinellas,FL,33714-2400,US,US/Eastern,KSPG,2021-12-23 12:53:00,65.0,65.0,34.0,30.14,10.0,VAR,7.0,0.0,Fair,False,False,True,False,False,False,False,False,False,False,False,False,False,Day,Day,Day,Day
C-5821723,4,2020-06-25 06:01:55.000000000,2020-06-26 17:00:00.000000000,43.03827,-87.96953,43.03704000000001,-87.97299,0.194303660499,Closed at N 68th St - Closed due to roadwork.,899.0,N 45th St,R,Milwaukee,Milwaukee,WI,53208,US,US/Central,KMWC,2020-06-25 05:55:00,57.0,57.0,82.0,29.13,10.0,W,5.0,0.0,Fair,False,False,True,False,False,False,False,False,False,False,False,False,False,Day,Day,Day,Day
C-5821724,4,2021-07-11 18:23:29.000000000,2021-07-18 23:59:00.000000000,25.764806,-80.25106099999998,25.764692,-80.25514100000002,0.253998495674,US-41 S - US-41 N is closed from FL-9/27th Ave (US-41) to Douglas Rd/37th Ave (US-41) due to roadwork.,710.0,SW 34th Ave,R,Miami,Miami-Dade,FL,33135-4116,US,US/Eastern,KMIA,2021-07-11 17:53:00,87.0,87.0,57.0,30.07,10.0,ESE,20.0,0.0,Mostly Cloudy,True,False,True,False,False,False,False,False,True,False,False,True,False,Day,Day,Day,Day
C-5821725,2,2021-11-15 17:58:00.000000000,2021-11-15 20:09:08.000000000,33.494683,-112.217681,33.494170000000004,-112.220564,0.169857084091,Stationary traffic from N 73rd Ave to W Clarendon Ave due to roadwork.,7368.0,W Indian School Rd,R,Phoenix,Maricopa,AZ,85033-3136,US,US/Mountain,KGEU,2021-11-15 17:56:00,75.0,75.0,21.0,28.85,10.0,WSW,3.0,0.0,Fair,False,False,False,False,False,False,False,False,True,False,False,False,False,Night,Night,Day,Day
C-5821726,2,2021-10-16 18:11:00.000000000,2021-10-16 21:03:17.000000000,33.464105,-112.097862,33.465859,-112.10078500000002,0.2075389156879999,Slow traffic from I-10 W to I-17 N due to roadwork.,1717.0,W Willetta St,L,Phoenix,Maricopa,AZ,85007,US,US/Mountain,KPHX,2021-10-16 17:51:00,90.0,90.0,11.0,28.72,10.0,ENE,7.0,0.0,Fair,False,False,True,False,False,False,True,False,False,True,False,False,False,Night,Day,Day,Day
C-5821727,3,2017-10-27 22:00:00.000000000,2017-10-28 10:00:00.000000000,47.2411,-122.38562,,,1.94000005722,Intermittent lane closures and narrow lanes due to construction on I-5 Northbound between Portland Ave and Port of Tacoma Rd.,,I-5 N,R,Tacoma,Pierce,WA,98424,US,US/Pacific,KTCM,2017-10-27 21:58:00,44.4,,100.0,30.11,10.0,Calm,,,Clear,False,False,False,False,False,False,False,False,False,False,False,False,False,Night,Night,Night,Night
C-5821728,3,2020-06-10 14:05:03.000000000,2020-06-16 11:49:23.000000000,39.59531,-86.37623,39.60211,-86.37425999999998,0.48139889881,At State Road 67 - Bridge maintenance work.,,Pleiades Dr,R,Mooresville,Morgan,IN,46158,US,US/Eastern,KIND,2020-06-10 13:54:00,82.0,82.0,65.0,28.77,10.0,SW,23.0,0.0,Mostly Cloudy / Windy,False,False,False,False,False,False,False,False,False,False,False,True,False,Day,Day,Day,Day
C-5821729,4,2020-06-11 00:49:59.000000000,2020-06-11 05:49:23.000000000,43.10186,-77.44193,43.10118,-77.44194,0.046986233629,Closed at Packetts Lndg - Closed due to roadwork.,1.0,N Main St,L,Fairport,Monroe,NY,14450-1542,US,US/Eastern,KROC,2020-06-11 00:54:00,69.0,69.0,90.0,29.15,10.0,WNW,12.0,0.02,Light Rain with Thunder,True,False,True,False,False,False,False,False,False,False,False,False,False,Night,Night,Night,Night
C-5821730,2,2021-06-17 16:11:33.000000000,2021-06-17 18:16:11.000000000,41.86756,-87.622881,41.866969,-87.62419,0.0787641381441,Slow traffic from S Indiana Ave to E 13th St due to roadwork.,,E Roosevelt Rd,R,Chicago,Cook,IL,60605,US,US/Central,KMDW,2021-06-17 15:53:00,88.0,88.0,27.0,29.26,10.0,SW,10.0,0.0,Fair,True,False,True,False,False,False,False,False,True,False,False,True,False,Day,Day,Day,Day
C-5821731,2,2021-09-30 13:47:30.000000000,2021-09-30 14:04:30.000000000,32.32524,-101.199464,32.336243,-101.129227,4.17046842818,Slow traffic on I-20 E from Howard Field Rd/Exit 194 (I-20) to CR-270/Exit 200 (I-20) due to roadwork.,,I-20 E,R,Coahoma,Howard,TX,79511,US,US/Central,KBPG,2021-09-30 13:55:00,65.0,,93.0,27.31,10.0,,,0.06,T-Storm,False,False,False,False,False,False,False,False,False,False,False,False,False,Day,Day,Day,Day
C-5821732,2,2021-03-16 22:25:30.000000000,2021-03-17 01:54:30.000000000,36.39018400000001,-104.595261,36.445844,-104.595251,3.8457397723,Slow traffic on US-85 N - I-25 N from US-85/Exit 414 (I-25) to NM-58/Exit 419 (I-25) due to roadwork.,,I-25 N,R,Springer,Colfax,NM,87747,US,US/Mountain,KRTN,2021-03-16 22:46:00,32.0,18.0,69.0,23.52,2.0,N,28.0,0.0,Light Snow / Windy,False,False,False,False,True,False,False,False,False,False,False,False,False,Night,Night,Night,Night
C-5821733,2,2021-12-03 07:08:00.000000000,2021-12-03 07:28:30.000000000,34.252286,-86.22601999999998,34.258219,-86.217176,0.650488682139,Stationary traffic on County Hwy-34 - AL-75 from Edmondson St (AL-75) to S Broad St/S Hambrick St (AL-75) due to roadwork.,999.0,Strickland St,L,Albertville,Marshall,AL,35950-2565,US,US/Central,K8A0,2021-12-03 07:15:00,50.0,50.0,87.0,29.01,10.0,WSW,3.0,0.0,Fair,False,False,False,False,False,False,False,False,False,False,False,False,False,Day,Day,Day,Day
C-5821734,2,2021-11-22 00:00:00.000000000,2021-11-26 23:59:59.000000000,41.256807,-73.98383299999998,41.25445300000001,-73.985621,0.187294393734,Utility work on US 9W both directions between Free Hill Road (Stony Point) and Boulderberg Avenue (Stony Point) 20170868109 - 29422209 Monday November 15th 2021 thru Tuesday November 23rd 2021 Monday thru Friday 09:00 AM thru 04:00 PM alternate lanes closed Monday November 29th 2021 10:00 AM thru 10:00 PM alternate lanes closed Wednesday December 1st 2021 thru Friday December 3rd 2021 Wednesday/ Thursday/ Friday 09:00 AM thru 04:00 PM alternate lanes closed Monday December 6th 2021 thru Wednesday December 22nd 2021 Monday thru Friday 09:00 AM thru 04:00 PM alternate lanes closed,422.0,N Liberty Dr,R,Tomkins Cove,Rockland,NY,10986-1506,US,US/Eastern,KSWF,2021-11-22 00:45:00,50.0,50.0,82.0,29.37,10.0,SW,6.0,0.0,Mostly Cloudy,False,False,False,False,False,False,False,False,False,False,False,False,False,Night,Night,Night,Night
C-5821735,2,2021-08-04 14:40:20.000000000,2021-08-04 15:01:26.000000000,41.126093,-73.79172700000002,41.118813,-73.785287,0.604452531287,Slow traffic on Saw Mill River Pkwy S - Saw Mill River Pkwy from Bedford Rd/Exit 28 (Saw Mill River Pkwy) to Taconic State Pkwy/Exit 26 (Saw Mill River Pkwy) due to roadwork.,,Saw Mill River Pkwy,R,Pleasantville,Westchester,NY,10570,US,US/Eastern,KHPN,2021-08-04 14:56:00,73.0,73.0,61.0,29.67,10.0,E,5.0,0.0,Fair,False,False,False,False,False,False,False,False,False,False,False,False,False,Day,Day,Day,Day
C-5821736,2,2020-08-28 15:12:30.000000000,2020-08-28 19:03:04.000000000,45.535327,-122.6862,45.527818,-122.686969,0.520155873187,Slow traffic on I-405 from I-5 (Portland) (North) (I-405) to Everett St/Exit 2 (I-405) due to construction work.,,US-30 E,R,Portland,Multnomah,OR,97209,US,US/Pacific,KPDX,2020-08-28 14:53:00,81.0,81.0,38.0,29.95,10.0,NNW,12.0,0.0,Fair,False,False,False,False,True,False,False,False,False,False,False,False,False,Day,Day,Day,Day
C-5821737,2,2021-09-30 07:22:00.000000000,2021-09-30 08:35:00.000000000,27.945067,-82.353612,27.950351,-82.35422,0.3669707835279999,Stationary traffic on US-301 N from FL-618/Crosstown Expy (US-301) to CR-574/E Broadway Ave (US-301) due to roadwork.,552.0,S US Highway 301,L,Tampa,Hillsborough,FL,33619,US,US/Eastern,KTPF,2021-09-30 07:15:00,70.0,70.0,100.0,30.02,10.0,CALM,0.0,0.0,Fair,False,False,False,False,False,False,False,False,False,False,False,False,False,Day,Day,Day,Day
C-5821738,2,2021-11-10 22:12:00.000000000,2021-11-11 23:01:35.000000000,28.472449,-81.453622,28.472834,-81.453004,0.0460052845203,Construction on I-4 EB near MM 76 Expect long delays.,5381.0,W Oak Ridge Rd,R,Orlando,Orange,FL,32819,US,US/Eastern,KMCO,2021-11-10 21:53:00,69.0,69.0,93.0,30.01,10.0,E,5.0,0.0,Mostly Cloudy,False,False,False,False,False,False,False,False,False,False,False,False,False,Night,Night,Night,Night
C-5821739,3,2020-02-07 16:25:14.000000000,2020-02-11 16:24:33.000000000,38.86126,-77.09198,38.85338,-77.1203,1.6180744345200002,Between S Walter Reed Dr and VA-716/Carlin Springs Rd - Roadwork. Roadway reduced to 1 lane. Lane blocked.,,S Glebe Rd,R,Arlington,Arlington,VA,22204,US,US/Eastern,KDCA,2020-02-07 16:52:00,44.0,36.0,38.0,29.55,10.0,WNW,21.0,0.0,Mostly Cloudy / Windy,False,False,True,False,False,False,False,False,False,False,False,True,False,Day,Day,Day,Day
C-5821740,2,2021-11-02 17:34:55.000000000,2021-11-02 19:40:03.000000000,29.001295,-81.302734,28.998885,-81.304039,0.184245646787,Stationary traffic on FL-15A - US-92 W - US-17 S from W Chipola Ave to S Clara Ave due to roadwork.,1550.0,S Woodland Blvd,L,Deland,Volusia,FL,32720-7709,US,US/Eastern,KDED,2021-11-02 17:30:00,76.0,76.0,69.0,29.99,10.0,NE,9.0,0.0,Fair,False,False,False,False,False,False,False,False,False,False,False,False,False,Day,Day,Day,Day
C-5821741,2,2019-07-08 10:22:50.000000000,2019-07-12 10:23:21.000000000,39.945277,-75.395987,39.955675,-75.39252900000002,0.741413554001,At Cedar Grove Rd - Roadwork. Open.,102.0,Palmers Mill Rd,R,Media,Delaware,PA,19063-1038,US,US/Eastern,KPHL,2019-07-08 09:54:00,71.0,71.0,90.0,29.97,7.0,ENE,9.0,0.05,Light Rain,False,False,False,False,False,False,False,False,False,True,False,False,False,Day,Day,Day,Day
C-5821742,2,2020-09-28 14:40:30.000000000,2020-09-28 20:37:59.000000000,33.498835,-112.07391,33.49344,-112.07391,0.372758998468,Stationary traffic from Camelback Rd (N Central Ave) to Thomas Rd (N Central Ave) due to roadwork.,4322.0,N Central Ave,L,Phoenix,Maricopa,AZ,85012-1802,US,US/Mountain,KPHX,2020-09-28 14:51:00,101.0,101.0,10.0,28.68,10.0,CALM,0.0,0.0,Fair,False,False,False,False,False,False,False,False,False,False,False,False,False,Day,Day,Day,Day
C-5821743,2,2017-10-06 07:01:52.000000000,2017-10-06 13:01:52.000000000,42.08971,-75.91708,42.091999,-75.94714599999998,1.54966680587,Between Pennsylvania Ave and Vestal Ave - Construction work.,,Vestal Pkwy E,R,Binghamton,Broome,NY,13903,US,US/Eastern,KBGM,2017-10-06 06:53:00,53.1,,96.0,30.11,10.0,West,4.6,,Mostly Cloudy,False,False,False,False,False,False,False,False,False,False,False,False,False,Night,Day,Day,Day
C-5821744,2,2016-12-23 07:00:47.000000000,2016-12-23 13:00:47.000000000,39.07284,-84.35204,39.07284,-84.35204,0.0,At Five Mile Rd - Construction work.,,Beechmont Ave,R,Cincinnati,Hamilton,OH,45230,US,US/Eastern,KLUK,2016-12-23 06:53:00,26.1,,96.0,30.47,6.0,Calm,,,Clear,False,False,True,False,False,False,False,False,False,False,False,True,False,Night,Night,Day,Day
C-5821745,2,2021-09-11 14:21:00.000000000,2021-09-11 16:24:15.000000000,41.724204,-87.70195,41.7208,-87.701926,0.2351972566599999,Slow traffic from W 87th St (S Kedzie Ave) to US-12/US-20/W 95th St (S Kedzie Ave) due to roadwork.,9309.0,S Kedzie Ave,L,Evergreen Park,Cook,IL,60805-2319,US,US/Central,KMDW,2021-09-11 13:53:00,85.0,85.0,49.0,29.24,10.0,SW,14.0,0.0,Partly Cloudy,False,False,False,False,False,False,False,False,True,False,False,True,False,Day,Day,Day,Day
C-5821746,2,2021-11-27 18:58:00.000000000,2021-11-27 21:29:31.000000000,29.275973,-82.15205999999998,29.26682700000001,-82.152637,0.6328846043330001,Slow traffic on US-301 S - FL-25 - FL-200 - US-441 S from NW 85th St to NW 77th St due to roadwork.,8700.0,N US Highway 441,L,Ocala,Marion,FL,34475-1202,US,US/Eastern,KOCF,2021-11-27 18:51:00,53.0,53.0,57.0,30.02,10.0,N,3.0,0.0,Fair,False,False,False,False,False,False,False,False,False,False,False,False,False,Night,Night,Night,Night
C-5821747,2,2021-03-09 10:30:00.000000000,2021-12-14 07:57:00.000000000,40.82866,-74.17532,40.82898,-74.17598000000002,0.0409812001175999,Road maintenance operations on Garden State Parkway northbound Entrance ramp Exit 151 - Watchung St (Bloomfield Twp) to Exit 151 - Watchung St (Bloomfield Twp) Not currently Scheduled,,Watchung Ave,R,Bloomfield,Essex,NJ,07003,US,US/Eastern,KTEB,2021-05-27 16:51:00,81.0,81.0,31.0,29.89,10.0,WNW,9.0,0.0,Fair,False,False,False,False,False,False,False,False,False,False,False,False,False,Day,Day,Day,Day
C-5821748,2,2021-08-05 17:01:44.000000000,2021-08-08 03:05:06.000000000,40.660949,-73.92905999999998,40.66121,-73.929348,0.0235171746331,MTA NYC Transit Bus: due to Construction Construction northbound B17 Bus at Remsen Av/Rutland Rd (New York) Beginning Aug 9 Monday at 6 AM until further notice Northbound B17 stop on Remsen Ave at Rutland Rd will be closed because of construction Buses,901.0,Rutland Rd,L,Brooklyn,Kings,NY,11212-1539,US,US/Eastern,KJRB,2021-08-05 16:51:00,80.0,80.0,56.0,29.96,10.0,VAR,5.0,0.0,Mostly Cloudy,False,False,True,False,False,False,False,False,False,False,False,True,False,Day,Day,Day,Day
C-5821749,2,2020-11-12 17:00:00.000000000,2020-11-13 00:15:00.000000000,41.095701,-73.802171,41.093081,-73.80340100000002,0.192020778741,Construction on SPRAIN BROOK STATE PKWY SB near BRADHURST AVE Construction. Shoulder closed.,,Bradhurst Ave,R,Hawthorne,Westchester,NY,10532,US,US/Eastern,KHPN,2020-11-12 16:56:00,44.0,38.0,85.0,29.58,2.0,NW,12.0,0.02,Light Rain,False,False,False,False,True,False,False,False,False,False,False,False,False,Night,Day,Day,Day
C-5821750,2,2019-10-25 08:04:03.000000000,2019-10-29 08:03:27.000000000,47.30741,-122.2286,47.2936,-122.22895,0.954321043978,Between E Main St and 29th St SE/S 356th St - Construction work.,1.0,Auburn Ave,L,Auburn,King,WA,98002-5405,US,US/Pacific,KSEA,2019-10-25 07:53:00,53.0,53.0,80.0,29.63,10.0,S,15.0,0.0,Mostly Cloudy,True,False,False,False,False,False,False,False,False,False,False,True,False,Day,Day,Day,Day
C-5821751,3,2017-06-19 20:55:49.000000000,2017-06-20 02:55:49.000000000,33.90226,-118.06411,33.90227,-118.06022,0.223080369335,Between Norwalk Blvd and I-5 - Roadwork.,12598.0,Rosecrans Ave,R,Norwalk,Los Angeles,CA,90650-5057,US,US/Pacific,KFUL,2017-06-19 20:53:00,73.9,,64.0,29.81,10.0,West,3.5,,Clear,True,False,True,False,False,False,False,False,False,False,False,True,False,Night,Night,Day,Day
C-5821752,2,2016-08-22 22:00:00.000000000,2016-08-23 05:00:00.000000000,42.335262,-71.066254,,,0.0,Road closed due to construction work on Boston Bypass Rd Eastbound at Frontage Rd.,,Mass Avenue Connector,R,Boston,Suffolk,MA,02118,US,US/Eastern,KBOS,2016-08-22 21:54:00,68.0,,45.0,30.11,10.0,NW,15.0,,Partly Cloudy,False,False,False,False,False,False,False,False,False,False,False,False,False,Night,Night,Night,Night
C-5821753,4,2020-06-20 11:25:15.000000000,2020-06-20 16:23:50.000000000,41.96079,-87.74119,41.9607,-87.74753,0.325796379797,Closed between Kenneth Ave and Knox Ave - Closed for bridge demolition work.,4505.0,W Montrose Ave,L,Chicago,Cook,IL,60641,US,US/Central,KORD,2020-06-20 11:51:00,91.0,91.0,34.0,29.2,10.0,SSW,18.0,0.0,Mostly Cloudy,False,False,True,False,False,False,False,False,True,False,False,True,False,Day,Day,Day,Day
C-5821754,2,2018-11-27 06:01:42.000000000,2018-12-01 06:01:03.000000000,41.664192,-70.293401,41.662899,-70.30211700000001,0.458678312182,At Garden Ln - Construction work.,148.0,Falmouth Rd,L,Hyannis,Barnstable,MA,02601-2759,US,US/Eastern,KHYA,2018-11-27 05:56:00,50.0,,89.0,29.24,10.0,SSW,15.0,,Overcast,False,False,False,False,False,False,False,False,False,False,False,False,False,Night,Night,Day,Day
C-5821755,2,2019-03-26 06:00:00.000000000,2019-03-29 18:00:00.000000000,28.02022,-82.47599,,,0.170000001788,Road closed due to sewer works on Rome Ave Northbound from Hanlon St to Hollywood St.,1651.0,W Hollywood St,R,Tampa,Hillsborough,FL,33604-3808,US,US/Eastern,KTPA,2019-03-26 05:53:00,68.0,,90.0,30.03,10.0,NNW,3.5,,Scattered Clouds,False,False,False,False,False,False,False,False,False,False,False,False,False,Night,Night,Night,Night
C-5821756,4,2020-09-27 14:47:25.000000000,2020-10-05 07:59:00.000000000,32.232996,-110.957456,32.23281,-110.957448,0.0128598786956,Closed road from E 2nd St to N Tyndall Ave due to roadwork.,936.0,E 2nd St,R,Tucson,Pima,AZ,85719-4840,US,US/Mountain,KDMA,2020-09-27 14:58:00,97.0,97.0,14.0,27.12,10.0,NNW,14.0,0.0,Fair,False,False,False,False,False,False,False,False,False,False,False,False,False,Day,Day,Day,Day
C-5821757,2,2021-01-20 18:18:00.000000000,2021-01-21 02:00:00.000000000,33.592017,-86.16511700000002,33.597417,-86.209127,2.56023544838,Construction on I-20 WB near MM 166 Lane blocked. Expect delays.,,I-20 W,R,Lincoln,Talladega,AL,35096,US,US/Central,KANB,2021-01-20 17:53:00,48.0,48.0,50.0,29.58,10.0,CALM,0.0,0.0,Fair,False,False,False,False,True,False,False,False,False,False,False,False,False,Night,Night,Night,Day
C-5821758,2,2021-06-17 05:31:30.000000000,2021-06-17 22:10:00.000000000,39.082318,-84.522364,39.098488,-84.521063,1.1194169106999998,Slow traffic on I-75 N - I-71 N from 5TH STREET exit [192] to exit [1C] due to roadwork.,,I-71 N,R,Covington,Kenton,KY,41011,US,US/Eastern,KLUK,2021-06-17 05:53:00,54.0,54.0,93.0,29.53,10.0,CALM,0.0,0.0,Fair,False,False,False,False,True,False,False,False,False,False,False,False,False,Night,Night,Day,Day
C-5821759,2,2020-10-06 12:44:30.000000000,2020-10-07 03:00:45.000000000,40.60967700000001,-73.96521899999998,40.61010200000001,-73.96137900000002,0.203548366284,Slow traffic from Ocean Pkwy (Avenue P) to Kings Hwy (Avenue P) due to roadwork.,798.0,Avenue P,R,Brooklyn,Kings,NY,11223-2222,US,US/Eastern,KJRB,2020-10-06 12:51:00,66.0,66.0,47.0,29.99,10.0,VAR,6.0,0.0,Fair,False,False,True,False,False,False,False,False,False,False,False,True,False,Day,Day,Day,Day
C-5821760,2,2021-11-17 17:39:55.000000000,2021-11-17 17:59:55.000000000,27.831095,-82.679734,27.835604,-82.681248,0.324985841943,Stationary traffic on US-19 N from 62nd Ave (US-19) to FL-694/Gandy Blvd/Park Blvd (US-19) due to roadwork.,,65th Ave,R,Pinellas Park,Pinellas,FL,33781,US,US/Eastern,KPIE,2021-11-17 17:53:00,73.0,73.0,73.0,30.15,10.0,E,5.0,0.0,Fair,False,False,True,False,False,False,False,False,False,False,False,True,False,Night,Day,Day,Day
C-5821761,3,2020-06-03 01:45:24.000000000,2020-06-08 08:39:37.000000000,35.11678,-101.90122,35.18782,-101.93752,5.31955170047,Between Hollywood Rd and I-40 - Construction work.,5958.0,W Loop 335 S,L,Amarillo,Randall,TX,79118-5078,US,US/Central,KAMA,2020-06-03 01:53:00,69.0,69.0,65.0,26.35,10.0,S,12.0,0.0,Fair,False,False,False,False,False,False,False,False,False,False,False,False,False,Night,Night,Night,Night
C-5821762,3,2018-01-04 01:00:00.000000000,2018-01-04 05:00:00.000000000,39.947567,-75.187798,,,0.8199999928470001,Right lane closed due to construction on I-76 Westbound from Exit 345 Schuykill Ave to Exit 346A South St.,,I-76 E,R,Philadelphia,Philadelphia,PA,19104,US,US/Eastern,KPHL,2018-01-04 01:00:00,28.0,17.5,49.0,29.9,7.0,North,12.7,0.0,Light Snow,False,False,True,False,False,False,False,False,False,False,False,True,False,Night,Night,Night,Night
C-5821763,2,2021-09-13 08:30:00.000000000,2021-09-18 17:45:00.000000000,35.246118,-76.592056,35.246517,-76.590512,0.0913811220482,Construction on NC-304 EB near NC-33 Drive with caution.,,Highway 304,R,Hobucken,Pamlico,NC,28537,US,US/Eastern,KNBT,2021-09-13 08:58:00,77.0,77.0,76.0,30.19,10.0,WSW,6.0,0.0,Fair,False,False,False,False,False,False,False,False,False,False,False,False,False,Day,Day,Day,Day
C-5821764,2,2021-01-28 13:49:00.000000000,2021-01-29 00:07:45.000000000,25.732459,-80.365234,25.732392,-80.368916,0.229220047967,Slow traffic on FL-976 from SW 97th Ave (SW 40th St/Bird Rd/FL-976) to FL-821/117th Ave/Florida's Tpke (Bird Dr/SW 40th St/FL-976) due to roadwork.,10485.0,SW 40th St,R,Miami,Miami-Dade,FL,33165-3753,US,US/Eastern,KMIA,2021-01-28 13:57:00,75.0,75.0,22.0,30.13,10.0,N,13.0,0.0,Fair,False,False,False,False,False,False,False,False,False,False,False,False,False,Day,Day,Day,Day
C-5821765,3,2018-02-27 21:01:19.000000000,2018-02-28 05:01:19.000000000,29.43263,-98.64683,29.44644000000001,-98.63539,1.17656508667,Between TX-151/Exit 9 and Military Dr/Exit 9 - Construction work. 2 left lanes blocked.,,I-410 N,R,San Antonio,Bexar,TX,78227,US,US/Central,KSKF,2018-02-27 20:56:00,71.6,,84.0,29.91,10.0,ESE,9.2,,Mostly Cloudy,False,False,False,False,False,False,False,False,False,False,False,False,False,Night,Night,Night,Night
C-5821766,2,2020-10-12 22:27:42.000000000,2020-10-13 01:58:00.000000000,35.290856,-93.472108,35.287879,-93.442402,1.68791334465,Queuing traffic on AR-22 from AR-109/Horne Rd (AR-109/AR-22) to Mountain Spring Rd/Elizabeth Hall Rd (AR-22) due to construction work.,1.0,Anhalt Ln,L,New Blaine,Logan,AR,72851-9060,US,US/Central,KRUE,2020-10-12 22:53:00,51.0,51.0,83.0,29.65,10.0,CALM,0.0,0.0,Fair,False,False,False,False,False,False,False,False,False,False,False,False,False,Night,Night,Night,Night
C-5821767,2,2016-10-04 06:02:10.000000000,2016-10-04 12:02:10.000000000,39.398057,-76.429773,39.44215,-76.343,5.54369775833,At MD-152/Exit 74 - Construction work.,,I-95 N,R,Perry Hall,Baltimore County,MD,21128,US,US/Eastern,KMTN,2016-10-04 05:54:00,55.4,,100.0,30.19,10.0,Calm,,,Clear,False,False,False,False,False,False,False,False,False,False,False,False,False,Night,Night,Night,Day
C-5821768,3,2018-04-06 19:00:00.000000000,2018-04-09 06:00:00.000000000,37.520416,-77.415871,,,1.27999997139,Road closed due to paving repairs on VA-5 Main St both ways from Williamsburg Ave to Nicholson St.,1.0,Nicholson St,R,Henrico,Richmond City,VA,23231,US,US/Eastern,KRIC,2018-04-06 18:54:00,70.0,,27.0,29.79,10.0,SSW,26.5,,Mostly Cloudy,False,False,True,False,False,False,False,False,False,False,False,True,False,Day,Day,Day,Day
C-5821769,2,2020-05-19 09:01:00.000000000,2020-05-19 15:01:00.000000000,32.71471,-117.1262,32.71471,-117.1262,0.0,Construction work. Lane closed.,,Broadway,R,San Diego,San Diego,CA,92102,US,US/Pacific,KSAN,2020-05-19 08:51:00,68.0,68.0,50.0,30.01,10.0,WNW,12.0,0.0,Mostly Cloudy,False,False,False,False,False,False,False,False,False,False,False,False,False,Day,Day,Day,Day
C-5821770,4,2021-10-18 13:40:00.000000000,2021-10-21 23:59:00.000000000,42.492148,-83.117285,42.490102,-83.11659,0.145732292494,Closed road from 12 Mile Rd (Stephenson Hwy) to 11 Mile Rd (Stephenson Hwy) due to roadwork.,298.0,N Stephenson Hwy,R,Royal Oak,Oakland,MI,48067,US,US/Eastern,KVLL,2021-10-18 13:35:00,63.0,63.0,43.0,29.34,10.0,W,9.0,0.0,Fair,False,False,True,False,False,False,False,False,False,False,False,False,False,Day,Day,Day,Day
C-5821771,2,2020-12-18 01:21:00.000000000,2020-12-18 02:03:00.000000000,40.757814,-73.979357,40.755968,-73.97499599999998,0.261463208771,Slow traffic from 6th Ave/Avenue of the Americas (W 48th St) to Park Ave (E 48th St) due to roadwork.,20.0,W 48th St,L,New York,New York,NY,10036-1801,US,US/Eastern,KNYC,2020-12-18 00:51:00,26.0,17.0,69.0,30.04,10.0,N,9.0,0.0,Fair,True,False,False,False,False,False,True,False,False,False,False,True,False,Night,Night,Night,Night
C-5821772,2,2021-10-16 14:28:30.000000000,2021-12-21 19:30:52.000000000,32.270959999999995,-110.978046,32.271962,-110.978999,0.0888407698859,Stationary traffic on AZ-77 from W Windsor St to N Fairview Ave due to roadwork.,3556.0,N Oracle Rd,R,Tucson,Pima,AZ,85705-3518,US,US/Mountain,KDMA,2021-12-21 16:58:00,67.0,67.0,26.0,27.24,10.0,NW,5.0,0.0,Cloudy,False,True,True,False,False,False,False,False,False,False,True,False,False,Day,Day,Day,Day
C-5821773,2,2021-06-15 13:27:42.000000000,2021-06-15 13:54:09.000000000,30.222667,-93.314366,30.217721,-93.321108,0.528021213201,Slow traffic on I-10 W from I-210/Exit 25 (I-10) to LA-108/Exit 23 (I-10) due to roadwork.,,I-10 W,R,Sulphur,Calcasieu,LA,70663,US,US/Central,KUXL,2021-06-15 13:35:00,99.0,99.0,48.0,29.96,,CALM,0.0,0.0,Partly Cloudy,False,False,False,False,False,False,False,False,False,False,False,False,False,Day,Day,Day,Day
C-5821774,2,2021-04-09 06:12:00.000000000,2021-04-09 21:06:58.000000000,33.52393,-112.149754,33.523262,-112.151496,0.110445884865,Slow traffic from W Bethany Home Rd Frn / N 41st Ave to W Rancho Dr due to roadwork.,4220.0,W Bethany Home Rd,R,Phoenix,Maricopa,AZ,85019-1808,US,US/Mountain,KGEU,2021-04-09 05:58:00,65.0,65.0,29.0,28.63,10.0,WNW,3.0,0.0,Fair,False,False,False,False,False,False,False,False,True,False,False,False,False,Day,Day,Day,Day
C-5821775,2,2021-05-25 15:52:54.000000000,2021-05-25 16:13:52.000000000,25.801272,-80.126287,25.80587,-80.124578,0.335006119841,Slow traffic on FL-A1A from FL-A1A/5th St (FL-A1A) to Arthur Godfrey Rd/41st St (FL-A1A) due to roadwork.,2499.0,Collins Ave,R,Miami Beach,Miami-Dade,FL,33140-4702,US,US/Eastern,KMIA,2021-05-25 15:53:00,84.0,84.0,53.0,30.17,10.0,ESE,10.0,0.0,Mostly Cloudy,False,False,False,False,False,False,False,False,False,False,False,True,False,Day,Day,Day,Day
C-5821776,2,2021-06-03 13:36:46.000000000,2021-06-03 22:21:46.000000000,45.486592,-122.648876,45.487273,-122.650195,0.0793479106763,Construction on OR-99E NB near MP 2 Allow extra time.,5034.0,SE McLoughlin Blvd,L,Portland,Multnomah,OR,97202,US,US/Pacific,KPDX,2021-06-03 13:53:00,78.0,78.0,48.0,29.94,10.0,WNW,10.0,0.0,Fair,False,False,True,False,False,False,False,False,False,False,False,True,False,Day,Day,Day,Day
C-5821777,2,2021-06-28 17:14:20.000000000,2021-12-21 17:35:43.000000000,42.095854,-75.978509,42.095512,-75.971438,0.363293379779,Slow traffic on NY-434 from Annetta St to Vestal due to roadwork.,3894.0,Vestal Pkwy E,R,Vestal,Broome,NY,13850-2316,US,US/Eastern,KBGM,2021-12-21 16:53:00,33.0,27.0,64.0,28.12,10.0,SSE,7.0,0.0,Fair,False,False,False,False,False,False,False,False,False,False,False,False,False,Day,Day,Day,Day
C-5821778,2,2021-09-22 11:54:30.000000000,2021-09-22 13:57:49.000000000,40.688807,-73.980947,40.687376,-73.979781,0.116222222048,Stationary traffic from Tillary St (Flatbush Ave) to Atlantic Ave (Flatbush Ave) due to roadwork.,2.0,Flatbush Ave,L,Brooklyn,Kings,NY,11217-1102,US,US/Eastern,KJRB,2021-09-22 11:51:00,76.0,,76.0,30.01,10.0,,,0.0,Mostly Cloudy,True,False,True,False,False,False,True,False,True,False,False,True,False,Day,Day,Day,Day
C-5821779,2,2018-06-27 18:59:21.000000000,2018-06-28 01:01:00.000000000,40.295228,-76.62487800000002,40.295205,-76.624942,0.00372837524925,At PA-743/Cocoa Ave - Roadwork. Lane blocked.,1153.0,E Chocolate Ave,L,Hershey,Dauphin,PA,17033-1222,US,US/Eastern,KMDT,2018-06-27 18:56:00,78.1,,74.0,29.85,10.0,SSE,6.9,,Mostly Cloudy,False,False,False,False,False,False,False,False,False,False,False,False,False,Day,Day,Day,Day
C-5821780,2,2021-07-27 10:13:00.000000000,2021-09-21 19:39:44.000000000,33.602803,-112.168555,33.596287,-112.167918,0.4517027649539999,Slow traffic from W Sweetwater Ave to N 50th Ave due to roadwork.,12914.0,N 51st Ave,R,Glendale,Maricopa,AZ,85304,US,US/Mountain,KGEU,2021-09-21 16:58:00,101.0,101.0,10.0,28.86,10.0,W,8.0,0.0,Fair,False,False,False,False,False,False,False,False,True,False,False,False,False,Day,Day,Day,Day
C-5821781,2,2021-12-02 07:36:30.000000000,2021-12-02 07:58:30.000000000,31.022611,-103.107236,31.031661,-103.125456,1.24688777632,Stationary traffic on US-285 N - US-285 S from FM-1776 (US-285) to Mendel Rd (US-285) due to roadwork.,,US-285 N,R,Coyanosa,Pecos,TX,79730,US,US/Central,KFST,2021-12-02 07:53:00,57.0,57.0,49.0,27.04,10.0,WSW,10.0,0.0,Fair,False,False,False,False,False,False,False,False,False,False,False,False,False,Day,Day,Day,Day
C-5821782,4,2020-03-23 14:56:07.000000000,2020-03-23 19:54:30.000000000,42.1653,-79.08601,42.16584,-79.05745999999998,1.46259577537,Closed at Schoolhouse Rd - Closed due to roadwork.,3701.0,S Route 62,L,Kennedy,Chautauqua,NY,14747,US,US/Eastern,KJHW,2020-03-23 14:56:00,36.0,28.0,93.0,28.19,10.0,S,12.0,0.0,Wintry Mix,False,False,False,False,False,False,False,False,False,False,False,False,False,Day,Day,Day,Day
C-5821783,2,2021-10-12 17:03:00.000000000,2021-10-12 19:06:05.000000000,33.478271,-111.986946,33.48033,-111.987795,0.150441950763,Slow traffic from E Wilshire Dr to N 42nd St due to roadwork.,2647.0,N 44th St,R,Phoenix,Maricopa,AZ,85008-1557,US,US/Mountain,KPHX,2021-10-12 16:51:00,68.0,68.0,15.0,28.64,10.0,WNW,15.0,0.0,Fair,True,False,False,False,False,False,False,False,True,False,False,False,False,Day,Day,Day,Day
C-5821784,2,2020-12-01 13:48:00.000000000,2020-12-02 02:29:53.000000000,27.838381,-82.786953,27.839668,-82.787625,0.097943964781,Slow traffic on US-19 Alt N - FL-595 - County Hwy-694 from US-19 Alt to 110th Ln due to roadwork.,7275.0,Seminole Blvd,R,Seminole,Pinellas,FL,33772,US,US/Eastern,KPIE,2020-12-01 13:53:00,54.0,54.0,51.0,30.18,10.0,N,12.0,0.0,Fair,False,False,False,False,False,False,False,False,True,False,False,False,False,Day,Day,Day,Day
C-5821785,2,2021-09-30 07:01:00.000000000,2021-09-30 18:01:00.000000000,40.620263,-122.970496,40.594503,-123.010046,2.7334547973400003,One-Way Traffic closure due to Drainage Work between 5.9 mi south of Route 299 and 8.9 mi south of Route 299,25301.0,State Highway 3,R,Douglas City,Trinity,CA,96024,US,US/Pacific,KO54,,,,,,,,,,,False,False,False,False,False,False,False,False,False,False,False,False,False,Night,Day,Day,Day
C-5821786,2,2021-02-19 08:01:00.000000000,2021-02-19 16:46:00.000000000,37.939426,-121.234806,37.934843,-121.236104,0.324458752584,Construction on CA-99 SB near MARIPOSA RD Expect delays.,,CA-99 S,R,Stockton,San Joaquin,CA,95205,US,US/Pacific,KSCK,2021-02-19 07:55:00,53.0,53.0,69.0,30.29,10.0,CALM,0.0,0.0,Cloudy,False,False,False,False,True,False,False,False,False,False,False,True,False,Day,Day,Day,Day
C-5821787,2,2021-01-27 13:16:30.000000000,2021-01-27 16:31:30.000000000,33.5676,-112.100983,33.56756,-112.112506,0.663396420207,Slow traffic from N 19th Ave (W Dunlap Ave) to I-17/N Black Canyon Hwy (W Dunlap Ave) due to roadwork.,1923.0,W Dunlap Ave,L,Phoenix,Maricopa,AZ,85021-2944,US,US/Mountain,KDVT,2021-01-27 12:53:00,55.0,55.0,35.0,28.57,10.0,NE,8.0,0.0,Fair,False,False,True,False,False,True,True,False,True,False,False,True,False,Day,Day,Day,Day
C-5821788,2,2021-01-21 17:59:32.000000000,2021-01-21 19:15:00.000000000,39.130203,-94.568129,39.128405,-94.568085,0.124252350273,Construction on I-35 SB near LEVEE RD Allow extra time.,,I-29 S,R,Kansas City,Clay,MO,64116,US,US/Central,KMKC,2021-01-21 17:54:00,47.0,47.0,37.0,29.12,10.0,NW,3.0,0.0,Fair,False,False,False,False,True,False,False,False,False,False,False,False,False,Night,Night,Day,Day
C-5821789,2,2020-09-01 16:31:00.000000000,2020-09-01 19:31:35.000000000,47.48498,-121.793392,47.4732,-121.764732,1.56641068621,On I-90 eastbound &amp; westbound at SR 202 (MP 31) there is a slow-moving maintenance operation affecting all lanes.,,I-90 E,R,North Bend,King,WA,98045,US,US/Pacific,KRNT,2020-09-01 16:53:00,79.0,79.0,44.0,30.07,10.0,NNW,8.0,0.0,Fair,False,False,False,False,True,False,False,False,False,False,False,False,False,Day,Day,Day,Day
C-5821790,2,2021-06-30 14:08:00.000000000,2021-06-30 20:11:33.000000000,47.705415,-122.329598,47.713985,-122.326838,0.605874740916,On I-5 northbound just north of 112th St (MP 173) the HOV lane is closed due to maintenance.,,I-5 N,R,Seattle,King,WA,98125,US,US/Pacific,KBFI,2021-06-30 13:53:00,72.0,72.0,64.0,29.88,10.0,WSW,9.0,0.0,Fair,False,False,False,False,False,False,False,False,False,False,False,False,False,Day,Day,Day,Night
C-5821791,2,2021-03-03 00:38:00.000000000,2021-03-03 01:21:30.000000000,32.883501,-96.696414,32.874909,-96.683431,0.959143496859,Slow traffic on I-635 E - LBJ Fwy E from Greenville Ave exit [18A] to exit [8B] due to roadwork.,,I-635 E,R,Dallas,Dallas,TX,75238,US,US/Central,KDAL,2021-03-03 00:53:00,47.0,47.0,59.0,29.61,10.0,CALM,0.0,0.0,Fair,False,False,False,False,False,False,False,False,False,False,False,False,False,Night,Night,Night,Night
C-5821792,2,2021-05-10 03:59:30.000000000,2021-05-10 20:13:00.000000000,33.467465000000004,-112.151779,33.465949,-112.150697,0.121905606729,Slow traffic from W Granada Rd to N 41st Ave due to roadwork.,1767.0,N 43rd Ave,R,Phoenix,Maricopa,AZ,85009,US,US/Mountain,KPHX,2021-05-10 03:51:00,72.0,72.0,17.0,28.59,10.0,E,8.0,0.0,Fair,False,False,False,False,False,False,False,False,True,False,False,False,False,Night,Night,Night,Day
C-5821793,2,2018-10-05 06:00:00.000000000,2018-10-05 19:00:00.000000000,41.161472,-85.15583000000002,,,1.62999999523,Intermittent lane closures due to construction on Wallen Rd both ways between IN-3 Lima Rd and Hickory Knoll Blvd.,1000.0,W Wallen Rd,R,Fort Wayne,Allen,IN,46825-2240,US,US/Eastern,KGWB,2018-10-05 05:55:00,50.0,,76.0,30.14,10.0,East,9.2,,Mostly Cloudy,False,False,False,False,False,False,False,False,False,False,False,False,False,Night,Night,Night,Night
C-5821795,2,2020-10-23 02:23:30.000000000,2020-10-23 03:16:00.000000000,40.497513,-79.924672,40.495291,-79.940898,0.866257420816,Queuing traffic on PA-28 from Highland Park Bridge/Exit 6 (PA-28) to PA-8/Exit 5B &amp; 5 (PA-28) due to roadwork.,,PA-28 S,R,Pittsburgh,Allegheny,PA,15215,US,US/Eastern,KAGC,2020-10-23 01:53:00,61.0,61.0,78.0,28.76,10.0,S,7.0,0.0,Fair,False,False,False,False,False,False,False,False,False,False,False,False,False,Night,Night,Night,Night
C-5821796,2,2021-04-12 08:34:00.000000000,2021-04-12 09:56:30.000000000,46.25513400000001,-116.60467,46.357604,-116.62959,7.17921839476,Stationary traffic on US-95 N - US-95 S from US-95 Bus (Winchester) (US-95) to 505 Rd/Webb Cutoff Rd/Webb Rd (US-95) due to roadwork.,,US-95 S,R,Culdesac,Lewis,ID,83524,US,US/Pacific,KLWS,2021-04-12 08:56:00,37.0,37.0,50.0,28.77,10.0,CALM,0.0,0.0,Fair,False,False,False,False,False,False,False,False,False,False,False,False,False,Day,Day,Day,Day
C-5821797,2,2020-02-03 09:00:00.000000000,2020-02-07 15:00:00.000000000,40.73122,-74.05026,40.73151,-74.05199999999998,0.0932793848618,Ramp to Hoboken Ave Westbound - Construction work. Lane blocked.,,NJ-139 E,R,Jersey City,Hudson,NJ,07310,US,US/Eastern,KJRB,2020-02-03 08:51:00,44.0,41.0,68.0,29.69,10.0,WSW,6.0,0.0,Cloudy,False,False,True,False,False,False,False,False,False,False,False,False,False,Day,Day,Day,Day
C-5821798,2,2021-11-09 13:27:30.000000000,2021-11-09 13:51:30.000000000,29.538103000000003,-95.13876,29.540625,-95.140989,0.2198131486,Stationary traffic from FM-528/W Nasa Pkwy (I-45 Frontage) to W Bay Area Blvd (I-45 Frontage) due to roadwork.,,Baybrook Sq,R,Webster,Harris,TX,77598,US,US/Central,KEFD,2021-11-09 13:50:00,73.0,73.0,65.0,30.14,10.0,E,10.0,,Mostly Cloudy,False,False,False,False,False,False,False,False,False,False,False,True,False,Day,Day,Day,Day
C-5821799,2,2018-10-15 21:11:26.000000000,2018-10-16 04:00:00.000000000,39.168287,-85.9582,39.183128,-85.958579,1.02561635844,At IN-46/Exit 68 - Construction work. Right lane blocked.,,I-65 N,R,Columbus,Bartholomew,IN,47201,US,US/Eastern,KBAK,2018-10-15 20:50:00,41.0,,81.0,30.28,10.0,Calm,,,Clear,False,False,False,False,False,False,False,False,False,False,False,False,False,Night,Night,Night,Night
C-5821800,2,2020-09-18 12:17:30.000000000,2020-09-18 22:02:00.000000000,40.5648,-75.612887,40.572636,-75.618055,0.605561182481,Queuing traffic on PA-100 from US-222/Trexlertown Rd (PA-100) to Penn Dr/Stroh Dr (PA-100) due to roadwork.,,S Route 100,R,Allentown,Lehigh,PA,18106,US,US/Eastern,KXLL,2020-09-18 12:15:00,64.0,64.0,68.0,29.59,10.0,N,16.0,0.0,Cloudy,False,False,False,False,False,False,False,False,False,False,False,False,False,Day,Day,Day,Day
C-5821801,2,2019-12-23 19:31:11.000000000,2019-12-27 19:33:02.000000000,40.03798,-76.74761,40.05209,-76.75216999999998,1.00430128467,At PA-295/Exit 28 - Roadwork. Lane blocked.,,I-83 N,R,York,York,PA,17406,US,US/Eastern,KMDT,2019-12-23 19:56:00,33.0,33.0,82.0,29.68,7.0,CALM,0.0,0.0,Partly Cloudy,False,False,False,False,False,False,False,False,False,False,False,False,False,Night,Night,Night,Night
C-5821803,2,2021-02-15 05:54:00.000000000,2021-02-15 06:31:30.000000000,34.671477,-86.87894,34.671309,-86.859148,1.12472792292,Slow traffic on County Hwy-10 from Mooresville Rd to Smokey Way due to roadwork.,7351.0,Mooresville Rd,R,Tanner,Limestone,AL,35671,US,US/Central,KDCU,2021-02-15 14:02:00,32.0,25.0,92.0,29.13,5.0,E,8.0,0.02,Wintry Mix,False,False,False,False,False,False,False,False,False,False,False,False,False,Night,Night,Day,Day
C-5821804,2,2021-08-13 21:32:00.000000000,2021-08-13 22:23:30.000000000,41.887465,-87.646889,41.877845,-87.64579599999998,0.667052487144,Slow traffic on I-94 E - I-90 E - Kennedy Expy E from Ohio St/Exit 50B (I-90/I-94) to Jackson Blvd/Exit 51G (I-90/I-94) due to roadwork.,720.0,W Wayman St,R,Chicago,Cook,IL,60661,US,US/Central,KMDW,2021-08-13 21:53:00,74.0,74.0,52.0,29.48,10.0,SW,3.0,0.0,Fair,False,False,False,False,False,False,False,False,False,False,False,False,False,Night,Night,Night,Day
C-5821805,3,2018-09-14 11:43:54.000000000,2018-09-14 13:43:21.000000000,40.47514,-78.277326,40.472655,-78.28133100000002,0.271644017428,At Frankstown Rd - Roadwork. Lane blocked.,1327.0,Route 22,R,Hollidaysburg,Blair,PA,16648,US,US/Eastern,KAOO,2018-09-14 12:03:00,75.0,,76.0,30.23,10.0,East,5.8,,Overcast,False,False,False,False,False,False,False,False,False,True,False,False,False,Day,Day,Day,Day
C-5821806,2,2021-05-07 07:00:00.000000000,2021-06-04 20:07:00.000000000,37.387886,-76.588187,37.368035,-76.57129499999998,1.65571308064,Construction on HICKORY FORK RD SB near BELROI FARMS DR Drive with caution.,4025.0,Hickory Fork Rd,R,Gloucester,Gloucester,VA,23061-3822,US,US/Eastern,KFYJ,2021-05-07 13:35:00,,,,29.83,,W,8.0,0.0,,False,False,False,False,False,False,False,False,False,False,False,False,False,Day,Day,Day,Day
C-5821807,2,2020-10-03 16:00:00.000000000,2020-10-03 22:45:00.000000000,29.558879,-95.824859,29.558996,-95.82392,0.0570107186694,Construction on US-90-ALT EB near RUDE RD Left lane closed. Expect delays.,455.0,Highway 90A W,R,Rosenberg,Fort Bend,TX,77471,US,US/Central,KSGR,2020-10-03 15:56:00,84.0,84.0,43.0,29.93,10.0,E,8.0,0.0,Fair,False,False,False,False,False,False,False,False,False,False,False,False,False,Day,Day,Day,Day
C-5821808,2,2021-08-23 20:28:00.000000000,2021-08-23 21:11:00.000000000,43.97945900000001,-88.530468,43.989232,-88.535872,0.7267323897300001,Slow traffic on US-45 S - US-45 N from WI-175 (US-45) to W 24th Ave (S Main St/US-45) due to roadwork.,2951.0,Fond du Lac Rd,R,Oshkosh,Winnebago,WI,54902-7226,US,US/Central,KOSH,2021-08-23 20:53:00,76.0,76.0,85.0,29.05,10.0,SSW,7.0,0.0,Fair,False,False,False,False,False,False,False,False,False,False,False,False,False,Night,Night,Day,Day
C-5821809,2,2020-06-22 01:17:50.000000000,2020-06-22 05:00:00.000000000,36.212059,-119.329773,,,1.10000002384,Entry ramp to Ca-99 Southbound from CA-137 both ways intermittent ramp closures due to construction.,,CA-99 S,R,Tulare,Tulare,CA,93274,US,US/Pacific,KVIS,2020-06-22 00:56:00,75.0,75.0,57.0,29.56,10.0,NW,9.0,0.0,,False,False,False,False,False,False,False,False,False,False,False,False,False,Night,Night,Night,Night
C-5821810,3,2016-05-21 00:14:58.000000000,2016-05-21 06:14:58.000000000,33.881170000000004,-117.61765,33.88048,-117.60113,0.948806856855,Between Auto Center Dr/Serfas Club Dr and 6th St/Maple St - Roadwork.,,Riverside Fwy E,R,Corona,Riverside,CA,92882,US,US/Pacific,KAJO,2016-05-21 00:56:00,55.9,,69.0,29.98,10.0,NW,3.5,,Clear,False,False,False,False,False,False,False,False,False,False,False,False,False,Night,Night,Night,Night
C-5821811,2,2020-07-16 14:00:00.000000000,2020-07-17 00:45:00.000000000,29.532728,-95.860769,29.532282,-95.860261,0.0433848830933,Construction on I-69 SB near COTTONWOOD CHURCH RD Left lane closed. Expect delays.,2848.0,Southwest Fwy,L,Rosenberg,Fort Bend,TX,77471-7971,US,US/Central,KSGR,2020-07-16 13:53:00,95.0,95.0,46.0,29.93,10.0,CALM,0.0,0.0,Fair,False,False,False,False,False,False,False,False,False,False,False,False,False,Day,Day,Day,Day
C-5821812,2,2019-05-31 09:28:25.000000000,2019-06-03 19:30:25.000000000,40.076327,-75.383573,40.075856,-75.384701,0.0679382661451,Between S Gulph Rd and Warner Rd - Roadwork. Open.,796.0,Croton Rd,L,Wayne,Montgomery,PA,19087-2301,US,US/Eastern,KLOM,2019-05-31 09:35:00,70.0,70.0,76.0,29.5,10.0,WNW,9.0,0.0,Partly Cloudy,False,False,False,False,False,False,False,False,False,False,False,False,False,Day,Day,Day,Day
C-5821813,4,2020-08-24 04:00:00.000000000,2020-08-24 12:45:00.000000000,30.286828000000003,-95.424982,30.276578000000004,-95.417932,0.8237116467610001,Construction on FM-1314 SB near S LOOP 336 Expect delays.,2299.0,Porter Rd,R,Conroe,Montgomery,TX,77301,US,US/Central,KCXO,2020-08-24 03:53:00,72.0,72.0,93.0,29.7,8.0,CALM,0.0,0.0,Fair,False,False,False,False,False,False,False,False,False,False,False,True,False,Night,Night,Night,Night
C-5821814,2,2021-10-31 08:31:30.000000000,2021-10-31 09:12:30.000000000,35.080760999999995,-81.71086700000002,35.075532,-81.738281,1.5916418817299998,Slow traffic on I-85 S from Hyatt St/Exit 90 (I-85) to Green River Rd/Exit 86 (I-85) due to roadwork.,,I-85 S,R,Gaffney,Cherokee,SC,29341,US,US/Eastern,KEHO,2021-10-31 08:35:00,43.0,43.0,100.0,28.94,0.0,CALM,0.0,0.0,Fog,False,False,False,False,False,False,False,False,False,False,False,False,False,Day,Day,Day,Day
C-5821815,2,2021-11-03 16:43:30.000000000,2021-11-03 18:51:41.000000000,33.378109,-111.97934,33.379090999999995,-111.978412,0.0864314169765,Stationary traffic from S 46th Pl to E Minton St due to roadwork.,4769.0,E Baseline Rd,R,Phoenix,Maricopa,AZ,85042-6430,US,US/Mountain,KPHX,2021-11-03 16:51:00,86.0,86.0,16.0,28.75,10.0,WSW,7.0,0.0,Fair,False,False,False,False,False,False,False,False,False,False,False,False,False,Day,Day,Day,Day
C-5821816,2,2020-02-04 08:39:48.000000000,2020-02-05 12:39:48.000000000,44.71799,-122.71264,44.73527,-122.68753,1.71605396447,Between Richardsons Gap Rd and Lyons-Mill City Dr/Main St - Maintenance work.,42591.0,Albany-Lyons Hwy,L,Scio,Linn,OR,97374-9347,US,US/Pacific,KSLE,2020-02-04 08:56:00,32.0,26.0,92.0,30.3,10.0,S,7.0,0.0,Cloudy,False,False,False,False,False,False,False,False,False,False,False,False,False,Day,Day,Day,Day
C-5821817,3,2020-03-15 21:00:00.000000000,2020-03-16 05:00:00.000000000,42.343616,-71.26322900000002,,,0.0,2 left lane closed due to maintenance work on I-95 Southbound at South Ave overpass.,,I-95 S,R,Weston,Middlesex,MA,02493,US,US/Eastern,KBED,2020-03-15 20:51:00,37.0,30.0,22.0,30.36,10.0,N,10.0,0.0,Fair,False,False,False,False,False,False,False,False,False,False,False,False,False,Night,Night,Night,Night
C-5821818,2,2020-09-23 22:28:56.000000000,2020-09-23 23:10:53.000000000,40.770508,-73.968453,40.764295,-73.97299699999998,0.49073410509,Queuing traffic from 79th St (5th Ave) to 57th St (5th Ave) due to roadwork.,880.0,5th Ave,R,New York,New York,NY,10021-4951,US,US/Eastern,KNYC,2020-09-23 22:51:00,70.0,70.0,51.0,29.82,10.0,W,5.0,0.0,Fair,True,False,True,False,False,False,False,False,True,False,False,True,False,Night,Night,Night,Night
C-5821819,2,2020-12-11 03:06:00.000000000,2020-12-11 14:45:00.000000000,35.769585,-78.725913,35.768495,-78.730373,0.261128150534,Construction on I-440 WB near I-40 Expect delays.,,US-1 S,R,Raleigh,Wake,NC,27606,US,US/Eastern,KRDU,2020-12-11 02:51:00,41.0,41.0,89.0,29.78,9.0,CALM,0.0,0.0,Partly Cloudy,False,False,False,False,True,False,False,False,False,False,False,False,False,Night,Night,Night,Night
C-5821820,4,2021-02-03 12:00:06.000000000,2021-02-11 07:59:00.000000000,29.69415,-95.601341,29.69417,-95.599955,0.0831994884993,Closed road from Sutters Field Dr to Rolling Ridge Dr due to roadwork.,7713.0,Sutters Field Dr,R,Houston,Harris,TX,77072-3239,US,US/Central,KSGR,2021-02-03 11:53:00,69.0,69.0,58.0,30.01,10.0,SSE,12.0,0.0,Fair,False,False,False,False,False,False,False,False,False,False,False,False,False,Day,Day,Day,Day
C-5821821,2,2021-02-23 00:01:00.000000000,2021-12-30 08:50:00.000000000,33.55294,-112.085839,33.552905,-112.081522,0.248587963951,Slow traffic from 19th Ave (W Northern Ave) to Central Ave (Phoenix) (West) (W Northern Ave) due to roadwork.,998.0,W Northern Ave,R,Phoenix,Maricopa,AZ,85021,US,US/Mountain,KDVT,2021-11-10 07:53:00,60.0,60.0,39.0,28.45,10.0,CALM,0.0,0.0,Fair,False,False,False,False,False,False,False,False,False,True,False,False,False,Night,Night,Night,Night
C-5821822,2,2021-03-26 08:07:00.000000000,2021-03-26 17:45:00.000000000,38.103712,-78.57889899999998,38.102584,-78.59405,0.827433862948,On Rt. 614 (Garth Rd) in the County of Albemarle from Whippoorwill Rd; Rt. 839N/S (Albemarle County) to Harmony Dr; Rt. 1080N/S (Albemarle County) motorists can expect potential delays in this area from 03/26/21 at 8:07 AM until 03/26/21 at 5:00 PM due to bridge work. All east lanes are alternating closures. All west lanes are alternating closures.,2651.0,Garth Rd,R,Charlottesville,Albemarle,VA,22901-5301,US,US/Eastern,KCHO,2021-03-26 07:53:00,68.0,68.0,81.0,29.13,10.0,SSW,16.0,0.0,Partly Cloudy,False,False,False,False,False,False,False,False,False,False,False,False,False,Day,Day,Day,Day
C-5821823,4,2018-06-21 06:17:53.000000000,2018-06-21 12:17:53.000000000,44.967568,-93.26987,44.96451,-93.26992,0.211301814697,Closed at I-94 - Closed. Construction work.,,MN-65,R,Minneapolis,Hennepin,MN,55404,US,US/Central,KMSP,2018-06-21 05:53:00,66.9,,79.0,29.84,10.0,SSE,3.5,,Overcast,False,False,False,False,False,False,False,False,False,False,False,False,False,Day,Day,Day,Day
C-5821824,2,2021-12-16 13:39:00.000000000,2021-12-16 15:40:56.000000000,26.947085,-80.08484399999998,26.953282,-80.085086,0.4284312615839999,Stationary traffic on US-1 N - FL-A1A - FL-5 from FL-A1A/Ocean Blvd (FL-A1A/US-1) to County Line Rd (US-1) due to roadwork.,,N US Highway 1,R,Jupiter,Palm Beach,FL,33469,US,US/Eastern,KSUA,2021-12-16 13:48:00,81.0,81.0,61.0,30.16,10.0,ESE,14.0,0.0,Mostly Cloudy,False,False,False,False,False,False,False,False,False,False,False,False,False,Day,Day,Day,Day
C-5821825,4,2020-03-19 12:33:42.000000000,2020-03-19 17:33:28.000000000,41.30361,-72.93145,41.3019,-72.92761,0.231702915756,Closed at Church St/Columbus Plz - Closed due to roadwork.,72.0,College St,L,New Haven,New Haven,CT,06510-3210,US,US/Eastern,KHVN,2020-03-19 12:53:00,50.0,50.0,80.0,30.22,10.0,NNE,15.0,0.0,Cloudy,True,False,True,False,False,False,False,False,False,False,False,True,False,Day,Day,Day,Day
C-5821826,2,2021-10-17 16:21:00.000000000,2021-11-04 14:38:53.000000000,40.476162,-104.991578,40.490287,-104.991647,0.975951287459,Slow traffic on US-87 N - I-25 N from Crossroads Blvd/Exit 259 (I-25) to CO-68/Harmony Rd/Exit 265 (I-25) due to roadwork.,,I-25 N,R,Fort Collins,Larimer,CO,80528,US,US/Mountain,KFNL,2021-10-17 15:56:00,75.0,75.0,16.0,24.97,10.0,SSE,3.0,0.0,Fair,False,False,False,False,False,False,False,False,False,False,False,False,False,Day,Day,Day,Day
C-5821827,2,2020-08-24 16:00:00.000000000,2020-08-24 23:45:00.000000000,41.408275,-73.786829,41.379345,-73.799739,2.10790574542,Construction on TACONIC STATE PKWY SB near NY-301 Drive with caution.,,Taconic State Pkwy S,R,Putnam Valley,Putnam,NY,10579,US,US/Eastern,KSWF,2020-08-24 15:45:00,90.0,90.0,46.0,29.41,20.0,WNW,12.0,0.0,Partly Cloudy,False,False,False,False,True,False,False,False,False,True,False,False,False,Day,Day,Day,Day
C-5821828,2,2021-03-23 09:56:30.000000000,2021-12-17 19:50:49.000000000,27.894697,-82.784492,27.893847,-82.787172,0.173874625589,Slow traffic on US-19 Alt S - FL-688 - FL-595 from Honeyvine Mobile Home Park to Lark Dr due to roadwork.,10507.0,Ulmerton Rd,R,Largo,Pinellas,FL,33771-3529,US,US/Eastern,KPIE,2021-12-17 16:53:00,79.0,79.0,56.0,30.1,10.0,ESE,6.0,0.0,Fair,False,False,False,False,False,False,False,False,True,False,False,False,False,Day,Day,Day,Day
C-5821829,2,2020-07-18 03:01:00.000000000,2020-07-18 13:46:00.000000000,39.189461,-121.594506,39.264498,-121.597283,5.1866930279000005,Construction on CA-70 EB near SADDLEBACK DR Expect long delays.,7963.0,State Highway 70,R,Marysville,Yuba,CA,95901-3071,US,US/Pacific,KMYV,2020-07-18 02:53:00,68.0,68.0,56.0,29.82,10.0,SE,9.0,0.0,Fair,False,False,False,False,False,False,False,False,False,False,False,False,False,Night,Night,Night,Night
C-5821830,2,2019-01-04 08:03:16.000000000,2019-01-10 08:00:25.000000000,33.703109999999995,-84.37661999999997,33.703109999999995,-84.37661999999997,0.0,At Browns Mill Rd SE - Construction work. Right lane blocked.,1893.0,Jonesboro Rd SE,R,Atlanta,Fulton,GA,30315-6701,US,US/Eastern,KATL,2019-01-04 07:52:00,55.0,,93.0,29.8,0.5,East,9.2,0.31,Heavy Rain,False,False,False,False,False,False,False,False,False,False,False,False,False,Day,Day,Day,Day
C-5821831,4,2021-01-21 03:01:00.000000000,2021-01-21 14:44:00.000000000,34.274725,-118.381663,34.274632000000004,-118.381357,0.0186153012982,Construction on I-210 EB near FOOTHILL BLVD Use alternate exit ramp.,,Foothill Blvd,R,Sylmar,Los Angeles,CA,91342,US,US/Pacific,KWHP,2021-01-21 08:00:00,54.0,54.0,54.0,28.99,10.0,CALM,0.0,,Fair,False,False,False,False,False,False,False,False,False,False,False,True,False,Night,Night,Night,Night
C-5821832,4,2021-10-23 05:55:00.000000000,2021-11-04 23:59:00.000000000,36.130727,-96.00334,36.13165,-96.004536,0.0923123054373,Closed road from W 22nd Pl to S Olympia Ave due to roadwork.,2229.0,S Nogales Ave,L,Tulsa,Tulsa,OK,74107-2825,US,US/Central,KRVS,2021-10-23 05:53:00,63.0,63.0,65.0,29.16,10.0,S,5.0,0.0,Fair,False,False,True,False,False,False,False,False,False,False,False,False,False,Night,Night,Night,Night
C-5821833,3,2019-08-01 22:02:27.000000000,2019-08-06 22:00:32.000000000,37.77305,-122.47177,37.77148,-122.47948,0.4348298209839999,At Fulton St - Narrow lanes. Queuing traffic. Construction work. Lane blocked.,808.0,Park Presidio Bypass Dr,L,San Francisco,San Francisco,CA,94118,US,US/Pacific,KSFO,2019-08-01 21:56:00,61.0,61.0,83.0,30.02,10.0,W,13.0,0.0,Mostly Cloudy,False,False,True,False,False,False,False,False,True,False,False,True,False,Night,Night,Night,Night
C-5821834,2,2021-12-09 17:42:00.000000000,2021-12-09 19:49:55.000000000,33.479107,-112.15169,33.480476,-112.152253,0.0999988089958,Stationary traffic from W Virginia Ave to N 44th Ln due to roadwork.,2762.0,N 43rd Ave,L,Phoenix,Maricopa,AZ,85035,US,US/Mountain,KGEU,2021-12-09 17:56:00,67.0,67.0,48.0,28.63,10.0,SW,8.0,0.0,Mostly Cloudy,False,False,True,False,False,True,False,False,True,False,False,False,False,Night,Day,Day,Day
C-5821835,2,2021-09-21 17:47:30.000000000,2021-09-21 19:50:57.000000000,33.463768,-112.255167,33.465032,-112.256945,0.134648018514,Stationary traffic from I-10 W to N 92nd Pl due to roadwork.,1437.0,N 91st Ave,R,Tolleson,Maricopa,AZ,85353,US,US/Mountain,KGEU,2021-09-21 17:58:00,101.0,101.0,10.0,28.84,10.0,S,3.0,0.0,Fair,False,False,False,False,False,False,False,False,False,False,False,False,False,Day,Day,Day,Day
C-5821836,2,2021-06-09 08:28:35.000000000,2021-06-09 16:15:00.000000000,40.988135,-91.721846,41.000351,-92.242997,27.1910978651,Construction on US-34 WB near WINTERGREEN BLVD Construction. Right lane closed.,,US-34 W,R,Lockridge,Jefferson,IA,52635,US,US/Central,KMPZ,2021-06-09 08:35:00,79.0,79.0,78.0,29.26,10.0,CALM,0.0,0.0,Fair,False,False,False,False,False,False,False,False,False,False,False,False,False,Day,Day,Day,Day
C-5821837,2,2020-08-10 14:00:00.000000000,2020-08-13 22:45:00.000000000,45.821724,-92.983571,45.97899,-92.954841,10.953504163699998,Construction on I-35 near HILLSIDE AVE Construction. Expect long delays.,,I-35 N,R,Pine City,Pine,MN,55063,US,US/Central,KROS,2020-08-10 13:55:00,75.0,75.0,39.0,28.96,10.0,WNW,8.0,0.0,Fair,False,False,False,False,False,False,False,False,False,False,False,False,False,Day,Day,Day,Day
C-5821838,4,2020-08-26 07:00:00.000000000,2020-08-28 07:45:00.000000000,39.728241,-105.037306,39.730598,-105.037273,0.162862630395,Construction on N NEWTON ST NB near W 7TH AVE Expect delays.,701.0,N Newton St,L,Denver,Denver,CO,80204-3031,US,US/Mountain,KBJC,2020-08-26 06:50:00,73.0,73.0,29.0,24.41,10.0,W,5.0,0.0,Partly Cloudy,False,False,True,False,False,False,False,False,False,True,False,False,False,Day,Day,Day,Day
C-5821839,2,2020-11-25 16:37:02.000000000,2020-11-26 17:22:56.000000000,32.836943,-96.968711,32.836713,-96.966361,0.137348281942,Construction on TX-183 EB near WILLIAM BREWSTER ST Allow extra time.,,Airport Fwy E,R,Irving,Dallas,TX,75062,US,US/Central,KDFW,2020-11-25 16:50:00,61.0,61.0,29.0,29.38,1.0,WSW,6.0,0.0,Haze,False,False,False,False,False,False,False,False,False,False,False,False,False,Day,Day,Day,Day
C-5821840,3,2021-09-21 21:00:00.000000000,2021-09-22 06:00:00.000000000,35.99945800000001,-83.958969,,,7.26000022888,Intermittent lane closures due to resurfacing work on I-640 both ways from Exit 1 / TN-62 Western Ave to Exit 3 / I-275 Exit 3.,,I-640 E,R,Knoxville,Knox,TN,37912,US,US/Eastern,KTYS,2021-09-21 20:53:00,74.0,74.0,87.0,28.97,10.0,E,3.0,0.0,Mostly Cloudy,False,False,False,False,False,False,False,False,False,False,False,False,False,Night,Night,Night,Night
C-5821841,4,2020-06-09 08:08:46.000000000,2020-06-20 00:38:46.000000000,41.05422,-80.59178,41.05525,-80.58854000000002,0.183198692115,Closed at just south of Lowellville Rd. - Closed due to roadwork.,298.0,S Bridge St,L,Struthers,Mahoning,OH,44471,US,US/Eastern,KUCP,2020-06-09 07:56:00,61.0,61.0,87.0,28.84,10.0,CALM,0.0,0.0,Fair,True,False,False,False,False,False,False,False,False,False,False,False,False,Day,Day,Day,Day
C-5821842,4,2020-06-02 23:35:41.000000000,2020-06-03 04:33:55.000000000,37.66426,-97.34526,37.66484000000001,-97.34701,0.1037659078339999,Closed at S Seneca St - Closed due to roadwork.,637.0,W Harry St,L,Wichita,Sedgwick,KS,67213-5115,US,US/Central,KICT,2020-06-02 23:53:00,77.0,77.0,69.0,28.54,10.0,S,15.0,0.0,Fair,False,False,False,False,False,False,False,False,False,False,False,True,False,Night,Night,Night,Night
C-5821843,2,2021-08-04 16:53:49.000000000,2021-08-04 17:42:27.000000000,47.325651,-106.230585,47.32686,-106.267413,1.7267909520700002,Slow traffic on MT-200 from MT-24/South Flowing Wells Rd (MT-200) to MT-59/MT-22 (MT-200) due to roadwork.,3249.0,Highway 200 E,R,Cohagen,Garfield,MT,59322,US,US/Mountain,KJDN,2021-08-04 16:48:00,90.0,90.0,29.0,27.19,,NNE,16.0,0.0,,False,False,False,False,False,False,False,False,False,False,False,False,False,Day,Day,Day,Day
C-5821844,2,2021-06-21 14:49:47.000000000,2021-06-21 16:55:21.000000000,25.732212,-80.370088,25.733125,-80.367766,0.157691834124,Stationary traffic on FL-976 - FL-985 from SW 109th Ave to SW 38th St due to roadwork.,,SW 40th St,R,Miami,Miami-Dade,FL,33165,US,US/Eastern,KMIA,2021-06-21 14:53:00,91.0,91.0,63.0,30.05,10.0,SE,13.0,0.0,Mostly Cloudy,False,False,False,False,False,False,False,False,True,False,False,False,False,Day,Day,Day,Day
C-5821845,2,2021-11-07 11:19:30.000000000,2021-11-07 13:21:24.000000000,34.022977000000004,-118.355623,34.021519,-118.354858,0.109851591505,Slow traffic from W Jefferson Blvd to W Martin Luther King Jr Blvd due to roadwork.,,S La Brea Ave,R,Los Angeles,Los Angeles,CA,90016,US,US/Pacific,KSMO,2021-11-07 11:29:00,59.0,59.0,81.0,29.85,3.0,VAR,6.0,0.0,Haze,False,False,False,False,False,False,False,False,False,False,False,False,False,Day,Day,Day,Day
C-5821846,4,2021-08-05 04:29:05.000000000,2021-08-25 09:19:30.000000000,39.957737,-75.288415,39.957929,-75.288542,0.0148736443234,Closed road from Upper Darby to Highland Ave due to roadwork.,700.0,Windermere Ave,L,Drexel Hill,Delaware,PA,19026-1514,US,US/Eastern,KPHL,2021-08-05 04:54:00,65.0,65.0,84.0,30.08,10.0,NNW,5.0,0.0,Mostly Cloudy,False,False,False,False,False,False,False,False,False,False,False,False,False,Night,Night,Night,Day
C-5821847,4,2021-04-20 07:11:28.000000000,2021-04-27 23:59:00.000000000,40.6952,-73.626485,40.694799,-73.626037,0.0363103169729,Closed road from W Graham Ave to Hempstead due to roadwork.,68.0,Brooklyn Rd,L,Hempstead,Nassau,NY,11550-6620,US,US/Eastern,KJFK,2021-04-20 06:51:00,49.0,47.0,90.0,29.91,10.0,SSW,6.0,0.0,Fair,False,False,False,False,False,False,False,False,False,False,False,False,False,Day,Day,Day,Day
C-5821848,3,2016-08-30 01:57:21.000000000,2016-08-30 06:00:00.000000000,41.190434,-73.134026,,,0.0,Right lane closed due to construction work on I-95 Southbound between Exit 34 US-1 Bridgeport Ave and Exit 32 Broad St.,,I-95 N,R,Stratford,Fairfield,CT,06615,US,US/Eastern,KBDR,2016-08-30 01:52:00,72.0,,57.0,30.15,10.0,NNE,8.1,,Clear,False,False,False,False,False,False,False,False,False,False,False,False,False,Night,Night,Night,Night
C-5821849,2,2021-11-16 09:14:00.000000000,2021-11-16 09:27:30.000000000,35.087985,-81.696465,35.08265,-81.706013,0.653679104022,Slow traffic on I-85 S from SC-11/Exit 92 (I-85) to Hyatt St/Exit 90 (I-85) due to roadwork.,,I-85 S,R,Gaffney,Cherokee,SC,29341,US,US/Eastern,KEHO,2021-11-16 09:15:00,44.0,44.0,61.0,29.33,10.0,CALM,0.0,0.0,Fair,False,False,False,False,False,False,False,False,False,False,False,False,False,Day,Day,Day,Day
C-5821850,2,2021-12-22 11:23:00.000000000,2021-12-22 11:52:00.000000000,26.146076,-80.451217,26.146376,-80.546437,5.90589027663,Slow traffic on FL-84 W - I-75 N - Alligator Aly W - Everglades Pkwy W from US-27/FL-25/Exit 13 (I-75) to Exit 49 (I-75) due to roadwork.,,Alligator Aly W,R,Fort Lauderdale,Broward,FL,33332,US,US/Eastern,KHWO,2021-12-22 11:53:00,69.0,69.0,57.0,29.95,10.0,NW,13.0,0.0,Fair,False,False,False,False,False,False,False,False,False,False,False,False,False,Day,Day,Day,Day
C-5821851,2,2021-10-27 10:45:00.000000000,2021-10-27 12:50:49.000000000,39.968249,-75.29258,39.96751,-75.296613,0.219580647912,Slow traffic on PA-3 - US-1 N - US-1 S from N Harwood Ave to Hollywood Ave due to roadwork.,9201.0,W Chester Pike,R,Upper Darby,Delaware,PA,19082-1109,US,US/Eastern,KPHL,2021-10-27 10:54:00,63.0,63.0,65.0,29.66,10.0,NNW,16.0,0.0,Mostly Cloudy,False,False,True,False,False,False,False,False,False,True,False,False,False,Day,Day,Day,Day
C-5821852,2,2020-08-26 17:17:00.000000000,2020-08-26 22:36:30.000000000,41.091302,-78.51728,41.060412,-78.44941,4.12937037801,Stationary traffic on I-80 from PA-153/Exit 111 (I-80) to PA-879/Exit 120 (I-80) due to roadwork.,,I-80 E,R,Penfield,Clearfield,PA,15849,US,US/Eastern,KFIG,2020-08-26 16:54:00,79.0,79.0,45.0,28.38,10.0,WSW,13.0,0.0,Fair,False,False,False,False,False,False,False,False,False,False,False,False,False,Day,Day,Day,Day
C-5821853,2,2021-02-05 17:10:00.000000000,2021-02-05 18:20:30.000000000,32.749398,-96.809532,32.717115,-96.828522,2.48867875981,Slow traffic on US-67 S - I-35E N - US-77 S - R L Thornton Fwy S - US-67 N - US-77 N - R L Thornton Fwy N - I-35E S from exit [428B] to W Kiest Blvd due to roadwork.,,I-35E N,R,Dallas,Dallas,TX,75203,US,US/Central,KRBD,2021-02-05 16:53:00,60.0,60.0,20.0,29.11,10.0,SE,8.0,0.0,Fair,False,False,False,False,False,False,False,False,False,False,False,False,False,Day,Day,Day,Day
C-5821854,3,2016-03-31 19:00:48.000000000,2016-04-01 10:00:00.000000000,42.493229,-96.467369,,,6.79,Intermittent lane closures due to construction work on I-29 Northbound between Exits 144A 144A-B 144B I-129 and Exit 151 IA-12 Riverside Blvd.,,Riverside Blvd,R,Sioux City,Woodbury,IA,51109,US,US/Central,KSUX,2016-03-31 18:52:00,42.1,34.5,82.0,29.69,10.0,NW,15.0,0.0,Light Rain,False,False,False,False,False,False,False,False,False,False,False,False,False,Day,Day,Day,Day
C-5821855,2,2020-03-25 18:05:14.000000000,2020-03-30 16:42:53.000000000,33.89321,-84.30748,33.89053,-84.31095,0.2718385156769999,At Chamblee Tucker Rd - Construction work.,3504.0,Miller Dr,L,Atlanta,DeKalb,GA,30341,US,US/Eastern,KPDK,2020-03-26 16:53:00,73.0,73.0,53.0,28.9,10.0,VAR,7.0,0.0,Partly Cloudy,False,False,True,False,False,False,False,False,False,False,False,True,False,Day,Day,Day,Day
C-5821856,2,2021-10-19 12:53:30.000000000,2021-10-19 13:32:00.000000000,41.201365,-80.010549,41.202346,-79.983982,1.38275956236,Slow traffic on I-80 E from PA-173/Exit 24 (I-80) to PA-8/Exit 29 (I-80) due to roadwork.,,I-80 E,R,Grove City,Mercer,PA,16127,US,US/Eastern,KUCP,2021-10-19 12:56:00,67.0,67.0,45.0,29.0,10.0,WNW,14.0,0.0,Fair,False,False,False,False,False,False,False,False,False,False,False,False,False,Day,Day,Day,Day
C-5821857,2,2019-09-30 00:00:01.000000000,2019-10-01 00:00:01.000000000,39.87833300000001,-105.28124,39.878206,-105.27873999999998,0.132847289252,At CO-93/Foothills Rd - Construction work.,25006.0,Coal Creek Canyon Dr,L,Golden,Jefferson,CO,80403-8332,US,US/Mountain,KBDU,2019-09-30 00:12:00,64.0,64.0,28.0,24.45,10.0,SSE,7.0,0.0,Fair,False,False,False,False,False,False,False,False,False,False,False,False,False,Night,Night,Night,Night
C-5821858,2,2021-03-29 07:40:50.000000000,2021-03-29 17:57:51.000000000,25.776659,-80.140863,25.774519,-80.14151,0.153241872157,Slow traffic on US-41 S - US-41 N - FL-A1A - FL-907 from 8th St to MacArthur Cswy / West Ave due to roadwork.,676.0,Alton Rd,L,Miami Beach,Miami-Dade,FL,33139,US,US/Eastern,KMIA,2021-03-29 07:53:00,76.0,76.0,82.0,30.09,10.0,CALM,0.0,0.0,Mostly Cloudy,False,False,True,False,False,False,False,False,False,False,False,False,False,Day,Day,Day,Day
C-5821859,3,2021-03-25 23:35:19.000000000,2021-03-26 06:00:00.000000000,33.68824,-117.918114,,,0.2800000011919999,Entry ramp to I-405 Southbound from Harbor Blvd Northbound closed due to construction work.,,San Diego Fwy S,R,Costa Mesa,Orange,CA,92626,US,US/Pacific,KSNA,2021-03-25 23:53:00,54.0,54.0,66.0,29.82,10.0,CALM,0.0,0.0,Cloudy,False,False,False,False,False,False,False,False,False,False,False,False,False,Night,Night,Night,Night
C-5821860,3,2021-08-24 04:40:19.000000000,2021-11-12 23:59:00.000000000,43.044521,-89.280159,,,0.219999998808,Entry ramp to US-12 Eastbound from I-39 Southbound intermittent ramp closures due to construction work.,,US-12 E,R,Madison,Dane,WI,53718,US,US/Central,KMSN,2021-08-24 04:53:00,70.0,70.0,93.0,29.02,10.0,CALM,0.0,0.0,Fair,False,False,False,False,False,False,False,False,False,False,False,False,False,Night,Night,Night,Day
C-5821861,2,2021-09-24 08:47:30.000000000,2021-09-24 09:14:00.000000000,33.512136,-112.047515,33.509221999999994,-112.047531,0.2013403344619999,Stationary traffic from E Colter St (N 16th St) to E Camelback Rd (N 16th St) due to roadwork.,5166.0,N 16th St,L,Phoenix,Maricopa,AZ,85016-3918,US,US/Mountain,KPHX,2021-09-24 08:51:00,80.0,80.0,40.0,28.75,10.0,E,9.0,0.0,Mostly Cloudy,False,False,True,False,False,False,False,False,False,False,False,True,False,Day,Day,Day,Day
C-5821862,2,2021-09-27 16:55:04.000000000,2021-10-11 03:00:09.000000000,38.937097,-75.87565699999998,38.938161,-75.87839,0.164250160152,Roadwork from Holly Rd to Central Ave.,23879.0,Holsinger Ln,L,Ridgely,Caroline,MD,21660-1706,US,US/Eastern,KRJD,2021-10-04 05:45:00,72.0,72.0,94.0,29.87,10.0,CALM,0.0,0.0,Fair,True,False,False,False,False,False,False,False,False,False,False,False,False,Day,Day,Day,Day
C-5821863,2,2021-08-18 15:10:14.000000000,2021-08-18 16:06:48.000000000,40.807649,-73.93924100000002,40.81208,-73.936032,0.349130394116,Slow traffic from E 125th St (Madison Ave) to E 135th St (Madison Ave) due to roadwork.,2007.0,Madison Ave,R,New York,New York,NY,10035-1215,US,US/Eastern,KNYC,2021-08-18 14:51:00,81.0,,77.0,30.07,10.0,,,0.0,Mostly Cloudy,False,False,True,False,False,False,False,False,True,False,False,True,False,Day,Day,Day,Day
C-5821864,2,2020-04-08 10:02:51.000000000,2020-04-09 10:02:51.000000000,38.99281,-77.09603,38.98004,-77.0922,0.905982223266,Between Woodmont Ave and MD-191/Bradley Ln - Roadwork. Right lane closed.,,Battery Ln,R,Bethesda,Montgomery,MD,20814,US,US/Eastern,KCGS,2020-04-08 10:06:00,61.0,61.0,69.0,29.56,10.0,SW,5.0,0.0,Fair,True,False,True,False,False,False,False,False,False,False,False,True,False,Day,Day,Day,Day
C-5821865,2,2021-06-05 03:13:05.000000000,2021-06-06 04:00:47.000000000,32.690001,-96.629744,32.693451,-96.635854,0.427842664008,Construction on US-175 WB near I-20 Allow extra time.,,Hawn Fwy W,R,Dallas,Dallas,TX,75253,US,US/Central,KHQZ,2021-06-05 03:15:00,69.0,69.0,99.0,29.46,5.0,CALM,0.0,0.0,Cloudy,False,False,False,False,False,False,False,False,False,False,False,False,False,Night,Night,Night,Night
C-5821866,2,2021-09-09 12:51:30.000000000,2021-09-09 15:08:13.000000000,33.655156,-112.008416,33.654725,-112.000538,0.454062517733,Slow traffic from N 34th St to Piestewa Fwy S due to roadwork.,3438.0,E Union Hills Dr,R,Phoenix,Maricopa,AZ,85050,US,US/Mountain,KDVT,2021-09-09 12:53:00,103.0,103.0,18.0,28.29,10.0,ESE,8.0,0.0,Fair,False,True,False,False,False,False,False,False,False,False,True,False,False,Day,Day,Day,Day
C-5821867,2,2021-09-11 11:04:30.000000000,2021-09-11 11:28:00.000000000,41.720668,-87.703062,41.721494,-87.70180400000002,0.0864062110113,Slow traffic on US-12 E - US-20 E from S Sawyer Ave to W 94th St due to roadwork.,3227.0,W 95th St,L,Evergreen Park,Cook,IL,60805-2300,US,US/Central,KMDW,2021-09-11 10:53:00,76.0,76.0,60.0,29.28,10.0,SW,9.0,0.0,Fair,False,False,False,False,False,False,False,False,False,False,False,False,False,Day,Day,Day,Day
C-5821868,2,2021-10-21 04:34:00.000000000,2021-10-21 04:48:00.000000000,35.097509,-81.673017,35.084089,-81.703547,1.9593110752200005,Slow traffic on I-85 S from SC-11/Exit 92 (I-85) to Hyatt St/Exit 90 (I-85) due to roadwork.,,I-85 S,R,Gaffney,Cherokee,SC,29341,US,US/Eastern,KEHO,2021-10-21 04:35:00,48.0,48.0,95.0,29.23,10.0,CALM,0.0,0.0,Fair,False,False,False,False,False,False,False,False,False,False,False,False,False,Night,Night,Night,Night
C-5821869,2,2021-07-28 15:21:37.000000000,2021-07-28 15:47:30.000000000,38.867479,-77.362581,38.861832,-77.347303,0.909835726944,Slow traffic on US-50 E from VA-7100/Fairfax County Pkwy (US-50) to I-66 (US-50) due to roadwork.,,Lee Jackson Memorial Hwy,R,Fairfax,Fairfax County,VA,22033,US,US/Eastern,KIAD,2021-07-28 14:52:00,93.0,93.0,33.0,29.64,10.0,NW,6.0,0.0,Partly Cloudy,False,False,False,False,False,False,False,False,False,False,False,False,False,Day,Day,Day,Day
C-5821870,2,2021-10-26 04:50:54.000000000,2021-12-13 02:59:54.000000000,35.013591,-81.246599,35.014645,-81.247667,0.0946358435991999,Roadwork on SC-161/SC-49/Congress St (US-321 Bus/Kings Mountain St) from US-321 (US-321 Bus/Kings Mountain St) to SC-161 - US-321 N.,528.0,Kings Mountain St,R,York,York,SC,29745-1155,US,US/Eastern,KUZA,2021-10-26 04:54:00,55.0,55.0,83.0,29.05,10.0,N,7.0,0.0,Fair,False,False,False,False,False,False,False,False,False,False,False,False,False,Night,Night,Night,Night
C-5821871,2,2020-11-02 08:00:00.000000000,2020-11-02 23:15:00.000000000,42.148214,-79.653048,42.135768,-79.67765899999998,1.5261935147,Construction on NY-430 WB near TOWN OF MINA Drive with caution.,,I-86 W,R,Sherman,Chautauqua,NY,14781,US,US/Eastern,KJHW,2020-11-02 07:56:00,28.0,18.0,78.0,28.23,2.0,NW,12.0,0.0,Light Snow,False,False,False,False,False,False,False,False,False,False,False,False,False,Day,Day,Day,Day
