ID,Severity,Start_Time,End_Time,Start_Lat,Start_Lng,End_Lat,End_Lng,Distance(mi),Description,Number,Street,Side,City,County,State,Zipcode,Country,Timezone,Airport_Code,Weather_Timestamp,Temperature(F),Wind_Chill(F),Humidity(%),Pressure(in),Visibility(mi),Wind_Direction,Wind_Speed(mph),Precipitation(in),Weather_Condition,Amenity,Bump,Crossing,Give_Way,Junction,No_Exit,Railway,Roundabout,Station,Stop,Traffic_Calming,Traffic_Signal,Turning_Loop,Sunrise_Sunset,Civil_Twilight,Nautical_Twilight,Astronomical_Twilight
C-4794582,2,2021-08-19 19:27:00.000000000,2021-08-19 22:09:16.000000000,38.993575,-77.334709,38.993859,-77.33704200000003,0.126810509883,Stationary traffic on VA-602 - VA-7 from Utterback Store Rd to Round Pebble Ln / Fieldview Dr due to roadwork.,11214.0,Leesburg Pike,R,Herndon,Fairfax County,VA,20170-2201,US,US/Eastern,KIAD,2021-08-19 19:52:00,76.0,76.0,94.0,29.63,8.0,S,7.0,0.03,Light Rain,False,False,False,False,False,False,False,False,False,False,False,False,False,Day,Day,Day,Day
C-4794583,2,2020-10-12 16:29:59.000000000,2020-10-13 17:17:28.000000000,34.382475,-92.848752,34.388045,-92.842652,0.518738600693,Construction on I-30 EB near MM 96 Construction. Left lane closed.,,I-30 E,R,Malvern,Hot Spring,AR,72104,US,US/Central,KHOT,2020-10-12 16:53:00,78.0,78.0,28.0,29.37,10.0,NNW,7.0,0.0,Fair,False,False,False,False,True,False,False,False,False,False,False,False,False,Day,Day,Day,Day
C-4794584,2,2021-05-21 08:29:20.000000000,2021-05-21 19:04:25.000000000,40.848772,-73.932316,40.850903,-73.938282,0.344823136025,Slow traffic from 181st St/Amsterdam Ave (W 181st St) to Haven Ave/Plaza Lafayette (W 181st St) due to roadwork.,325.0,Audubon Ave,R,New York,New York,NY,10033-4204,US,US/Eastern,KNYC,2021-05-21 08:51:00,66.0,66.0,38.0,30.43,10.0,CALM,0.0,0.0,Fair,True,False,True,False,False,False,True,False,True,False,False,True,False,Day,Day,Day,Day
C-4794585,2,2021-12-06 16:24:00.000000000,2021-12-06 19:28:08.000000000,33.393469,-112.022389,33.392331,-112.030087,0.450983377944,Stationary traffic from S 28th St to E Pleasant Ln due to roadwork.,2738.0,E Southern Ave,L,Phoenix,Maricopa,AZ,85040-3622,US,US/Mountain,KPHX,2021-12-06 16:51:00,75.0,75.0,20.0,28.75,10.0,CALM,0.0,0.0,Mostly Cloudy,False,False,False,False,False,False,False,False,False,False,False,False,False,Day,Day,Day,Day
C-4794586,2,2021-10-12 09:07:00.000000000,2021-10-12 09:27:30.000000000,40.686426,-74.00809699999998,40.693359,-74.012653,0.535198181582,Slow traffic on I-478 E from I-478 W to Brooklyn Battery Tunl W due to roadwork.,,Brooklyn Battery Tunl,R,Brooklyn,Kings,NY,11231,US,US/Eastern,KJRB,2021-10-12 09:16:00,63.0,63.0,84.0,30.07,10.0,ENE,5.0,0.0,Cloudy,False,False,False,False,False,False,False,False,False,False,False,False,False,Day,Day,Day,Day
C-4794587,2,2019-11-21 20:02:20.000000000,2019-11-25 20:02:15.000000000,42.44937,-71.32011,42.44785,-71.32719,0.375926538406,At Cambridge Tpke/Bypass Rd - Construction work. Lane blocked.,,MA-2,R,Lincoln,Middlesex,MA,01773,US,US/Eastern,KBED,2019-11-21 19:51:00,33.0,33.0,85.0,29.88,10.0,CALM,0.0,0.0,Fair,False,False,False,False,False,False,False,False,False,False,False,False,False,Night,Night,Night,Night
C-4794588,4,2021-04-26 21:30:00.000000000,2021-04-27 05:59:00.000000000,33.704723,-117.95451,33.704915,-117.954409,0.0144806037758999,Full closure due to Bridge Work between Brookhurst St and San Diego Frwy Rte 405,,Brookhurst St,R,Fountain Valley,Orange,CA,92708,US,US/Pacific,KSNA,2021-04-26 21:34:00,58.0,58.0,65.0,29.86,10.0,SSW,9.0,0.0,Mostly Cloudy,False,False,False,False,False,False,False,False,False,False,False,False,False,Night,Night,Night,Night
C-4794589,2,2019-11-17 00:00:45.000000000,2019-12-03 22:00:00.000000000,40.51395,-107.6164,40.51126,-107.52643,4.729702959180001,Between CR-14/Bear Valley Rd and CR-179/Main St - Bridge maintenance work.,3423.0,W Victory Way,L,Craig,Moffat,CO,81625,US,US/Mountain,KCAG,2019-11-18 02:53:00,25.0,25.0,85.0,23.95,10.0,SW,3.0,0.0,Fair,False,False,False,False,False,False,False,False,False,False,False,False,False,Night,Night,Night,Night
C-4794590,2,2021-08-20 20:00:00.000000000,2021-08-21 02:00:00.000000000,42.413654,-71.189987,,,2.51999998093,Two lanes closed due to construction work on MA-2 Concord Tpke both ways from MA-225 to Park Avenue.,,Concord Tpke W,R,Arlington,Middlesex,MA,02476,US,US/Eastern,KBED,2021-08-20 19:51:00,76.0,76.0,94.0,29.72,10.0,SSW,5.0,0.0,Fair,False,False,False,False,False,False,False,False,False,False,False,False,False,Night,Day,Day,Day
C-4794591,3,2020-05-31 21:00:00.000000000,2020-06-05 06:00:00.000000000,27.951084,-82.514351,,,3.15000009537,Intermittent lane closures due to construction work on I-275 Eastbound from Exit 39 FL-60 Memorial Hwy Exits 1A 1B to Exit 40B Lois Ave.,,I-275 S,R,Tampa,Hillsborough,FL,33609,US,US/Eastern,KTPA,2020-05-31 20:53:00,83.0,83.0,53.0,29.97,10.0,NW,8.0,0.0,Partly Cloudy,False,False,False,False,False,False,False,False,False,False,False,False,False,Night,Night,Day,Day
C-4794592,2,2019-08-13 07:15:25.000000000,2019-08-13 17:16:25.000000000,43.612928,-118.667952,43.660456,-118.600126,4.720913278319999,Between N Harney Rd/Rattlesnake Rd/Lawen-H Rd and County Road 310/Pine Creek Rd - Maintenance work.,39328.0,Highway 20 E,R,Burns,Harney,OR,97720-9509,US,US/Pacific,KBNO,2019-08-13 06:53:00,56.0,56.0,57.0,25.89,10.0,W,5.0,0.0,Fair,False,False,False,False,False,False,False,False,False,False,False,False,False,Day,Day,Day,Day
C-4794593,4,2019-06-22 21:02:55.000000000,2019-06-23 02:01:08.000000000,33.996520000000004,-118.1795,33.99381,-118.1765,0.2541523634829999,Ramp closed to Atlantic Blvd/Bandini Blvd - Closed due to roadwork.,3939.0,S Atlantic Blvd,L,Los Angeles,Los Angeles,CA,90058,US,US/Pacific,KCQT,2019-06-22 20:52:00,66.0,66.0,73.0,29.75,10.0,W,5.0,0.0,Fair,False,False,False,False,False,False,False,False,False,False,False,False,False,Night,Night,Day,Day
C-4794594,2,2021-10-28 14:41:40.000000000,2021-10-28 19:00:40.000000000,40.722997,-74.005063,40.723764,-74.006101,0.0759127053949,Stationary traffic from Laight St / Canal St to Holland Tunl W / Broome St due to roadwork.,82.0,Avenue of the Americas,R,New York,New York,NY,10013-1607,US,US/Eastern,KJRB,2021-10-28 14:51:00,57.0,57.0,59.0,29.83,10.0,VAR,6.0,0.0,Fair,True,False,False,False,False,False,True,False,True,False,False,True,False,Day,Day,Day,Day
C-4794595,2,2021-12-13 23:20:53.000000000,2021-12-15 06:10:56.000000000,43.643037,-95.933113,43.71359,-95.932917,4.87475786852,Construction on MN-91 NB near 100TH ST Allow extra time.,,State Highway 91,R,Adrian,Nobles,MN,56110,US,US/Central,KLYV,2021-12-13 23:15:00,28.0,28.0,80.0,28.6,10.0,CALM,0.0,0.0,Fair,False,False,False,False,False,False,False,False,False,False,False,False,False,Night,Night,Night,Night
C-4794596,2,2021-12-11 19:37:22.000000000,2021-12-12 04:22:22.000000000,44.24355,-94.968659,44.244475,-94.964362,0.222082702956,Construction on US-14 EB near LASER AVE Allow extra time.,401.0,N Washington Ave,R,Springfield,Brown,MN,56087-1750,US,US/Central,KRWF,2021-12-11 19:53:00,23.0,11.0,72.0,28.71,10.0,SW,13.0,0.0,Fair,False,False,False,False,False,False,False,False,False,False,False,False,False,Night,Night,Night,Night
C-4794597,2,2021-12-21 10:34:30.000000000,2021-12-21 11:10:00.000000000,25.899184,-80.191929,25.899768,-80.1788,0.8170142487340001,Slow traffic on FL-916 from Griffing Blvd/Memorial Hwy (NE 135th St/FL-916) to FL-909/NE 10th Ave/W Dixie Hwy (NE 135th St/FL-916) due to roadwork.,384.0,NE 135th St,R,Miami,Miami-Dade,FL,33161,US,US/Eastern,KOPF,2021-12-21 10:27:00,79.0,79.0,74.0,29.85,10.0,SW,20.0,0.0,Partly Cloudy,False,False,False,False,False,False,False,False,False,False,False,True,False,Day,Day,Day,Day
C-4794598,3,2020-11-13 23:00:00.000000000,2020-11-13 23:59:00.000000000,33.545551,-117.6735,,,0.5600000023839999,Entry ramp to I-5 Southbound from Avery Pkwy closed due to construction work.,,I-5 S,R,Mission Viejo,Orange,CA,92692,US,US/Pacific,KSNA,2020-11-13 22:53:00,55.0,55.0,77.0,30.06,10.0,SE,3.0,0.0,Fair,False,False,False,False,False,False,False,False,False,False,False,False,False,Night,Night,Night,Night
C-4794599,2,2021-08-03 15:23:41.000000000,2021-08-03 15:57:27.000000000,40.787633,-76.23321,40.783792,-76.230411,0.303104024225,Slow traffic on PA-924 from Catawissa St (Gold Star Hwy/PA-924) to PA-61/Oak St (S Lehigh Ave/PA-924) due to roadwork.,,Catawissa St,R,Frackville,Schuylkill,PA,17931,US,US/Eastern,KMUI,2021-08-03 14:56:00,76.0,76.0,49.0,29.57,10.0,SE,5.0,0.0,Mostly Cloudy,False,False,False,False,False,False,False,False,False,False,False,True,False,Day,Day,Day,Day
C-4794600,1,2020-07-22 00:00:00.000000000,2020-07-24 17:00:00.000000000,37.924728,-85.68776700000002,,,15.7100000381,Shoulder closed and speed restriction of 55 mph due to construction work on I-65 both ways from Exit 117 KY-44 to Exit 112 KY-245 Clermont Rd.,,I-65 S,R,Lebanon Junction,Bullitt,KY,40150,US,US/Eastern,KFTK,2020-07-22 00:44:00,73.0,73.0,94.0,29.26,10.0,CALM,0.0,0.0,Mostly Cloudy,False,False,False,False,False,False,False,False,False,False,False,False,False,Night,Night,Night,Night
C-4794601,2,2021-07-29 14:42:30.000000000,2021-07-29 15:22:00.000000000,40.019396,-105.258472,40.017453,-105.25882,0.135505520328,Slow traffic on US-36 E - CO-119 from Pearl St to Canyon Blvd due to roadwork.,1819.0,28th St,L,Boulder,Boulder,CO,80301-1003,US,US/Mountain,KBDU,2021-07-29 14:35:00,86.0,86.0,35.0,24.89,10.0,SSE,3.0,0.0,Fair,False,True,True,False,False,False,False,False,False,False,True,True,False,Day,Day,Day,Day
C-4794602,2,2021-10-08 17:23:30.000000000,2021-10-08 19:27:17.000000000,39.704276,-104.912972,39.701744,-104.91141299999998,0.193581021661,Slow traffic on CO-83 from E Center Ave to S Niagara St due to roadwork.,691.0,S Monaco Street Pkwy,R,Denver,Denver,CO,80224-1228,US,US/Mountain,KBKF,2021-10-08 17:09:00,73.0,73.0,20.0,24.3,10.0,NE,8.0,0.0,Mostly Cloudy,True,False,False,False,False,True,False,False,True,False,False,False,False,Day,Day,Day,Day
C-4794603,2,2018-11-02 00:10:00.000000000,2019-07-31 11:00:00.000000000,32.425041,-86.41156,,,0.0,Intermittent lane closures due to bridge maintenance work on US-31 Memorial Dr Southbound at CR-4.,1707.0,S Memorial Dr,R,Prattville,Autauga,AL,36067-6531,US,US/Central,KMXF,2018-11-02 00:23:00,64.4,,100.0,29.81,10.0,WNW,8.1,,Light Drizzle,False,False,False,False,False,False,False,False,False,False,False,False,False,Night,Night,Night,Night
C-4794604,2,2020-12-28 17:16:00.000000000,2020-12-29 01:15:00.000000000,39.763567,-75.527659,39.76272,-75.527015,0.067784598009,Construction on WASHINGTON ST &amp; 38TH ST near WEST ST Drive with caution.,399.0,W 38th St,R,Wilmington,New Castle,DE,19802-2109,US,US/Eastern,KILG,2020-12-28 16:51:00,47.0,45.0,52.0,30.03,10.0,SSW,5.0,0.0,Fair,False,False,False,False,False,False,False,False,False,False,False,False,False,Night,Night,Day,Day
C-4794605,4,2017-05-12 21:00:00.000000000,2017-05-14 05:00:00.000000000,42.50191,-71.11762,42.50141,-71.11841,0.0530369719015,Ramp closed to Exit 37B - Closed due to roadwork.,,MA-128 N,R,Reading,Middlesex,MA,01867,US,US/Eastern,KBVY,2017-05-12 20:53:00,46.9,,86.0,30.05,10.0,South,4.6,,Clear,False,False,False,False,False,False,False,False,False,False,False,False,False,Night,Night,Day,Day
C-4794606,3,2019-12-03 04:23:18.000000000,2019-12-07 04:21:35.000000000,31.42393,-88.54978,31.422,-88.53497,0.8833257417579999,At State Line - Construction work. Lane blocked.,38303.0,Highway 42,R,State Line,Greene,MS,39362-8107,US,US/Central,KHBG,2019-12-03 04:53:00,30.0,30.0,92.0,29.98,10.0,CALM,0.0,0.0,Fair,False,False,False,False,False,False,False,False,False,False,False,False,False,Night,Night,Night,Night
C-4794607,2,2020-10-06 17:32:00.000000000,2020-10-07 00:30:44.000000000,27.995165000000004,-82.45111899999998,27.998341,-82.453525,0.264007429506,Queuing traffic on FL-45 - US-92 W - US-41 S - US-41 N from E Giddens Ave to I-275 N due to resurfacing work.,5299.0,N Nebraska Ave,R,Tampa,Hillsborough,FL,33603-2342,US,US/Eastern,KTPF,2020-10-06 17:35:00,91.0,91.0,59.0,29.9,10.0,ESE,6.0,0.0,Fair,False,False,False,False,False,False,False,False,False,True,False,False,False,Day,Day,Day,Day
C-4794608,2,2020-05-04 14:00:00.000000000,2020-09-15 14:00:00.000000000,40.079554,-86.90446,40.077339,-86.895351,0.505305796793,Construction on I-74 EB near IN-25 Allow extra time.,,I-74 E,R,Crawfordsville,Montgomery,IN,47933,US,US/Eastern,KLAF,2020-05-04 13:54:00,63.0,63.0,45.0,29.4,10.0,NE,10.0,0.0,Fair,False,False,False,False,False,False,False,False,False,False,False,False,False,Day,Day,Day,Day
C-4794609,2,2021-06-03 08:31:49.000000000,2021-06-15 19:10:25.000000000,43.329166,-73.683875,43.325336,-73.681595,0.288375281766,NYSDOT TMC - Albany: roadwork on I-87 Northway southbound Exit 19; NY 254 (Glens Falls North) Not currently Scheduled,,Adirondack Northway S,R,Queensbury,Warren,NY,12804,US,US/Eastern,KGFL,2021-06-03 08:53:00,62.0,62.0,84.0,29.68,10.0,S,3.0,0.0,Cloudy,False,False,False,False,False,False,False,False,False,False,False,False,False,Day,Day,Day,Day
C-4794610,4,2020-08-17 05:00:00.000000000,2020-08-18 12:45:00.000000000,42.561119,-88.97590100000002,42.564279,-88.978859,0.265198498492,Construction on I-39 NB near COUNTY S Take alternate route.,,E County Road S,R,Beloit,Rock,WI,53511,US,US/Central,KJVL,2020-08-17 04:55:00,63.0,63.0,100.0,29.15,10.0,CALM,0.0,0.0,Partly Cloudy,False,False,False,False,False,False,False,False,False,False,False,False,False,Night,Night,Day,Day
C-4794611,2,2021-11-16 08:27:00.000000000,2021-11-16 08:47:30.000000000,34.97842,-98.356708,35.002078000000004,-98.356737,1.63461294394,Slow traffic on US-281 S - US-62 W - US-281 N - US-62 E from OK-19 (Apache) (North) (US-62/S Myers Rd/US-281) to OK-9 (US-62/US-281) due to roadwork.,40198.0,US Highway 281,R,Apache,Caddo,OK,73006-8033,US,US/Central,KFSI,2021-11-16 08:56:00,57.0,57.0,100.0,28.62,10.0,S,6.0,0.0,Fair,False,False,False,False,False,False,False,False,False,False,False,False,False,Day,Day,Day,Day
C-4794612,2,2017-02-27 09:18:05.000000000,2017-02-27 15:18:49.000000000,42.03462,-80.1168,42.03734,-80.12189000000002,0.321787983253,Ramp to I-79 Northbound - Roadwork. Traffic problem.,,I-90 W,R,Erie,Erie,PA,16509,US,US/Eastern,KERI,2017-02-27 08:51:00,39.9,33.4,43.0,30.27,10.0,SSW,10.4,,Clear,False,False,False,False,False,False,False,False,False,False,False,False,False,Day,Day,Day,Day
C-4794613,2,2021-07-21 21:00:00.000000000,2021-07-22 05:45:00.000000000,45.154577,-90.333879,45.15486,-90.333655,0.0223932516814999,Construction on WI-13 SB near COUNTY O Drive with caution.,,Ann's Way,R,Medford,Taylor,WI,54451,US,US/Central,KMDZ,2021-07-21 20:55:00,64.0,64.0,85.0,28.59,10.0,E,3.0,0.0,Fair,False,False,False,False,False,False,False,False,False,False,False,False,False,Night,Day,Day,Day
C-4794614,2,2021-07-11 21:34:00.000000000,2021-07-13 22:28:29.000000000,30.580047,-84.70509399999997,30.618257,-84.81740400000002,7.18214146408,Construction on I-10 WB near MM 169 Construction. Left lane closed.,,FL-8 W,R,Quincy,Gadsden,FL,32351,US,US/Eastern,K2J9,2021-07-11 21:35:00,75.0,75.0,,29.87,8.0,ESE,6.0,,Cloudy,False,False,False,False,False,False,False,False,False,False,False,False,False,Night,Night,Day,Day
C-4794615,2,2021-12-24 13:20:08.000000000,2021-12-24 15:27:05.000000000,25.747509,-80.338235,25.746728,-80.33572,0.165559065059,Slow traffic on County Hwy-913 - FL-973 - FL-972 from SW 89th Ave to SW 25th St due to roadwork.,8824.0,SW 24th St,L,Miami,Miami-Dade,FL,33165-2008,US,US/Eastern,KMIA,2021-12-24 12:53:00,78.0,78.0,39.0,30.14,10.0,NNE,10.0,0.0,Fair,True,False,True,False,False,False,False,False,True,False,False,False,False,Day,Day,Day,Day
C-4794616,2,2021-11-11 07:07:00.000000000,2021-11-11 07:21:00.000000000,39.665432,-105.978003,39.675902,-105.95658,1.34959817416,Slow traffic on I-70 E from US-6/CO-9/Exit 205 (I-70) to US-6/Exit 216 (I-70) due to roadwork.,,I-70 E,R,Dillon,Summit,CO,80435,US,US/Mountain,KCCU,2021-11-11 06:53:00,20.0,,85.0,20.86,1.0,,,0.0,Light Snow,False,False,False,False,False,False,False,False,False,False,False,False,False,Day,Day,Day,Day
C-4794617,2,2021-01-20 02:27:58.000000000,2021-05-08 07:44:00.000000000,37.806841,-100.348353,37.807117,-100.361591,0.722905424267,Construction on US-50 WB near KS-23 Expect delays.,2.0,W Avenue A,L,Cimarron,Gray,KS,67835,US,US/Central,KDDC,2021-01-20 02:52:00,29.0,17.0,58.0,27.57,10.0,SSW,16.0,0.0,Fair,False,False,False,False,False,False,False,False,False,False,False,False,False,Night,Night,Night,Night
C-4794618,2,2021-03-02 05:50:30.000000000,2021-03-02 17:52:13.000000000,33.483348,-112.073901,33.480159,-112.07242,0.2362909246449999,Stationary traffic from Park Central to N 3rd St due to roadwork.,3076.0,N Central Ave,L,Phoenix,Maricopa,AZ,85013,US,US/Mountain,KPHX,2021-03-02 05:51:00,57.0,57.0,22.0,28.82,10.0,ENE,12.0,0.0,Fair,False,False,False,False,False,False,False,False,True,False,False,False,False,Night,Night,Night,Day
C-4794619,2,2018-05-31 09:00:00.000000000,2018-05-31 15:30:00.000000000,30.632189,-81.438469,,,0.0,Intermittent lane closures due to construction work on FL-A1A Fletcher Ave Northbound at Askins St.,2460.0,S Fletcher Ave,R,Fernandina Beach,Nassau,FL,32034-4537,US,US/Eastern,KFHB,2018-05-31 08:55:00,77.4,,84.0,30.02,10.0,WSW,6.9,,Mostly Cloudy,False,False,False,False,False,False,False,False,False,True,False,False,False,Day,Day,Day,Day
C-4794620,3,2016-07-07 20:00:00.000000000,2016-07-08 03:30:00.000000000,42.025078,-87.959846,,,0.0,Right lane closed due to paving repairs on I-90 Eastbound between Arlington Heights Rd and Busse Road.,,Jane Addams Memorial Tollway E,R,Elk Grove Village,Cook,IL,60007,US,US/Central,KORD,2016-07-07 19:51:00,75.0,,79.0,29.78,10.0,NNW,3.5,0.29,Mostly Cloudy,False,False,False,False,False,False,False,False,False,False,False,False,False,Day,Day,Day,Day
C-4794621,2,2021-07-08 09:14:00.000000000,2021-07-08 09:49:00.000000000,46.982966,-109.740083,46.983027,-109.747464,0.347940719891,Stationary traffic on US-87 N - MT-200 - US-191 N - US-87 S - US-191 S from Taylor Rd to Treasure Rd due to roadwork.,,US Highway 87,R,Moore,Fergus,MT,59464,US,US/Mountain,KLWT,2021-07-08 08:54:00,70.0,70.0,42.0,25.66,10.0,WSW,9.0,0.0,Fair,False,False,False,False,False,False,False,False,False,False,False,False,False,Day,Day,Day,Day
C-4794622,2,2018-04-12 14:38:57.000000000,2018-04-12 20:38:57.000000000,42.367332,-71.26987,42.343768,-71.26321999999998,1.66314550264,Between US-20/Weston St/Exit 26 and I-90/Mass Pike/Exit 25 - Construction work.,,MA-128 S,R,Waltham,Middlesex,MA,02453,US,US/Eastern,KBED,2018-04-12 15:17:00,57.2,,36.0,29.95,10.0,SSE,6.9,,Overcast,False,False,False,False,True,False,False,False,False,False,False,False,False,Day,Day,Day,Day
C-4794623,2,2020-09-03 14:15:30.000000000,2020-09-03 19:07:00.000000000,44.209376,-69.824525,44.213966,-69.824066,0.317952413762,Queuing traffic on I-295 from US-201/Exit 49 (I-295) to I-95/Maine Tpke (I-295) due to roadwork.,,I-295 N,R,Gardiner,Kennebec,ME,04345,US,US/Eastern,KAUG,2020-09-03 13:53:00,72.0,72.0,64.0,29.42,10.0,SE,3.0,0.0,Cloudy,False,False,False,False,False,False,False,False,False,False,False,False,False,Day,Day,Day,Day
C-4794624,2,2021-11-29 16:06:19.000000000,2021-11-29 16:19:53.000000000,35.081376,-81.70899,35.077188,-81.726108,1.01023341299,Slow traffic on I-85 S from Hyatt St/Exit 90 (I-85) to Green River Rd/Exit 86 (I-85) due to roadwork.,,I-85 S,R,Gaffney,Cherokee,SC,29341,US,US/Eastern,KEHO,2021-11-29 16:15:00,48.0,48.0,23.0,29.17,10.0,CALM,0.0,0.0,Fair,False,False,False,False,False,False,False,False,False,False,False,False,False,Day,Day,Day,Day
C-4794625,2,2021-03-26 06:40:30.000000000,2021-03-26 17:17:10.000000000,30.242613,-90.920791,30.246171,-90.920832,0.245846567376,Stationary traffic on LA-44 from LA-429/LA-3038 (LA-44) to US-61/N Airline Hwy (N Burnside Ave/LA-44) due to roadwork.,1298.0,N Burnside Ave,R,Gonzales,Ascension,LA,70737-2555,US,US/Central,KL38,2021-03-26 06:53:00,63.0,63.0,84.0,29.89,10.0,NE,9.0,0.0,Partly Cloudy,False,False,False,False,False,False,False,False,False,False,False,False,False,Night,Day,Day,Day
C-4794626,2,2021-05-11 18:01:00.000000000,2021-06-22 14:44:00.000000000,39.356664,-120.144306,39.378154,-120.101746,2.71531072017,Construction on I-80 EB near DONNER PASS INSPECTION FACILITY Expect delays.,,I-80 E,R,Truckee,Nevada,CA,96161,US,US/Pacific,KTRK,2021-06-22 01:55:00,52.0,52.0,54.0,24.25,10.0,CALM,0.0,0.0,Fair,False,False,False,False,False,False,False,False,False,False,False,False,False,Day,Day,Day,Day
C-4794627,2,2017-04-12 11:35:06.000000000,2017-04-13 12:04:00.000000000,42.415489,-88.123604,,,0.01,Intermittent lane closures due to construction work on IL-59 both ways at IL-132 Grand Ave.,38025.0,N State Route 59,R,Lake Villa,Lake,IL,60046-9794,US,US/Central,KUGN,2017-04-12 11:55:00,48.9,,59.0,30.43,10.0,ENE,6.9,,Clear,False,False,False,False,False,False,False,False,False,True,False,True,False,Day,Day,Day,Day
C-4794628,2,2020-09-23 13:16:00.000000000,2020-09-24 01:32:00.000000000,37.780127,-80.934914,37.770383,-80.98377099999998,2.75184379747,Slow traffic on I-64 from CR-7/Clayton-Judson/Exit 139 (I-64) to Pluto Rd/Exit 133 (I-64) due to roadwork.,,I-64 W,R,Shady Spring,Raleigh,WV,25918,US,US/Eastern,KBKW,2020-09-23 12:51:00,65.0,65.0,56.0,27.49,10.0,CALM,0.0,0.0,Fair,False,False,False,False,False,False,False,False,False,False,False,False,False,Day,Day,Day,Day
C-4794629,2,2018-07-11 07:00:00.000000000,2018-07-11 19:01:00.000000000,38.817299,-104.792198,,,2.00999999046,Intermittent lane closures due to paving repairs and maintenance work on Fountain Blvd both ways from Circle Dr to Union Blvd.,999.0,S Union Blvd,L,Colorado Springs,El Paso,CO,80910-3547,US,US/Mountain,KCOS,2018-07-11 06:54:00,64.0,,67.0,29.91,10.0,North,9.2,,Clear,False,False,True,False,False,False,False,False,False,False,False,True,False,Day,Day,Day,Day
C-4794630,2,2021-01-15 16:45:00.000000000,2021-01-15 23:46:00.000000000,38.394067,-120.525128,38.39433,-120.525896,0.0453856237184999,Construction on CA-26 EB near BARNEY WAY Expect long delays.,21949.0,Highway 26,L,West Point,Calaveras,CA,95255-9717,US,US/Pacific,KPVF,2021-01-15 16:35:00,63.0,63.0,42.0,27.56,10.0,CALM,0.0,0.0,Fair,False,False,False,False,False,False,False,False,False,False,False,False,False,Day,Day,Day,Day
C-4794631,2,2021-01-19 22:10:30.000000000,2021-01-20 00:20:28.000000000,29.94261400000001,-97.301401,29.956728,-97.297787,0.998897485017,Roadwork on FM-535 (TX-304) from FM-2571 (TX-304) to TX-304.,2793.0,Highway 304,R,Smithville,Bastrop,TX,78957-2379,US,US/Central,K3T5,2021-01-19 22:15:00,54.0,54.0,96.0,30.0,10.0,N,8.0,0.0,Cloudy,False,False,False,False,False,False,False,False,False,False,False,False,False,Night,Night,Night,Night
C-4794632,2,2020-09-27 19:05:51.000000000,2020-09-28 21:05:00.000000000,35.20753900000001,-101.276022,35.20747100000001,-101.147473,7.25712141714,Roadwork on I-40 from CR-O/Exit 98 (I-40) to I-40/Exit 110 (I-40).,,County Road T,R,Groom,Carson,TX,79039,US,US/Central,KPPA,2020-09-27 18:55:00,64.0,64.0,37.0,26.66,10.0,ENE,22.0,0.0,Partly Cloudy / Windy,False,False,False,False,False,False,False,False,False,False,False,False,False,Day,Day,Day,Day
C-4794633,2,2020-05-21 00:01:00.000000000,2020-05-21 05:00:00.000000000,40.33886,-74.30776,40.33886,-74.30776,0.0,At Union Hill Rd - Construction work. One lane blocked.,,US Highway 9,R,Morganville,Monmouth,NJ,07751,US,US/Eastern,KBLM,2020-05-21 00:56:00,47.0,45.0,100.0,30.27,10.0,E,5.0,0.0,Fair,False,False,False,False,False,False,False,False,False,False,False,False,False,Night,Night,Night,Night
C-4794634,3,2021-06-17 00:03:10.000000000,2021-06-17 05:00:00.000000000,34.068138,-117.559334,,,0.310000002384,Exit ramp from I-10 Westbound at Exit 57 to N Milliken Ave Southbound closed due to maintenance work.,,I-10 W,R,Ontario,San Bernardino,CA,91761,US,US/Pacific,KONT,2021-06-17 00:53:00,72.0,72.0,61.0,28.81,10.0,CALM,0.0,0.0,Mostly Cloudy,False,False,False,False,False,False,False,False,False,False,False,False,False,Night,Night,Night,Night
C-4794635,2,2020-12-08 14:24:00.000000000,2020-12-09 00:36:30.000000000,33.393408,-111.800737,33.393349,-111.805429,0.2706975788019999,Stationary traffic from S Gilbert Rd (E Southern Ave) to S Stapley Dr (E Southern Ave) due to roadwork.,1413.0,E Southern Ave,R,Mesa,Maricopa,AZ,85204,US,US/Mountain,KFFZ,2020-12-08 14:51:00,78.0,78.0,9.0,28.89,10.0,E,6.0,0.0,Mostly Cloudy,False,False,True,False,False,False,False,False,True,False,False,True,False,Day,Day,Day,Day
C-4794636,2,2021-11-04 18:06:00.000000000,2021-11-04 20:15:25.000000000,41.98962,-87.706008,41.990402,-87.708239,0.126673046592,Slow traffic on US-14 E - US-41 N - US-14 W from N Whipple St to N Jersey Ave due to roadwork.,5963.0,N Lincoln Ave,R,Chicago,Cook,IL,60659-3728,US,US/Central,KORD,2021-11-04 17:51:00,44.0,42.0,53.0,29.55,10.0,SSW,5.0,0.0,Fair,False,False,False,False,False,False,False,False,True,False,False,False,False,Night,Day,Day,Day
C-4794638,2,2020-12-02 07:30:00.000000000,2020-12-02 11:00:00.000000000,33.887017,-84.458137,33.890457,-84.460847,0.283993595769,Roadwork on Cumberland Blvd/Exit 258 (I-75) from I-285/Exit 259 (I-75) to I-75 N - GA-401 N.,,GA-401 N,R,Atlanta,Cobb,GA,30339,US,US/Eastern,KMGE,2020-12-02 07:56:00,30.0,22.0,68.0,29.17,10.0,NW,8.0,0.0,Fair,False,False,False,False,False,False,False,False,False,False,False,False,False,Day,Day,Day,Day
C-4794639,2,2021-04-21 07:03:00.000000000,2021-04-22 11:23:30.000000000,40.16787100000001,-75.8882,40.173291,-75.91058000000002,1.23950284658,Roadwork on I-176 northbound between 1.2 miles north of Exit : (Beginning of I - 176) and Mile Post: 1.8. There is a lane restriction.,,I-176 N,R,Morgantown,Berks,PA,19543,US,US/Eastern,KMQS,2021-04-21 06:55:00,54.0,54.0,72.0,29.02,10.0,VAR,6.0,0.0,Fair,False,False,False,False,False,False,False,False,False,False,False,False,False,Day,Day,Day,Day
C-4794640,2,2018-04-18 20:50:28.000000000,2018-04-19 02:50:28.000000000,39.4517,-74.53639,39.474274,-74.526833,1.64091474639,Between US-30/White Horse Pike and Atlantic City Rest Area - Construction work. Right lane blocked.,,W White Horse Pike,R,Absecon,Atlantic,NJ,08205,US,US/Eastern,KACY,2018-04-18 20:54:00,48.0,,77.0,29.81,10.0,South,6.9,,Mostly Cloudy,False,False,False,False,False,False,False,False,False,False,False,True,False,Night,Night,Night,Day
C-4794641,2,2020-10-14 20:39:30.000000000,2020-10-14 23:50:02.000000000,39.098737,-94.604761,39.095819,-94.578752,1.40914626702,Slow traffic on I-670 from Genesee St/Wyoming St/Exit 1B (EB) (I-670) to Locust St/Truman Rd/Exit 2Q (WB) (I-670) due to roadwork.,,I-670 E,R,Kansas City,Jackson,MO,64102,US,US/Central,KNKA,2020-10-14 20:54:00,68.0,68.0,28.0,28.99,10.0,N,14.0,0.0,Fair,False,False,True,False,False,False,False,False,False,False,False,True,False,Night,Night,Night,Night
C-4794642,3,2018-12-10 21:00:00.000000000,2018-12-11 05:00:00.000000000,29.780251,-95.453758,,,1.71000003815,One lane closed due to construction on I-10 Eastbound between Silber Rd and I-610 West Loop.,,I-10 E,R,Houston,Harris,TX,77024,US,US/Central,KMCJ,2018-12-10 20:55:00,51.8,,44.0,30.39,10.0,NNW,5.8,,Clear,False,False,False,False,False,False,False,False,False,False,False,False,False,Night,Night,Night,Night
C-4794643,2,2021-12-09 18:07:18.000000000,2021-12-09 18:27:18.000000000,40.748795,-73.937349,40.744516,-73.931714,0.4176295682060001,Slow traffic on NY-25 from Bridge Plz/Queens Plz (Queens Blvd/NY-25) to 39th St (Queens Blvd/NY-25) due to roadwork.,3016.0,Queens Blvd,R,Long Island City,Queens,NY,11101,US,US/Eastern,KNYC,2021-12-09 17:51:00,37.0,33.0,44.0,30.13,10.0,WNW,5.0,0.0,Fair,True,False,True,False,False,False,True,False,True,False,False,True,False,Night,Night,Night,Night
C-4794644,4,2018-11-13 08:12:26.000000000,2018-11-13 13:40:16.000000000,47.19038,-120.93165,47.1949,-120.96218,1.4670536852200002,Closed between Sunset Hwy and 1st St/Exit 84 - Closed due to roadwork.,,I-90 W,R,Cle Elum,Kittitas,WA,98922,US,US/Pacific,KSMP,2018-11-13 08:56:00,28.9,22.8,78.0,30.51,10.0,ESE,5.8,,Clear,False,False,False,False,False,False,False,False,False,False,False,False,False,Day,Day,Day,Day
C-4794645,2,2021-07-02 10:26:30.000000000,2021-07-02 14:12:07.000000000,43.596435,-83.948127,43.653291,-83.993032,4.52507130598,Slow traffic on I-75 N - US-23 N from MI-84/Exit 160 (I-75) to Beaver Rd/Exit 168 (I-75) due to roadwork.,,I-75 N,R,Bay City,Bay,MI,48706,US,US/Eastern,KMBS,2021-07-02 10:53:00,70.0,70.0,53.0,29.33,10.0,N,14.0,0.0,Fair,False,False,False,False,True,False,False,False,False,False,False,False,False,Day,Day,Day,Day
C-4794646,2,2021-05-13 22:00:00.000000000,2021-05-14 06:00:00.000000000,35.540481,-80.860265,35.494891,-80.870455,3.2016720866500004,In Mooresville / Mile Marker 30 to 37 Both Directions. MOBILE LANE CLOSURE 77 NORTHBOUND AND SOUTHBOUND IN EXPRESS LANES DUE TO LARGE DEBRIS,,I-77 S,R,Mooresville,Iredell,NC,28117,US,US/Eastern,KSVH,2021-05-13 17:55:00,68.0,68.0,29.0,29.16,10.0,N,6.0,0.0,Fair,False,False,False,False,False,False,False,False,False,False,False,False,False,Night,Night,Night,Night
C-4794647,2,2021-12-16 11:32:00.000000000,2021-12-16 14:54:18.000000000,29.228476,-81.09531700000002,29.22447,-81.09228900000002,0.3315834564029999,Slow traffic from Technology Blvd to Concierge Blvd due to roadwork.,,Williamson Blvd,R,Daytona Beach,Volusia,FL,32117,US,US/Eastern,KDAB,2021-12-16 11:53:00,77.0,77.0,69.0,30.2,10.0,ESE,12.0,0.0,Mostly Cloudy,False,False,False,False,False,False,False,False,False,False,False,False,False,Day,Day,Day,Day
C-4794648,2,2020-10-23 12:54:00.000000000,2020-10-24 00:22:00.000000000,33.541758,-112.151423,33.538742,-112.151441,0.2083883316209999,Stationary traffic from W Northern Ave (N 43rd Ave) to W Glendale Ave (N 43rd Ave) due to roadwork.,7158.0,N 43rd Ave,L,Glendale,Maricopa,AZ,85301-2904,US,US/Mountain,KGEU,2020-10-23 12:58:00,85.0,85.0,28.0,28.75,10.0,CALM,0.0,0.0,Fair,False,False,True,False,False,False,False,False,True,False,False,True,False,Day,Day,Day,Day
C-4794649,2,2021-06-15 17:53:10.000000000,2021-06-15 18:24:10.000000000,40.10455,-78.52820200000002,40.14101,-78.51283199999997,2.64679418604,Stationary traffic on I-99 N - US-220 N from PA-56/Exit 3 (I-99) to PA-869/Exit 7 (I-99) due to roadwork.,,I-99 N,R,New Paris,Bedford,PA,15554,US,US/Eastern,KHMZ,2021-06-15 17:53:00,71.0,71.0,59.0,28.3,10.0,NW,10.0,0.0,Cloudy,False,False,False,False,False,False,False,False,False,False,False,False,False,Day,Day,Day,Day
C-4794650,2,2019-04-23 11:02:41.000000000,2019-04-28 11:01:50.000000000,38.8004,-77.16608000000002,38.78846400000001,-77.17739499999998,1.02538233017,At Henry G Shirley Memorial Hwy - Maintenance work. Lane blocked.,,I-395 S,R,Springfield,Fairfax County,VA,22151,US,US/Eastern,KDAA,2019-04-23 10:56:00,73.0,73.0,47.0,29.95,10.0,SE,7.0,0.0,Fair,False,False,False,False,False,False,False,False,False,False,False,False,False,Day,Day,Day,Day
C-4794651,2,2019-05-31 06:00:00.000000000,2019-05-31 21:00:00.000000000,43.792179,-89.3274,,,0.300000011921,Single alternate line traffic due to construction work on WI-23 both ways between West St and WI-22 Montello St.,2.0,Main St,R,Montello,Marquette,WI,53949-9730,US,US/Central,KY50,2019-05-31 05:56:00,50.0,50.0,93.0,28.91,10.0,CALM,0.0,0.0,Fair,False,False,True,False,False,False,False,False,False,False,False,True,False,Day,Day,Day,Day
C-4794652,2,2018-10-29 00:00:00.000000000,2018-11-05 00:00:00.000000000,42.686733,-89.03479,,,0.0,Restrictions due to resurfacing work on Terrace St both ways between Ravine St and Mineral Point Ave.,500.0,N Terrace St,R,Janesville,Rock,WI,53548-2906,US,US/Central,KJVL,2018-10-29 00:15:00,44.6,42.2,87.0,29.95,10.0,West,4.6,,Overcast,False,False,False,False,False,False,False,False,False,False,False,False,False,Night,Night,Night,Night
C-4794653,3,2017-04-29 07:28:56.000000000,2017-04-29 13:29:02.000000000,41.97522,-91.67695,42.025845,-91.621305,4.51644492349,Between 3rd Ave SW and IA-100/Collins Rd - Roadwork.,,1st Ave NW,R,Cedar Rapids,Linn,IA,52405,US,US/Central,KCID,2017-04-29 07:52:00,44.1,37.1,85.0,30.15,10.0,NE,15.0,,Overcast,False,False,True,False,False,False,False,False,False,False,False,True,False,Day,Day,Day,Day
C-4794654,2,2021-08-21 09:09:30.000000000,2021-08-21 09:34:30.000000000,46.98246500000001,-109.745281,46.982996,-109.743559,0.0890761499587,Stationary traffic on US-87 N - MT-200 - US-191 N - US-87 S - US-191 S from US-191/US-12 (US-191) to MT-238/1st Ave/Main St (US-191) due to roadwork.,,US Highway 191,R,Moore,Fergus,MT,59464,US,US/Mountain,KLWT,2021-08-21 08:54:00,54.0,54.0,80.0,25.68,10.0,E,9.0,0.0,Fair,False,False,False,False,False,False,False,False,False,False,False,False,False,Day,Day,Day,Day
C-4794655,3,2020-05-14 11:47:39.000000000,2020-05-15 14:00:00.000000000,40.84478,-73.90484000000002,40.83833,-73.88243,1.25329486615,Between Jerome Ave/Exit 2A and I-895/Sheridan Expy/Exit 4A - Roadwork.,,Clay Ave,R,Bronx,Bronx,NY,10457,US,US/Eastern,KLGA,2020-05-14 11:51:00,64.0,64.0,21.0,30.26,10.0,S,7.0,0.0,Mostly Cloudy,False,False,False,False,True,False,False,False,False,True,False,False,False,Day,Day,Day,Day
C-4794656,2,2021-11-27 09:53:30.000000000,2021-12-13 01:59:54.000000000,41.329455,-87.354557,41.342786,-87.354855,0.921214108828,Roadwork on IN-2/W 181st Ave (Grant St/IN-55) from W 133rd Ave (Grant St/IN-55) to IN-55.,15901.0,Grant St,R,Crown Point,Lake,IN,46307-9553,US,US/Central,KIGQ,2021-11-27 09:55:00,34.0,26.0,70.0,29.25,10.0,SSW,10.0,0.0,Cloudy,False,False,False,False,False,False,False,False,False,False,False,False,False,Day,Day,Day,Day
C-4794657,2,2021-06-10 05:48:21.000000000,2021-10-18 21:59:00.000000000,43.32005,-111.160111,43.31963,-111.155874,0.21495292602,Stationary traffic on US-26 E - US-26 W from Bear Creek Rd (US-26) to US-89 (Swan Valley Rd/US-26) due to roadwork.,5282.0,Swan Valley Hwy,L,Irwin,Bonneville,ID,83428,US,US/Mountain,KDIJ,2021-06-22 17:56:00,83.0,83.0,19.0,23.84,10.0,VAR,5.0,0.0,Fair,False,False,False,False,False,False,False,False,False,False,False,False,False,Day,Day,Day,Day
C-4794658,2,2021-05-21 06:56:30.000000000,2021-12-25 18:57:30.000000000,42.274191,-83.197078,42.272597,-83.195037,0.151716544941,Stationary traffic from I-94 E to Reo Ave due to roadwork.,24094.0,Outer Dr,R,Melvindale,Wayne,MI,48122-1644,US,US/Eastern,KDTW,2021-05-21 06:53:00,63.0,63.0,81.0,29.69,7.0,S,3.0,0.0,Cloudy,False,False,True,False,False,False,False,False,True,False,False,False,False,Day,Day,Day,Day
C-4794659,2,2021-10-05 10:44:00.000000000,2021-10-05 11:15:00.000000000,42.073719,-87.980558,42.066569,-87.980079,0.494628458235,Slow traffic from US-14/E Northwest Hwy (Arlington Heights Rd) to E Central Rd (S Arlington Heights Rd) due to roadwork.,601.0,S Arlington Heights Rd,L,Arlington Heights,Cook,IL,60005-2623,US,US/Central,KPWK,2021-10-05 10:52:00,66.0,66.0,84.0,29.54,10.0,NE,9.0,0.0,Cloudy,False,False,False,False,False,False,False,False,False,False,False,True,False,Day,Day,Day,Day
C-4794660,2,2021-01-30 14:06:30.000000000,2021-01-31 05:00:12.000000000,26.139047,-80.169855,26.136423,-80.169225,0.185464689572,Slow traffic on FL-838 from exit [29] to NW 17th Ave due to roadwork.,,I-95 S,R,Fort Lauderdale,Broward,FL,33311,US,US/Eastern,KFXE,2021-01-30 13:53:00,74.0,74.0,46.0,30.16,10.0,E,17.0,0.0,Partly Cloudy,False,False,False,False,False,False,False,False,False,False,False,False,False,Day,Day,Day,Day
C-4794661,2,2020-05-05 08:04:20.000000000,2020-05-05 17:00:00.000000000,42.15394000000001,-88.33568000000002,42.13974,-88.33576,0.981135116812,At CR-30/Huntley Rd - Resurfacing work during the day time.,1509.0,S Randall Rd,R,Algonquin,Mchenry,IL,60102-5930,US,US/Central,KDPA,2020-05-05 07:52:00,44.0,40.0,89.0,29.14,10.0,NNE,7.0,0.01,Light Rain,False,False,True,False,False,False,False,False,False,False,False,True,False,Day,Day,Day,Day
C-4794662,4,2019-09-06 09:02:25.000000000,2019-09-10 09:02:03.000000000,40.03418,-75.38139,40.032467,-75.373469,0.435437051631,Closed between Church Rd/Iven Ave and Parkes Run Ln - Closed due to roadwork.,499.0,Iven Ave,L,Wayne,Delaware,PA,19087-4828,US,US/Eastern,KLOM,2019-09-06 08:55:00,63.0,63.0,80.0,29.58,10.0,NNE,7.0,0.0,Cloudy,False,False,False,False,False,False,False,False,False,False,False,False,False,Day,Day,Day,Day
C-4794663,2,2021-08-25 03:28:00.000000000,2021-08-25 03:49:00.000000000,40.712447,-111.820273,40.699889,-111.795299,1.56968320665,Slow traffic on I-215 S from I-80 (I-215) to UT-171 (I-215) due to roadwork.,,I-215 S,R,Salt Lake City,Salt Lake,UT,84109,US,US/Mountain,KSLC,2021-08-25 03:54:00,71.0,71.0,25.0,25.71,10.0,ESE,8.0,0.0,Fair,False,False,False,False,True,False,False,False,False,False,False,False,False,Night,Night,Night,Night
C-4794664,2,2021-07-23 10:27:00.000000000,2021-07-23 12:28:01.000000000,33.403896,-112.081979,33.407273,-112.081929,0.2333462998779999,Slow traffic from W Southern Ave (S 7th Ave) to W Broadway Rd (S 7th Ave) due to roadwork.,701.0,W Tamarisk St,L,Phoenix,Maricopa,AZ,85041-2314,US,US/Mountain,KPHX,2021-07-23 10:29:00,74.0,74.0,91.0,28.88,4.0,W,5.0,0.05,Light Rain with Thunder,False,False,False,False,False,False,False,False,True,False,False,False,False,Day,Day,Day,Day
C-4794665,2,2017-09-27 12:01:40.000000000,2017-09-27 18:01:40.000000000,38.92759,-94.62519,38.92915,-94.619709,0.313702250959,At Brookwood St - Construction work. Roadway reduced to 1 lane.,3337.0,College Blvd,L,Leawood,Johnson,KS,66211-1909,US,US/Central,KOJC,2017-09-27 11:53:00,59.0,,90.0,30.24,10.0,NNE,9.2,,Scattered Clouds,False,False,True,False,False,False,False,False,False,False,False,True,False,Day,Day,Day,Day
C-4794666,3,2019-09-19 20:01:09.000000000,2019-09-23 20:00:53.000000000,42.60356,-83.26393,42.604299,-83.248536,0.784544541644,Between Woodward Ave and Opdyke Rd/Square Lake Rd - Roadwork.,42994.0,Woodward Ave,L,Bloomfield Hills,Oakland,MI,48304-5034,US,US/Eastern,KVLL,2019-09-19 19:56:00,74.0,74.0,61.0,29.36,10.0,ESE,3.0,0.0,Fair,False,False,True,False,False,False,False,False,False,False,False,True,False,Night,Day,Day,Day
C-4794667,2,2021-02-04 19:05:30.000000000,2021-02-04 21:19:52.000000000,32.678604,-94.183078,32.671808,-94.182554,0.470546794832,Roadwork on FM-134 (TX-43) from TX-449 Loop (TX-43) to TX-43.,17203.0,State Highway 43 N,L,Karnack,Harrison,TX,75661,US,US/Central,KASL,2021-02-04 18:55:00,54.0,54.0,59.0,29.54,10.0,NNW,13.0,0.0,Fair,False,False,False,False,False,False,False,False,False,False,False,False,False,Night,Night,Night,Day
C-4794668,4,2019-10-09 16:16:38.000000000,2019-10-09 21:14:15.000000000,38.25703,-122.48077,38.26012,-122.48329,0.253523063047,Closed at Petaluma - Closed due to roadwork.,21607.0,Arnold Dr,R,Sonoma,Sonoma,CA,95476-9507,US,US/Pacific,KO69,2019-10-09 16:15:00,73.0,73.0,27.0,29.77,10.0,WNW,9.0,0.0,Fair,False,False,False,False,False,False,False,False,False,False,False,False,False,Day,Day,Day,Day
C-4794669,2,2020-12-30 14:05:30.000000000,2020-12-31 00:56:23.000000000,26.304,-80.092977,26.305044,-80.093463,0.0781626179618,Stationary traffic on US-1 N - FL-869 - FL-5 from N Federal Hwy / NE 54th St to SE 6th Ave due to roadwork.,1060.0,S Federal Hwy,L,Deerfield Beach,Broward,FL,33441-7033,US,US/Eastern,KPMP,2020-12-30 13:53:00,77.0,77.0,64.0,30.1,10.0,E,21.0,0.0,Mostly Cloudy / Windy,False,False,False,False,False,False,False,False,False,False,False,False,False,Day,Day,Day,Day
C-4794670,2,2020-08-03 16:00:00.000000000,2020-08-07 22:45:00.000000000,42.436499,-71.02107,42.457496,-71.023787,1.4573529440000002,Construction on US-1 NB near LARK AVE Allow extra time.,,Bennett Hwy,R,Revere,Suffolk,MA,02151,US,US/Eastern,KBOS,2020-08-03 15:54:00,91.0,91.0,36.0,29.92,10.0,W,15.0,0.0,Partly Cloudy,False,False,False,False,True,False,False,False,False,False,False,False,False,Day,Day,Day,Day
C-4794671,3,2018-07-23 11:30:57.000000000,2018-07-23 15:30:00.000000000,40.850067,-73.944817,,,1.60000002384,Right lane closed due to construction on I-95 George Washington Brg (lower level) Northbound between New Jersey and New York.,,George Washington Brg,R,New York,New York,NY,10032,US,US/Eastern,KNYC,2018-07-23 11:51:00,75.9,,91.0,30.12,9.0,South,5.8,,Overcast,False,False,False,False,False,False,False,False,False,False,False,False,False,Day,Day,Day,Day
C-4794672,2,2019-03-17 08:00:00.000000000,2019-04-30 17:00:00.000000000,38.382,-82.59178,38.421299,-82.25093199999998,18.6544998184,Between West Virginia/Kentucky St Line and CR-13/Mason Rd/Exit 28 - Construction work. Lane blocked.,,I-64 E,R,Kenova,Wayne,WV,25530,US,US/Eastern,KHTS,2019-03-17 07:51:00,27.0,,78.0,30.32,10.0,Calm,,,Clear,False,False,False,False,False,False,False,False,False,False,False,False,False,Day,Day,Day,Day
C-4794673,3,2019-06-19 18:26:26.000000000,2019-06-23 18:25:52.000000000,41.48033,-81.66433,41.47972,-81.66868000000002,0.229083333293,Ramp to I-490 Westbound - Roadwork.,2950.0,E 37th St,R,Cleveland,Cuyahoga,OH,44115-3504,US,US/Eastern,KBKL,2019-06-19 18:53:00,70.0,70.0,76.0,29.07,7.0,NNE,7.0,0.0,Fair,False,False,False,False,True,False,False,False,False,False,False,False,False,Day,Day,Day,Day
C-4794674,2,2020-04-05 21:31:30.000000000,2020-04-06 21:31:30.000000000,47.67575,-117.22458,47.67548,-117.23959,0.698551588113,At I-90/WA-27/N Pines Rd - Work on buried cables.,13397.0,E Indiana Ave,R,Spokane Valley,Spokane,WA,99216-2761,US,US/Pacific,KSFF,2020-04-05 21:53:00,41.0,41.0,86.0,27.62,10.0,CALM,0.0,0.0,Cloudy,False,False,True,False,False,False,True,False,True,False,False,True,False,Night,Night,Night,Night
C-4794675,2,2021-11-03 08:00:00.000000000,2021-11-04 14:00:00.000000000,43.761624,-87.941511,43.758024,-87.941491,0.24873831269,Maintenance - Mainline Right Shoulder Closed from BR MULLET RIVER to WIS 23,,N6108 State Road 57,R,Plymouth,Sheboygan,WI,53073-3609,US,US/Central,KSBM,2021-11-03 07:53:00,29.0,23.0,78.0,29.56,10.0,W,6.0,0.0,Fair,False,False,False,False,False,False,False,False,False,False,False,True,False,Day,Day,Day,Day
C-4794676,2,2021-07-29 06:00:51.000000000,2021-07-29 15:45:00.000000000,42.82282100000001,-73.732374,42.823721,-73.732837,0.0664634443704,Construction on US-9 near VISCHER FERRY RD Construction. Expect long delays.,1348.0,Route 9,L,Clifton Park,Saratoga,NY,12065,US,US/Eastern,KSCH,2021-07-29 07:49:00,61.0,61.0,88.0,29.6,15.0,CALM,0.0,0.0,Partly Cloudy,False,False,False,False,False,False,False,False,False,False,False,True,False,Day,Day,Day,Day
C-4794677,4,2020-09-18 21:48:21.000000000,2020-09-26 06:59:00.000000000,27.578709000000003,-80.381088,27.578709000000003,-80.38155400000002,0.0285391105937,Closed road from 2nd Rd SW to 4th Ave SW due to roadwork.,,13th Pl SW,R,Vero Beach,Indian River,FL,32962,US,US/Eastern,KVRB,2020-09-18 21:53:00,81.0,81.0,88.0,29.88,10.0,W,5.0,0.0,Cloudy,False,False,False,False,False,False,False,False,False,False,False,False,False,Night,Night,Night,Night
C-4794678,2,2020-09-15 17:33:00.000000000,2020-09-16 19:47:57.000000000,40.001403,-77.10528000000002,40.003283,-77.1037,0.154485950653,Construction on US-15 NB near PA-94 Allow extra time.,,US-15 N,R,York Springs,Adams,PA,17372,US,US/Eastern,KTHV,2020-09-15 17:53:00,64.0,64.0,41.0,29.77,10.0,CALM,0.0,0.0,Fair,False,False,False,False,True,False,False,False,False,False,False,False,False,Day,Day,Day,Day
C-4794679,2,2017-11-03 10:04:15.000000000,2017-11-03 16:09:29.000000000,39.84938,-75.45143,39.848255,-75.453087,0.117336196082,At PA-491/Naamans Creek Rd - Roadwork. Traffic problem.,1198.0,E Bethel Ave,L,Marcus Hook,Delaware,PA,19061,US,US/Eastern,KPHL,2017-11-03 09:54:00,63.0,,87.0,30.09,10.0,West,9.2,,Scattered Clouds,False,False,False,False,False,False,False,False,False,False,False,True,False,Day,Day,Day,Day
C-4794680,2,2020-11-23 12:11:30.000000000,2020-11-23 20:16:00.000000000,40.161901,-76.14649399999998,40.162934,-76.149824,0.189766192547,Stationary traffic on US-322 W from N Railroad Ave (28th Division Hwy/US-322) to US-222 (Main St/28th Division Hwy/US-322) due to roadwork.,1042.0,Division Hwy,R,Ephrata,Lancaster,PA,17522-8819,US,US/Eastern,KLNS,2020-11-23 11:53:00,49.0,42.0,50.0,29.64,10.0,NNW,18.0,0.0,Mostly Cloudy,False,False,False,False,False,False,False,False,False,False,False,True,False,Day,Day,Day,Day
C-4794681,2,2021-10-22 11:09:30.000000000,2021-10-22 11:29:30.000000000,40.136431,-74.95692700000002,40.13891,-74.959723,0.226163563097,Stationary traffic from Neshaminy Blvd (Rock Hill Dr) to US-1/New Lincoln Hwy (Rockhill Rd) due to roadwork.,,Rockhill Dr,R,Bensalem,Bucks,PA,19020,US,US/Eastern,KPNE,2021-10-22 10:54:00,65.0,65.0,58.0,29.82,10.0,WNW,10.0,0.0,Fair,False,False,False,False,False,False,False,False,False,False,False,True,False,Day,Day,Day,Day
C-4794682,2,2020-08-29 09:28:30.000000000,2020-08-30 01:42:33.000000000,41.669715,-84.86121999999997,41.642725,-84.83461,2.31616208586,Slow traffic on I-90/I-80 from Eastpoint Barrier Toll Plaza (I-90/I-80) to IN--OH State Border (I-90/I-80) due to roadwork.,,I-80 E,R,Angola,Steuben,IN,46703,US,US/Eastern,KANQ,2020-08-29 09:35:00,68.0,68.0,88.0,28.67,10.0,NW,14.0,0.0,Cloudy,False,False,False,False,False,False,False,False,False,False,False,False,False,Day,Day,Day,Day
C-4794683,2,2020-12-30 20:56:30.000000000,2020-12-31 03:45:59.000000000,36.992449,-120.096444,36.9824,-120.085874,0.906852641997,Stationary traffic on CA-99 S from exit [157] to exit [156] due to roadwork.,,CA-99 S,R,Madera,Madera,CA,93637,US,US/Pacific,KMAE,2020-12-30 20:53:00,44.0,42.0,82.0,29.98,8.0,E,5.0,0.0,Fair,False,False,False,False,False,False,False,False,False,False,False,False,False,Night,Night,Night,Night
C-4794684,2,2021-09-02 14:58:00.000000000,2021-09-02 18:00:31.000000000,39.763704,-86.333777,39.763717,-86.337968,0.222591427811,Slow traffic on US-36 E - US-36 W from Raceway Rd (Rockville Rd/US-36) to IN-267 (US-36) due to roadwork.,10701.0,E US Highway 36,R,Avon,Hendricks,IN,46123-7983,US,US/Eastern,KIND,2021-09-02 14:54:00,77.0,77.0,37.0,29.23,10.0,VAR,7.0,0.0,Partly Cloudy,False,False,False,False,False,False,False,False,False,False,False,False,False,Day,Day,Day,Day
C-4794685,2,2021-11-11 15:56:30.000000000,2021-11-11 17:57:32.000000000,33.422033,-111.92472,33.422024,-111.927154,0.140364963905,Slow traffic from S McClintock Dr (E University Dr) to S Mill Ave (University Dr) due to roadwork.,933.0,E University Dr,R,Tempe,Maricopa,AZ,85281-4205,US,US/Mountain,KPHX,2021-11-11 15:51:00,84.0,84.0,13.0,28.78,10.0,W,8.0,0.0,Fair,False,False,False,False,False,False,False,False,False,False,False,False,False,Day,Day,Day,Day
C-4794686,3,2020-03-20 22:00:00.000000000,2020-03-21 05:00:00.000000000,33.320271000000005,-111.894287,,,3.18000006676,Road closed due to construction work on AZ-101-LOOP Southbound from Exit 58 Elliot Rd to Exit 60 Ray Rd.,,W Ray Rd,R,Chandler,Maricopa,AZ,85224,US,US/Mountain,KCHD,2020-03-20 21:47:00,64.0,64.0,42.0,28.77,10.0,NW,5.0,,Cloudy,False,False,False,False,False,False,False,False,False,False,False,False,False,Night,Night,Night,Night
C-4794687,2,2021-01-19 18:05:01.000000000,2021-01-23 12:13:53.013028700,44.160051,-121.284784,44.105726,-121.25373,4.05712720468,Roadwork from 94th St to Hamehook Rd.,20799.0,Tumalo Rd,L,Bend,Deschutes,OR,97703-8936,US,,,,,,,,,,,,,False,False,False,False,False,False,False,False,False,False,False,False,False,Night,Night,Day,Day
C-4794688,2,2020-06-19 20:45:11.000000000,2020-06-21 12:00:00.000000000,42.88105,-85.68155,42.90931,-85.67683000000002,1.96714253954,Between 54th St/Exit 78 and M-11/28th St/Exit 81 - Roadwork. Two lanes closed.,,US-131 S,R,Grand Rapids,Kent,MI,49548,US,US/Eastern,KGRR,2020-06-19 20:53:00,85.0,85.0,36.0,29.04,10.0,WSW,3.0,0.0,Partly Cloudy,False,False,False,False,True,False,False,False,False,False,False,False,False,Day,Day,Day,Day
C-4794689,2,2021-11-02 16:55:00.000000000,2021-11-02 17:25:30.000000000,39.452151,-83.790642,39.44826,-83.807427,0.935003256278,Stationary traffic on US-22 E - US-22 W - OH-3 from Progress Way (Rombach Ave/OH-73) to US-68/OH-134/South St (OH-3/Main St/Locust St/OH-73) due to roadwork.,2247.0,Rombach Ave,L,Wilmington,Clinton,OH,45177-1995,US,US/Eastern,KILN,2021-11-02 16:54:00,46.0,42.0,44.0,29.14,10.0,W,8.0,0.0,Fair,False,False,True,False,False,False,False,False,False,False,False,True,False,Day,Day,Day,Day
C-4794690,2,2021-02-16 06:45:30.000000000,2021-02-16 20:02:04.000000000,25.776499,-80.140863,25.774279,-80.14009,0.160750892705,Slow traffic on US-41 S - FL-A1A - FL-907 from 8th St to Lenox Ave due to roadwork.,,MacArthur Ramp,R,Miami Beach,Miami-Dade,FL,33139,US,US/Eastern,KMIA,2021-02-16 06:53:00,77.0,77.0,94.0,30.0,10.0,S,6.0,0.0,Mostly Cloudy,True,False,False,False,False,False,False,False,False,False,False,False,False,Night,Day,Day,Day
C-4794691,4,2021-04-07 11:56:30.000000000,2021-04-07 20:47:29.000000000,43.558972,-116.100973,43.558387,-116.100194,0.0561702145218,Closed road from Eckert Rd/S Millspur Way (Warm Springs Ave) to ID-21 (Warm Springs Ave) due to roadwork.,6537.0,Warm Springs Ave,L,Boise,Ada,ID,83716,US,US/Mountain,KBOI,2021-04-07 11:53:00,62.0,62.0,25.0,27.06,10.0,E,5.0,0.0,Fair,False,False,True,False,False,False,False,False,False,False,False,False,False,Day,Day,Day,Day
C-4794692,2,2021-08-13 13:21:53.000000000,2021-08-13 15:42:49.000000000,34.164914,-118.372468,34.165318,-118.370318,0.126044085525,Slow traffic from Blakeslee Ave to Weddington St due to roadwork.,11100.0,Magnolia Blvd,R,North Hollywood,Los Angeles,CA,91601-3812,US,US/Pacific,KBUR,2021-08-13 12:53:00,88.0,88.0,25.0,29.21,10.0,SSE,8.0,0.0,Fair,True,False,False,False,False,False,False,False,False,False,False,True,False,Day,Day,Day,Day
C-4794693,3,2019-04-18 08:45:04.000000000,2019-04-23 01:43:53.000000000,40.685226,-73.733747,40.687769,-73.741057,0.421371546145,At Springfield Blvd - Narrow lanes. Queuing traffic. Construction work.,,Francis Lewis Blvd,R,Springfield Gardens,Queens,NY,11413,US,US/Eastern,KJFK,2019-04-18 08:51:00,51.0,51.0,74.0,30.14,10.0,E,18.0,0.0,Cloudy,False,False,True,False,False,False,False,False,False,True,False,True,False,Day,Day,Day,Day
C-4794694,2,2016-08-16 09:01:59.000000000,2016-08-16 15:01:59.000000000,39.074069,-76.919301,39.07361,-76.93236,0.701196958824,At Briggs Chaney Rd - Construction work.,,Inter County Connector W,R,Laurel,Prince George's,MD,20707,US,US/Eastern,KFME,2016-08-16 10:39:00,,,,30.2,,North,,,,False,False,False,False,False,False,False,False,False,False,False,False,False,Day,Day,Day,Day
C-4794695,4,2020-07-13 14:00:00.000000000,2020-08-25 21:45:00.000000000,48.593914,-93.403751,48.588329,-93.402573,0.389623906186,Construction on US-53 SB near 8TH ST Road closed. Take alternate route.,1200.0,Industrial Ave,R,International Falls,Koochiching,MN,56649-2969,US,US/Central,KINL,2020-07-13 13:55:00,76.0,76.0,56.0,28.56,10.0,SE,10.0,0.0,Fair,False,False,True,False,False,False,False,False,False,False,False,True,False,Day,Day,Day,Night
C-4794696,4,2020-09-30 08:10:36.000000000,2020-10-09 07:00:00.000000000,47.26139000000001,-122.45247,47.26006,-122.45508,0.153045327655,Closed at L St - Closed due to roadwork.,49.0,N J St,R,Tacoma,Pierce,WA,98403,US,US/Pacific,KTIW,2020-09-30 07:53:00,53.0,53.0,96.0,29.83,8.0,CALM,0.0,0.0,Fair,False,False,False,False,False,False,True,False,False,False,False,False,False,Day,Day,Day,Day
C-4794697,3,2020-06-03 08:11:15.000000000,2020-06-05 15:59:59.000000000,40.36799,-79.77979,40.36799,-79.77979,0.0,At Lincoln Way - Roadwork. Roadway reduced to 1 lane.,1900.0,Lincoln Hwy,R,North Versailles,Allegheny,PA,15137-2706,US,US/Eastern,KAGC,2020-06-03 07:53:00,72.0,72.0,61.0,28.48,10.0,WSW,14.0,0.0,Fair,False,False,False,False,False,False,False,False,False,False,False,True,False,Day,Day,Day,Day
C-4794698,2,2020-10-06 21:52:00.000000000,2020-10-06 22:18:00.000000000,40.74886,-73.975847,40.750176,-73.978957,0.186460087692,Slow traffic from 2nd Ave (E 39th St) to 5th Ave (E 39th St) due to resurfacing work.,201.0,E 39th St,L,New York,New York,NY,10016-2164,US,US/Eastern,KNYC,2020-10-06 21:51:00,63.0,63.0,60.0,29.86,10.0,SSW,5.0,0.0,Fair,True,False,True,False,False,False,False,False,False,False,False,True,False,Night,Night,Night,Night
C-4794699,4,2020-11-26 03:15:10.000000000,2020-12-03 07:59:00.000000000,40.749577,-73.98519399999998,40.749707,-73.98487,0.0191909219824,Closed road from W 35th St to W 36th St due to roadwork.,21.0,W 35th St,R,New York,New York,NY,10001-2202,US,US/Eastern,KNYC,2020-11-26 03:30:00,56.0,56.0,90.0,29.98,2.0,SSE,3.0,0.04,Light Rain,True,False,False,False,False,False,False,False,False,False,False,False,False,Night,Night,Night,Night
C-4794700,4,2019-10-05 22:43:36.000000000,2019-10-06 01:03:47.000000000,25.76109,-80.38371,25.76109,-80.38736,0.2271267618959999,At SR-821/Florida's Tpke - Roadwork.,11657.0,SW 8th St,L,Miami,Miami-Dade,FL,33174,US,US/Eastern,KMIA,2019-10-05 22:53:00,83.0,83.0,67.0,29.93,10.0,ENE,13.0,0.0,Fair,False,False,False,False,False,False,False,False,False,False,False,True,False,Night,Night,Night,Night
C-4794701,2,2021-08-05 15:55:10.000000000,2021-08-05 16:23:20.000000000,28.322466,-82.510085,28.322652,-82.502505,0.4612120355830001,Slow traffic on FL-45 - FL-52 - US-41 S - US-41 N from Davis Ln to Michigan Ln due to roadwork.,18348.0,State Road 52,L,Land O Lakes,Pasco,FL,34638-6906,US,US/Eastern,KBKV,2021-08-05 15:53:00,75.0,75.0,94.0,29.99,10.0,SSW,13.0,0.05,Light Rain,False,False,False,False,False,False,False,False,False,False,False,False,False,Day,Day,Day,Day
C-4794702,2,2021-12-18 09:12:00.000000000,2021-12-18 09:34:30.000000000,29.916124,-81.327848,29.915593,-81.324401,0.20966655374,Slow traffic on FL-16 - US-1 N - US-1 S - FL-5 from State Road 16 to Waldo St due to roadwork.,175.0,Charles Usinas Memorial Hwy,R,Saint Augustine,St. Johns,FL,32084,US,US/Eastern,KSGJ,2021-12-18 08:56:00,67.0,67.0,97.0,30.17,10.0,S,3.0,0.0,Fair,False,False,False,False,False,False,False,False,False,False,False,False,False,Day,Day,Day,Day
C-4794703,4,2019-01-17 15:08:53.000000000,2019-05-19 21:49:06.000000000,44.22713,-88.44211,44.22713,-88.44211,0.0,At CR-AP/Midway Rd - Entry ramp closed. Construction work.,,US-10 W,R,Menasha,Winnebago,WI,54952,US,US/Central,KATW,2019-01-20 10:45:00,5.0,-13.0,47.0,30.35,10.0,North,15.0,,Clear,False,False,False,False,False,False,False,False,False,False,False,False,False,Day,Day,Day,Day
C-4794704,2,2021-12-01 14:59:30.000000000,2021-12-01 17:16:58.000000000,33.53826,-112.061043,33.538284999999995,-112.065785,0.273099786769,Stationary traffic from N 16th St (E Glendale Ave) to N Central Ave (Glendale Ave) due to roadwork.,883.0,E Glendale Ave,R,Phoenix,Maricopa,AZ,85020-5331,US,US/Mountain,KSDL,2021-12-01 14:53:00,82.0,,13.0,28.39,10.0,,,0.0,Fair,True,False,False,False,False,False,False,False,True,False,False,False,False,Day,Day,Day,Day
C-4794705,2,2021-03-19 06:41:30.000000000,2021-03-19 14:45:37.000000000,33.553948,-112.099757,33.553078,-112.098237,0.106176725588,Slow traffic from N 19th Dr to N 17th Dr due to roadwork.,7972.0,N 19th Ave,L,Phoenix,Maricopa,AZ,85021,US,US/Mountain,KDVT,2021-03-19 06:53:00,50.0,50.0,41.0,28.43,10.0,CALM,0.0,0.0,Fair,False,False,False,False,False,False,False,False,False,False,False,False,False,Day,Day,Day,Day
C-4794706,2,2020-06-02 07:00:00.000000000,2020-06-02 17:00:00.000000000,40.719059,-74.334801,,,5.46999979019,Road closed due to paving repairs on CR-512 Broad St both ways between CR-651 Morris Ave and Middle Ave.,62.0,Middle Ave,L,Summit,Union,NJ,07901-4028,US,US/Eastern,KMMU,2020-06-02 06:35:00,48.0,48.0,50.0,29.87,10.0,CALM,0.0,0.0,Fair,False,False,False,False,False,False,False,False,False,False,False,True,False,Day,Day,Day,Day
C-4794707,2,2021-11-12 17:04:17.000000000,2021-11-12 17:25:05.000000000,27.894703000000003,-82.785252,27.895501,-82.78704300000003,0.122479918551,Slow traffic on FL-688 - US-19 Alt N - FL-595 from Honeyvine Mobile Home Park to Silvercrest Dr due to roadwork.,10569.0,Ulmerton Rd,R,Largo,Pinellas,FL,33771-3529,US,US/Eastern,KPIE,2021-11-12 16:53:00,78.0,78.0,71.0,30.01,10.0,N,3.0,0.0,Fair,False,False,False,False,False,False,False,False,True,False,False,False,False,Day,Day,Day,Day
C-4794708,2,2020-06-04 13:47:40.000000000,2020-06-04 16:15:00.000000000,40.92776,-73.76951,40.92776,-73.76951,0.0,At Toll Plaza - Construction work. Left lane blocked.,,New England Trwy S,R,New Rochelle,Westchester,NY,10801,US,US/Eastern,KLGA,2020-06-04 13:51:00,86.0,86.0,31.0,29.85,10.0,SW,6.0,0.0,Partly Cloudy,False,False,False,False,False,False,False,False,False,False,False,False,False,Day,Day,Day,Day
C-4794709,4,2021-03-11 02:33:30.000000000,2021-03-11 07:21:38.000000000,37.633806,-122.40809,37.639216,-122.4049,0.412538057642,Bridge closure from exit [7] to US-101 N.,925.0,5th Ave,R,San Bruno,San Mateo,CA,94066-3220,US,US/Pacific,KSFO,2021-03-11 02:56:00,44.0,44.0,82.0,30.0,10.0,WSW,3.0,0.0,Fair,False,False,False,False,False,False,False,False,False,False,False,False,False,Night,Night,Night,Night
C-4794710,2,2021-11-02 17:43:58.000000000,2021-11-02 20:12:35.000000000,40.754601,-73.949051,40.760022,-73.961682,0.7598049183939999,Slow traffic on NY-25 from Queens Plz/Crescent St (Queensboro Bridge WB (Lower Level)) to E 60th St (Queensboro Bridge WB (Lower Level)) due to roadwork.,,Ed Koch Queensboro Brg W,R,Long Island City,Queens,NY,11101,US,US/Eastern,KNYC,2021-11-02 17:51:00,51.0,51.0,56.0,30.06,10.0,WSW,6.0,0.0,Cloudy,False,False,True,False,False,False,True,False,False,False,False,True,False,Day,Day,Day,Day
C-4794711,2,2020-04-21 08:01:00.000000000,2020-04-21 16:59:00.000000000,39.19758,-122.00144,39.21307,-122.00391,1.07839616695,Between Cynthia Dr Rt and 2nd St - Construction work.,2063.0,State Highway 20,R,Colusa,Colusa,CA,95932-9709,US,US/Pacific,KMYV,2020-04-21 07:53:00,51.0,,89.0,30.14,10.0,,,0.0,Fair,False,False,False,False,False,False,False,False,False,False,False,False,False,Day,Day,Day,Day
C-4794712,2,2017-11-11 23:00:00.000000000,2017-12-24 09:00:00.000000000,40.620699,-111.90145,40.62089,-111.91025,0.4616987339019999,Between 300 W and UT-48/S 700 W - Construction work.,,S 400 W,R,Midvale,Salt Lake,UT,84047,US,US/Mountain,KU42,2017-11-11 22:55:00,35.6,29.2,65.0,30.22,10.0,SW,8.1,,Clear,False,False,False,False,False,False,False,False,False,True,False,True,False,Night,Night,Night,Night
C-4794713,2,2021-09-15 14:39:00.000000000,2021-09-15 15:01:00.000000000,45.047196,-90.076013,45.061916,-90.079133,1.02839312956,Stationary traffic on WI-97 from County Road A to Greiner Rd due to roadwork.,6301.0,State Highway 97,R,Athens,Marathon,WI,54411,US,US/Central,KMDZ,2021-09-15 14:35:00,71.0,71.0,36.0,28.46,10.0,WSW,9.0,0.0,Mostly Cloudy,False,False,False,False,False,False,False,False,False,False,False,False,False,Day,Day,Day,Day
C-4794714,1,2020-05-29 15:22:19.000000000,2020-05-29 16:22:19.000000000,38.9619,-77.08629,38.9619,-77.08629,0.0,At Wisconsin Cir - Construction work.,,Wisconsin Ave,R,Chevy Chase,Montgomery,MD,20815,US,US/Eastern,KCGS,2020-05-29 15:15:00,85.0,85.0,52.0,29.87,10.0,S,7.0,0.0,Fair,True,False,False,False,False,False,False,False,False,False,False,True,False,Day,Day,Day,Day
C-4794715,2,2021-10-15 07:55:30.000000000,2021-10-15 09:57:09.000000000,25.940526,-80.257896,25.939706,-80.261356,0.222318514176,Slow traffic on FL-953 - FL-860 from NW 32nd Ave to NW 181st St due to roadwork.,3413.0,NW 183rd St,L,Miami Gardens,Miami-Dade,FL,33056,US,US/Eastern,KOPF,2021-10-15 07:53:00,76.0,76.0,87.0,29.91,10.0,N,5.0,0.0,Fair,False,False,False,False,False,False,False,False,False,False,False,False,False,Day,Day,Day,Day
C-4794716,2,2019-10-18 09:00:00.000000000,2019-10-18 15:00:00.000000000,40.742931,-73.196442,,,6.28999996185,One lane closed due to construction work on NY-27 both ways between Exit 44 - Brentwood Road and Exit 45 - NY 111; Islip Avenue.,,Sunrise Hwy W,R,East Islip,Suffolk,NY,11730,US,US/Eastern,KISP,2019-10-18 08:56:00,53.0,53.0,64.0,29.66,10.0,NW,16.0,0.0,Mostly Cloudy,False,False,False,False,False,False,False,False,False,False,False,False,False,Day,Day,Day,Day
C-4794717,4,2021-08-04 14:22:00.000000000,2021-08-11 23:59:00.000000000,41.888987,-87.652221,41.886729,-87.65215,0.156055679383,Closed road from W Kinzie St to W Fulton Market due to roadwork.,401.0,N Morgan St,R,Chicago,Cook,IL,60642-6530,US,US/Central,KMDW,2021-08-04 13:53:00,83.0,83.0,33.0,29.45,10.0,SE,7.0,0.0,Fair,True,False,False,False,False,False,False,False,False,False,False,False,False,Day,Day,Day,Day
C-4794718,2,2021-08-02 14:00:30.000000000,2021-11-08 02:00:12.000000000,40.286309,-80.077433,40.288555,-80.076702,0.159894916806,Stationary traffic from Cidar Ln to Bebout Rd / Thompsonville Rd due to roadwork.,718.0,E McMurray Rd,R,Canonsburg,Washington,PA,15317-3422,US,US/Eastern,KAFJ,2021-08-02 13:53:00,75.0,75.0,44.0,28.85,10.0,ENE,8.0,0.0,Partly Cloudy,False,False,False,False,False,False,False,False,False,False,False,True,False,Day,Day,Day,Day
C-4794719,2,2021-03-03 03:27:36.000000000,2021-03-09 08:53:10.000000000,38.412269,-96.24876,38.411699,-96.281143,1.7536282117200002,Roadwork on I-335/I-35/Kansas Tpke (KS-57/US-50) from Road A (KS-57/US-50) to US-50 W - US-50 E.,4765.0,W US Highway 50,L,Emporia,Lyon,KS,66801,US,US/Central,KEMP,2021-03-03 03:53:00,45.0,40.0,42.0,28.7,10.0,SSW,10.0,0.0,Fair,False,False,False,False,False,False,False,False,False,False,False,False,False,Night,Night,Night,Night
C-4794720,2,2020-09-28 15:37:56.000000000,2020-10-29 02:45:00.000000000,42.235919,-75.91596700000002,42.230119,-75.91470699999998,0.405892824249,Roadwork on I-81 both directions between Exit 7 - US 11 (Chenango) and Whitney Point Rest Area (Barker) 1 alternate lanes of 2 lanes blocked for pavement repair to occur from 9/28 through 11/10 during the hours of 6:00 AM to 7:00 PM. This work is weather dependent with flagger personnel present with 24hr closure at times IR# 41046 D264289,,I-81 S,R,Castle Creek,Broome,NY,13744,US,US/Eastern,KBGM,2020-09-28 15:53:00,75.0,75.0,55.0,28.11,10.0,S,10.0,0.0,Fair,False,False,False,False,False,False,False,False,False,False,False,False,False,Day,Day,Day,Day
C-4794721,2,2021-05-06 14:01:00.000000000,2021-05-07 04:46:00.000000000,37.71807,-121.665998,37.71791,-121.701818,1.95777581436,Construction on I-580 WB near ALTAMONT SIDEHILL Expect delays.,,I-580 W,R,Livermore,Alameda,CA,94550,US,US/Pacific,KLVK,2021-05-06 13:53:00,74.0,74.0,29.0,29.61,10.0,W,14.0,0.0,Fair,False,False,False,False,False,False,False,False,False,False,False,False,False,Day,Day,Day,Day
C-4794722,2,2021-01-18 16:30:00.000000000,2021-01-22 12:15:00.000000000,33.437651,-112.095673,33.436816,-112.095657,0.0577003805385,Construction on 18TH AVE near 17TH AVE Allow extra time.,1200.0,S 17th Ave,R,Phoenix,Maricopa,AZ,85007,US,US/Mountain,KPHX,2021-01-18 16:51:00,70.0,70.0,12.0,28.56,10.0,WSW,3.0,0.0,Mostly Cloudy,False,False,False,False,False,False,False,False,False,True,False,False,False,Day,Day,Day,Day
C-4794723,2,2021-11-03 08:28:42.000000000,2021-11-03 08:49:24.000000000,40.771789,-73.97920400000002,40.774915,-73.976919,0.246870090242,Slow traffic from W 62nd St (Central Park W) to W 72nd St (Central Park) due to roadwork.,51.0,Central Park W,L,New York,New York,NY,10023-6095,US,US/Eastern,KNYC,2021-11-03 08:51:00,42.0,42.0,67.0,30.15,10.0,CALM,0.0,0.0,Fair,True,False,True,False,False,False,True,False,True,False,False,True,False,Day,Day,Day,Day
C-4794724,2,2021-09-22 14:30:00.000000000,2021-09-22 16:34:07.000000000,40.140332,-75.31054,40.140965,-75.313424,0.158485554147,Slow traffic on US-202 S from Old Arch Rd to East Norriton due to roadwork.,46.0,E Germantown Pike,R,Norristown,Montgomery,PA,19401-1512,US,US/Eastern,KLOM,2021-09-22 10:35:00,77.0,77.0,77.0,29.76,10.0,SSE,8.0,0.0,Cloudy,False,False,False,False,False,False,False,False,False,False,False,True,False,Day,Day,Day,Day
C-4794725,2,2020-11-09 13:33:30.000000000,2020-11-10 03:37:20.000000000,41.00707,-73.647661,40.988076,-73.671441,1.80556101582,Slow traffic on I-95 S - I-287 W from Delavan Ave exit [2] to exit [21] due to roadwork.,,I-95 S,R,Greenwich,Fairfield,CT,06830,US,US/Eastern,KHPN,2020-11-09 13:56:00,75.0,75.0,24.0,29.79,10.0,SSW,5.0,0.0,Fair,False,False,False,False,False,False,False,False,False,False,False,False,False,Day,Day,Day,Day
C-4794726,2,2021-01-29 08:00:00.000000000,2021-01-29 11:00:00.000000000,30.31123,-81.704872,,,0.0,Lane closed due to construction work on US-17 Roosevelt Blvd near Post St.,,FL-228,R,Jacksonville,Duval,FL,32205,US,US/Eastern,KNIP,2021-01-29 07:53:00,40.0,33.0,70.0,30.33,10.0,N,13.0,0.0,Fair,False,False,False,False,False,False,False,False,False,False,False,False,False,Day,Day,Day,Day
C-4794727,4,2018-10-02 06:19:43.000000000,2018-10-02 08:19:09.000000000,39.337062,-82.0815,39.3375,-82.08145,0.0303806426765999,At State St/Exit 15 - Roadwork.,,US-33 E,R,Athens,Athens,OH,45701,US,US/Eastern,KUNI,2018-10-02 06:15:00,68.5,,100.0,30.17,10.0,SSW,3.5,,Overcast,False,False,False,False,False,False,False,False,False,False,False,False,False,Night,Night,Night,Day
C-4794729,2,2018-04-05 04:49:09.000000000,2018-04-06 23:59:00.000000000,41.080292,-85.13987,,,0.0,Intermittent lane closures due to construction work on Calhoun St both ways between Superior St and Main St.,,S Calhoun St,R,Fort Wayne,Allen,IN,46802,US,US/Eastern,KFWA,2018-04-05 04:54:00,28.0,20.0,81.0,30.23,10.0,WSW,8.1,,Partly Cloudy,False,False,True,False,False,False,False,False,False,False,False,True,False,Night,Night,Night,Night
C-4794730,2,2021-12-17 15:13:30.000000000,2021-12-17 16:00:00.000000000,38.849763,-77.415459,38.831346,-77.452473,2.36371636936,Slow traffic on I-66 W from VA-286/Fairfax County Pkwy/Exit 55 (I-66) to VA-234/Exit 47 (I-66) due to roadwork.,,I-66 W,R,Centreville,Fairfax County,VA,20120,US,US/Eastern,KIAD,2021-12-17 14:52:00,60.0,60.0,42.0,29.81,10.0,N,7.0,0.0,Cloudy,False,False,False,False,False,False,False,False,False,False,False,False,False,Day,Day,Day,Day
C-4794731,4,2019-02-14 14:16:49.000000000,2019-02-14 16:16:36.000000000,38.90104,-86.5318,38.90984,-86.54493000000002,0.931707072978,At IN-54/IN-58 - Work on buried services.,,State Road 37,R,Oolitic,Lawrence,IN,47451,US,US/Eastern,KBMG,2019-02-14 13:53:00,51.1,,,29.64,10.0,South,13.8,,Mostly Cloudy,False,False,False,False,False,False,False,False,False,False,False,True,False,Day,Day,Day,Day
C-4794732,2,2021-10-22 06:00:00.000000000,2021-10-22 16:45:00.000000000,32.648384,-85.482711,32.63879,-85.481576,0.6661631677709999,Construction on AL-147 SB near MM 8 Drive with caution.,1798.0,N College St,R,Auburn,Lee,AL,36830,US,US/Central,KAUO,2021-10-22 05:56:00,61.0,61.0,100.0,29.22,0.5,W,8.0,0.0,Fog,False,False,False,False,False,False,False,False,False,False,False,False,False,Night,Night,Day,Day
C-4794733,2,2021-07-01 12:50:50.000000000,2021-07-01 15:05:16.000000000,25.885498,-80.210753,25.88378,-80.211286,0.123239688896,Slow traffic on FL-924 - US-441 S from NW 121st St to NW 8th Ave due to roadwork.,12100.0,NW 7th Ave,L,North Miami,Miami-Dade,FL,33168-2527,US,US/Eastern,KOPF,2021-07-01 12:50:00,82.0,82.0,70.0,30.04,10.0,S,9.0,0.0,Thunder,False,False,False,False,False,False,False,False,True,False,False,False,False,Day,Day,Day,Day
C-4794734,2,2021-01-04 13:33:00.000000000,2021-01-05 03:51:32.000000000,40.244151,-79.575981,40.239427,-79.579299,0.3703485197519999,Slow traffic on US-119 S from Fairview St (US-119) to Burton Ave (US-119) due to roadwork.,318.0,N 4th St,R,Youngwood,Westmoreland,PA,15697-1312,US,US/Eastern,KLBE,2021-01-04 13:47:00,36.0,36.0,93.0,28.72,10.0,CALM,0.0,0.0,Cloudy,True,False,False,False,False,False,False,False,False,False,False,False,False,Day,Day,Day,Day
C-4794735,3,2018-08-13 20:01:53.000000000,2018-08-17 20:01:22.000000000,41.75773,-87.88269,41.82295,-87.91629,4.827271623490001,Between Willow Springs Rd and US-34/Ogden Ave - Roadwork. 2 right lanes blocked.,,I-294 N,R,La Grange,Cook,IL,60525,US,US/Central,KMDW,2018-08-13 19:53:00,82.9,,44.0,29.98,10.0,ESE,8.1,,Partly Cloudy,False,False,False,False,False,False,False,False,False,False,False,False,False,Night,Day,Day,Day
C-4794736,2,2021-10-18 06:25:00.000000000,2021-10-18 08:36:18.000000000,27.81980900000001,-82.679461,27.821140000000003,-82.6802,0.10245253254,Slow traffic on US-19 N from 52nd Ave N to 35th Way N due to roadwork.,5261.0,34th St N,R,Saint Petersburg,Pinellas,FL,33714-2400,US,US/Eastern,KSPG,2021-10-18 06:53:00,71.0,71.0,70.0,30.04,10.0,NE,16.0,0.0,Fair,False,False,False,False,False,False,False,False,True,False,False,False,False,Night,Night,Night,Day
C-4794737,2,2020-12-28 19:08:56.000000000,2020-12-28 19:30:43.000000000,39.094585,-104.863048,39.105535,-104.864526,0.760712270324,Slow traffic on US-85 N - US-87 N - I-25 N from CO-105/Exit 161 (I-25) to County Line Rd/Exit 163 (I-25) due to roadwork.,,I-25 N,R,Monument,El Paso,CO,80132,US,US/Mountain,KAFF,2020-12-28 19:13:00,28.0,16.0,100.0,23.44,1.0,SSE,17.0,0.0,Light Snow,False,False,False,False,False,False,False,False,False,False,False,False,False,Night,Night,Night,Night
C-4794738,2,2021-10-20 06:12:00.000000000,2021-10-22 00:58:46.000000000,38.391579,-107.417298,38.388091,-107.423039,0.393374599631,Roadwork on CO-92 (US-50) from Hillcrest Dr (E Main St/US-50) to US-50 W - US-50 E.,6893.0,US Highway 50,L,Cimarron,Gunnison,CO,81220,US,US/Mountain,KMTJ,2021-10-20 05:53:00,30.0,23.0,85.0,24.52,10.0,SSE,7.0,0.0,Fair,False,False,False,False,False,False,False,False,False,False,False,False,False,Night,Night,Night,Day
C-4794739,2,2021-12-06 15:28:30.000000000,2021-12-06 17:35:50.000000000,33.524769,-112.064999,33.523740000000004,-112.064223,0.0839801669558,Stationary traffic from E Rose Ln to N 9th St due to roadwork.,5982.0,N 7th St,L,Phoenix,Maricopa,AZ,85012,US,US/Mountain,KPHX,2021-12-06 15:51:00,76.0,76.0,19.0,28.75,10.0,CALM,0.0,0.0,Mostly Cloudy,True,False,False,False,False,False,False,False,True,False,False,False,False,Day,Day,Day,Day
C-4794740,2,2021-07-11 12:52:45.000000000,2021-07-11 13:12:45.000000000,33.748641,-79.464414,33.753007000000004,-79.453125,0.715261748057,Slow traffic on SC-261 from Henry Rd/Indiantown Swamp Rd (Hemingway Hwy/SC-261) to SC-41 (Hemingway Hwy/SC-261) due to roadwork.,2463.0,Hemingway Hwy,R,Hemingway,Williamsburg,SC,29554-5411,US,US/Eastern,KHYW,2021-07-11 12:55:00,82.0,82.0,84.0,30.05,10.0,E,6.0,0.0,Thunder,False,False,False,False,False,False,False,False,False,False,False,False,False,Day,Day,Day,Day
C-4794741,1,2020-06-25 09:17:47.000000000,2020-06-25 11:17:47.000000000,34.282270000000004,-84.51088,34.31674,-84.55282,3.3768091309900004,At GA-108/Fincher Rd - Roadwork. Roadway reduced to 1 lane.,2999.0,Reinhardt College Pkwy,L,Canton,Cherokee,GA,30114-5157,US,US/Eastern,KCNI,2020-06-25 09:10:00,70.0,70.0,100.0,28.8,10.0,W,7.0,0.0,Cloudy,False,False,False,False,False,False,False,False,False,True,False,True,False,Day,Day,Day,Day
C-4794742,2,2021-04-23 03:56:00.000000000,2021-04-24 19:33:08.000000000,40.817621,-73.892886,40.82369,-73.877305,0.916268534171,Slow traffic on I-278 E from I-895 (I-278) to Bronx River Ave (Bronx) (North) (I-278) due to roadwork.,820.0,Tiffany St,R,Bronx,Bronx,NY,10459,US,US/Eastern,KLGA,2021-04-23 03:51:00,42.0,32.0,47.0,29.96,10.0,NW,24.0,0.0,Mostly Cloudy / Windy,False,False,False,False,True,False,False,False,False,False,False,True,False,Night,Night,Night,Night
C-4794743,4,2020-12-01 02:01:00.000000000,2020-12-01 16:46:00.000000000,33.996044,-117.365001,33.995364,-117.36221100000002,0.166585061629,Construction on CA-60 EB near MAIN ST Take alternate route.,2149.0,Main St,L,Riverside,Riverside,CA,92501-1833,US,US/Pacific,KRAL,2020-12-01 01:53:00,49.0,49.0,33.0,29.24,10.0,ENE,3.0,0.0,Fair,False,False,False,False,False,False,False,False,False,False,False,False,False,Night,Night,Night,Night
C-4794744,2,2021-10-16 12:51:32.000000000,2021-10-16 15:07:29.000000000,26.115911,-80.137079,26.123252,-80.137229,0.5073001483699999,Slow traffic on US-1 N - FL-5 from FL-736/Davie Blvd (US-1) to 6th St (Fort Lauderdale) (US-1) due to roadwork.,,S Federal Hwy,R,Fort Lauderdale,Broward,FL,33301,US,US/Eastern,KFLL,2021-10-16 12:53:00,87.0,87.0,57.0,29.92,10.0,VAR,5.0,0.0,Partly Cloudy,True,False,True,False,False,False,False,False,False,False,False,False,False,Day,Day,Day,Day
C-4794745,2,2017-12-16 00:01:00.000000000,2017-12-17 23:59:00.000000000,27.777365000000003,-97.397125,,,0.0,One lane closed due to construction on Elizabeth St Westbound from 3rd St to Santa Fe St.,1399.0,Santa Fe St,R,Corpus Christi,Nueces,TX,78404-2213,US,US/Central,KCRP,2017-12-16 00:51:00,50.0,,86.0,30.25,10.0,NNW,5.8,,Overcast,False,False,False,False,False,False,False,False,False,False,False,False,False,Night,Night,Night,Night
C-4794746,2,2021-10-26 15:50:30.000000000,2021-10-26 16:17:30.000000000,33.48067,-112.10842,33.480626,-112.113616,0.299455196968,Slow traffic on US-60 W from N 19th Ave (W Thomas Rd) to I-17/Black Canyon Hwy (W Thomas Rd) due to roadwork.,2330.0,W Thomas Rd,R,Phoenix,Maricopa,AZ,85015-5903,US,US/Mountain,KPHX,2021-10-26 15:51:00,74.0,74.0,21.0,28.73,10.0,W,17.0,0.0,Fair,False,False,True,False,False,True,False,False,False,False,False,True,False,Day,Day,Day,Day
C-4794747,2,2021-11-24 18:36:19.000000000,2021-11-24 20:42:23.000000000,26.273817,-80.187162,26.27503,-80.186258,0.100801718713,Slow traffic on FL-834 from Fishermans Dr to Coral Tree Ter / Coral Tree Cir due to roadwork.,4644.0,W Sample Rd,R,Pompano Beach,Broward,FL,33063,US,US/Eastern,KFXE,2021-11-24 18:53:00,70.0,70.0,65.0,30.18,10.0,ENE,10.0,0.0,Light Rain,False,False,False,False,False,False,False,False,False,False,False,False,False,Night,Night,Night,Day
C-4794748,2,2021-12-21 05:35:00.000000000,2021-12-21 08:02:46.000000000,29.978215,-90.178894,29.975587,-90.178849,0.1815974796909999,Stationary traffic on LA-3152 - US-61 N from Camel St to Spar St due to roadwork.,398.0,Clearview Pkwy,L,Metairie,Jefferson,LA,70001-4623,US,US/Pacific,KAUD,2021-12-21 05:55:00,48.0,44.0,80.0,30.06,10.0,NNW,9.0,0.0,Cloudy,False,False,True,False,False,False,False,False,False,False,False,False,False,Night,Night,Night,Day
C-4794749,2,2021-03-03 07:47:54.000000000,2021-03-03 18:00:59.000000000,35.537054,-97.74239,35.55109,-97.743802,0.973038649441,Slow traffic on OK-4 from OK-66/Main St/S Cornwell Dr (OK-4) to W Wilshire Blvd (N Piedmont Rd/OK-4) due to roadwork.,2853.0,N Piedmont Rd,R,Yukon,Canadian,OK,73099-1445,US,US/Central,KRCE,2021-03-03 07:55:00,41.0,34.0,61.0,28.63,10.0,SSW,12.0,0.0,Fair,False,False,False,False,False,False,False,False,False,True,False,False,False,Day,Day,Day,Day
C-4794750,2,2021-04-15 09:22:37.000000000,2021-04-16 10:08:30.000000000,38.698403000000006,-75.893945,38.698644,-75.89424100000002,0.0230659895752999,Construction on MD-318 WB near SEAMAN RD Expect delays.,4302.0,Preston Rd,R,Hurlock,Dorchester,MD,21643,US,US/Eastern,KCGE,2021-04-15 09:15:00,57.0,57.0,100.0,29.76,10.0,W,5.0,0.0,Cloudy,False,False,False,False,False,False,False,False,False,True,False,False,False,Day,Day,Day,Day
C-4794751,3,2018-08-01 05:06:33.000000000,2018-08-05 17:59:00.000000000,42.26194,-87.905472,,,0.0,Road closed due to bridge maintenance work on County Hwy-58 Bradley Rd both ways from IL-176 Rockland Rd to Old School Rd.,27301.0,N Bradley Rd,R,Lake Forest,Lake,IL,60045-1007,US,US/Central,KPWK,2018-08-01 04:52:00,63.0,,87.0,29.96,10.0,Calm,,,Clear,False,False,False,False,False,False,False,False,False,False,False,False,False,Night,Night,Day,Day
C-4794752,2,2021-04-13 05:58:30.000000000,2021-04-13 19:57:07.000000000,41.852818,-87.624765,41.854309,-87.62388299999998,0.112575157261,Slow traffic from S Wabash Ave to E 21st St due to roadwork.,55.0,E Cermak Rd,R,Chicago,Cook,IL,60616-2122,US,US/Central,KMDW,2021-04-13 05:53:00,43.0,38.0,60.0,29.36,10.0,WSW,9.0,0.0,Fair,False,False,True,False,False,False,False,False,False,False,False,False,False,Night,Day,Day,Day
C-4794753,2,2021-11-16 16:36:52.000000000,2021-11-16 17:14:19.000000000,26.27393,-80.183841,26.27503,-80.186258,0.167928596159,Slow traffic on FL-834 from NW 42nd Ave to Coral Tree Ter / Coral Tree Cir due to roadwork.,4401.0,W Sample Rd,L,Coconut Creek,Broward,FL,33073-3451,US,US/Eastern,KPMP,2021-11-16 16:53:00,76.0,76.0,58.0,30.12,10.0,NE,12.0,0.0,Mostly Cloudy,False,False,True,False,False,False,False,False,False,False,False,False,False,Day,Day,Day,Day
C-4794754,2,2021-04-19 15:40:26.000000000,2021-04-19 23:50:00.000000000,34.657879,-86.79708199999996,34.656688,-86.802591,0.323732206882,Slow traffic on Huntsville Decatur Hwy W - I-565 W - Joe Wheeler Hwy W from Glenn Hearn Blvd/Exit 7 (I-565) to AL-20/Exit 5 (I-565) due to roadwork.,,Huntsville Decatur Hwy W,R,Madison,Limestone,AL,35756,US,US/Central,KHSV,2021-04-19 15:53:00,66.0,66.0,43.0,29.29,10.0,CALM,0.0,0.0,Fair,False,False,False,False,False,False,False,False,False,False,False,False,False,Day,Day,Day,Day
C-4794755,3,2019-07-08 21:57:32.000000000,2019-07-11 01:27:32.000000000,33.76392,-118.02797,33.71932,-117.97122,4.4863416846,Between CA-22/Garden Grove Fwy/Exit 21 and Magnolia St/Exit 15 - Roadwork. Two lanes blocked.,,San Diego Fwy S,R,Westminster,Orange,CA,92683,US,US/Pacific,KSLI,2019-07-08 21:58:00,64.0,64.0,79.0,29.97,10.0,CALM,0.0,0.0,Fair,False,False,False,False,False,False,False,False,False,False,False,False,False,Night,Night,Night,Night
C-4794756,2,2019-02-16 07:00:00.000000000,2019-02-16 19:00:00.000000000,40.622426,-105.084379,40.622419,-105.084369,0.00071340625469,At CO-1/CR-15/Terry Lake Rd/Park Ave - Construction work.,491.0,N US Highway 287,R,Fort Collins,Larimer,CO,80524-1346,US,US/Mountain,KFNL,2019-02-16 06:56:00,19.9,14.9,85.0,29.56,10.0,ESE,3.5,,Overcast,False,False,False,False,False,False,False,False,False,False,False,False,False,Day,Day,Day,Day
C-4794757,2,2021-11-15 07:09:09.000000000,2021-11-15 07:36:06.000000000,41.215172,-86.84787800000002,,,2.3900001049,Intermittent lane closures due to construction on IN-10 both ways between County Road 850 and IN-10 / County Road 750.,7700.0,W State Road 10,R,San Pierre,Starke,IN,46374,US,US/Central,KOXI,2021-11-15 07:15:00,28.0,23.0,100.0,29.37,10.0,WSW,5.0,,Cloudy,False,False,False,False,False,False,False,False,False,False,False,False,False,Day,Day,Day,Day
C-4794758,2,2021-06-28 16:49:30.000000000,2021-10-25 14:32:37.000000000,33.298751,-111.863163,33.298737,-111.859119,0.233541467449,Stationary traffic from S Apache Dr to S Alma School Rd due to roadwork.,301.0,S Apache Dr,L,Chandler,Maricopa,AZ,85224-7559,US,US/Mountain,KCHD,2021-06-28 16:47:00,106.0,106.0,12.0,28.33,10.0,SSE,6.0,,Partly Cloudy,False,False,True,False,False,False,False,False,False,False,False,True,False,Day,Day,Day,Day
C-4794759,2,2021-06-27 21:01:00.000000000,2021-06-28 08:46:00.000000000,35.159071000000004,-119.108244,35.137681,-119.084554,1.99385311932,Construction on I-5 SB near HERRING RD Drive with caution.,,I-5 S,R,Bakersfield,Kern,CA,93313,US,US/Pacific,KBFL,2021-06-27 20:54:00,96.0,96.0,30.0,29.11,10.0,NW,7.0,0.0,Fair,False,False,False,False,False,False,False,False,False,False,False,False,False,Night,Night,Day,Day
C-4794760,2,2020-06-05 08:57:39.000000000,2020-06-05 16:30:00.000000000,41.2521,-73.67546999999998,41.19228,-73.68724,4.1781851546,At RT-172/Exit 4 - Construction work.,,I-684 S,R,Katonah,Westchester,NY,10536,US,US/Eastern,KDXR,2020-06-05 09:00:00,70.0,70.0,90.0,29.44,9.0,SW,6.0,0.0,Cloudy,False,False,False,False,False,False,False,False,False,False,False,False,False,Day,Day,Day,Day
C-4794761,2,2021-10-16 12:13:30.000000000,2021-10-16 12:58:30.000000000,46.202204,-91.147892,46.196704,-91.126444,1.09384066058,Slow traffic on County Hwy-M from Forest Road 1721 to Oak Ridge Dr / Forest Ridge Rd due to roadwork.,,County Highway M,R,Cable,Bayfield,WI,54821,US,US/Central,KHYR,2021-10-16 11:53:00,52.0,52.0,53.0,28.68,10.0,VAR,5.0,0.0,Fair,False,False,False,False,False,False,False,False,False,False,False,False,False,Day,Day,Day,Day
C-4794762,2,2021-05-21 03:09:30.000000000,2021-12-17 16:30:00.000000000,33.48957,-111.958179,33.487403,-111.960854,0.214890395447,Slow traffic from N 58th Pl to E Osborn Rd due to roadwork.,5715.0,E Indian School Rd,L,Phoenix,Maricopa,AZ,85018-6103,US,US/Mountain,KPHX,2021-12-17 13:51:00,59.0,59.0,35.0,28.82,10.0,VAR,5.0,0.0,Fair,False,False,True,False,False,False,False,False,False,False,False,False,False,Night,Night,Night,Night
C-4794763,2,2021-06-07 11:11:58.000000000,2021-06-07 11:36:22.000000000,43.080809,-75.292838,43.082263,-75.294729,0.138561165403,Stationary traffic on NY-8 N - NY-840 W from CR-24 (NY-8) to NY-5 (NY-8) due to roadwork.,,Sauquoit Valley Arterial N,R,Utica,Oneida,NY,13502,US,US/Eastern,KRME,2021-06-07 10:53:00,83.0,83.0,53.0,29.51,10.0,CALM,0.0,0.0,Fair,False,False,True,False,True,False,True,False,False,False,False,False,False,Day,Day,Day,Day
C-4794764,2,2021-12-17 15:12:00.000000000,2021-12-17 19:48:04.000000000,41.930446,-87.846639,41.92978,-87.845177,0.0881200477295,Stationary traffic from Cherry Ave to Indian Boundary Rd due to roadwork.,2734.0,N River Rd,L,River Grove,Cook,IL,60171-1326,US,US/Central,KORD,2021-12-17 14:51:00,36.0,28.0,67.0,29.45,10.0,ENE,12.0,0.0,Mostly Cloudy,False,False,True,False,False,False,False,False,False,False,False,False,False,Day,Day,Day,Day
C-4794765,4,2021-02-27 05:01:00.000000000,2021-02-27 13:46:00.000000000,34.059065000000004,-118.212901,34.060485,-118.214951,0.1529561230309999,Construction on I-5 NB near MARENGO ST Take alternate route.,,Marengo St,R,Los Angeles,Los Angeles,CA,90033,US,US/Pacific,KCQT,2021-02-27 05:06:00,52.0,52.0,77.0,29.71,9.0,CALM,0.0,0.0,Partly Cloudy,False,False,False,False,False,False,False,False,True,False,False,False,False,Night,Night,Night,Day
C-4794766,2,2021-11-05 07:46:30.000000000,2021-11-05 08:06:30.000000000,34.000195,-118.413462,34.004655,-118.409836,0.371615105056,Slow traffic from S Centinela Ave (Culver Blvd) to Overland Ave (Culver Blvd) due to roadwork.,4401.0,Berryman Ave,R,Los Angeles,Los Angeles,CA,90066,US,US/Pacific,KSMO,2021-11-05 07:51:00,55.0,55.0,100.0,29.79,0.5,CALM,0.0,0.0,Fog,True,False,True,False,False,False,False,False,True,False,False,True,False,Day,Day,Day,Day
C-4794767,2,2021-09-17 13:04:40.000000000,2021-09-17 13:54:14.000000000,40.774263,-73.959391,40.769725,-73.9627,0.3581762180569999,Stationary traffic from E 79th St (Lexington Ave) to E 71st St (Lexington Ave) due to roadwork.,1119.0,Lexington Ave,R,New York,New York,NY,10075-0401,US,US/Eastern,KNYC,2021-09-17 12:51:00,73.0,,79.0,30.14,8.0,,,0.0,Cloudy,True,False,False,False,False,False,True,False,True,False,False,True,False,Day,Day,Day,Day
C-4794768,4,2021-02-13 00:00:00.000000000,2021-02-21 00:44:00.000000000,34.261714000000005,-118.456371,34.261574,-118.455069,0.0749760265895,Construction on GERMAIN ST EB near KESTER AVE Road closed. Take alternate route.,14899.0,Germain St,R,Mission Hills,Los Angeles,CA,91345-2215,US,US/Pacific,KWHP,2021-02-13 08:00:00,48.0,48.0,87.0,28.93,7.0,CALM,0.0,,Mostly Cloudy,False,False,False,False,False,False,False,False,False,False,False,False,False,Night,Night,Night,Night
C-4794769,2,2021-10-22 15:13:02.000000000,2021-10-22 15:44:34.000000000,26.644659000000004,-80.20358399999998,26.650807,-80.204262,0.426844807791,Stationary traffic on FL-7 - US-441 N - FL-882 from Wellington Green Mall to Wellington Edge Blvd due to roadwork.,2294.0,State Road 7,R,Wellington,Palm Beach,FL,33414,US,US/Eastern,KPBI,2021-10-22 14:53:00,76.0,76.0,91.0,29.97,10.0,ESE,9.0,0.0,Mostly Cloudy,False,False,False,False,False,False,False,False,False,False,False,False,False,Day,Day,Day,Day
C-4794770,2,2021-08-02 20:00:00.000000000,2021-08-03 06:45:00.000000000,41.112506,-73.79553,41.179946,-73.758985,5.03267700604,Construction on SAW MILL RIVER PKWY near NY-119 Drive with caution.,,Saw Mill River Pkwy N,R,Hawthorne,Westchester,NY,10532,US,US/Eastern,KHPN,2021-08-02 19:56:00,70.0,70.0,65.0,29.55,10.0,CALM,0.0,0.0,Partly Cloudy,False,False,False,False,True,False,False,False,False,False,False,False,False,Day,Day,Day,Day
C-4794771,3,2019-06-26 04:06:44.000000000,2019-06-26 06:00:00.000000000,41.737751,-72.662849,,,0.0,Two lanes closed due to construction on I-91 Southbound at Exits 27 28 29 CT-15 Exits 86 87.,,CT-15 N,R,Hartford,Hartford,CT,06114,US,US/Eastern,KHFD,2019-06-26 04:08:00,70.0,70.0,97.0,29.93,1.0,CALM,0.0,0.0,Fog,False,False,False,False,True,False,False,False,False,False,False,False,False,Night,Night,Day,Day
C-4794772,2,2021-09-20 03:27:24.000000000,2021-09-21 12:07:40.000000000,47.645956,-122.135163,47.645976,-122.134616,0.0254997238693,Roadwork from 148th Ave NE (NE 40th St) to WA-520 (NE 40th St).,,NE 40th St,R,Redmond,King,WA,98052,US,US/Pacific,KBFI,2021-09-20 03:53:00,56.0,56.0,87.0,30.28,10.0,SSE,7.0,0.0,Cloudy,False,False,True,False,False,False,False,False,False,False,False,True,False,Night,Night,Night,Night
C-4794773,4,2020-12-16 16:00:00.000000000,2020-12-24 01:00:00.000000000,41.216845,-85.084051,41.21611,-85.081402,0.146746029109,Closed road from Chesswood Dr to Ramona Ln due to roadwork.,4805.0,Hursh Rd,L,Fort Wayne,Allen,IN,46845-9645,US,US/Eastern,KGWB,2020-12-16 15:55:00,30.0,24.0,93.0,28.96,2.0,NNE,6.0,0.0,Light Snow,False,False,False,False,False,False,False,False,False,False,False,False,False,Day,Day,Day,Day
C-4794774,2,2020-06-18 20:33:58.000000000,2020-06-19 17:00:00.000000000,38.69852,-90.44979,38.69643,-90.46123,0.633572431981,Between I-270/Mo-d and Bennington Pl - Roadwork. Roadway reduced to 2 lanes.,,MO-364 W,R,Saint Louis,St. Louis County,MO,63146,US,US/Central,KSTL,2020-06-18 20:51:00,83.0,83.0,39.0,29.32,10.0,SW,6.0,0.0,Mostly Cloudy,False,False,False,False,True,False,False,False,False,False,False,False,False,Night,Day,Day,Day
C-4794775,2,2021-02-10 16:50:30.000000000,2021-02-10 17:34:00.000000000,40.580845,-75.715802,40.579083,-75.738023,1.17241540276,Slow traffic on US-22 W - I-78 W from PA-863/Exit 45 (I-78) to PA-737/Exit 40 (I-78) due to roadwork.,,I-78 W,R,Kutztown,Lehigh,PA,19530,US,US/Eastern,KRDG,2021-02-10 16:54:00,34.0,30.0,50.0,29.89,10.0,W,5.0,0.0,Cloudy,False,False,False,False,False,False,False,False,False,False,False,False,False,Day,Day,Day,Day
C-4794776,2,2021-09-04 10:57:30.000000000,2021-09-04 11:17:30.000000000,40.1791,-75.183087,40.180787,-75.183162,0.116627819099,Stationary traffic on PA-152 from Norristown Rd (Limekiln Pike/PA-152) to PA-463/Horsham Rd (Limekiln Pike/PA-152) due to roadwork.,1900.0,Norristown Rd,L,Ambler,Montgomery,PA,19002,US,US/Eastern,KLOM,2021-09-04 10:55:00,69.0,69.0,68.0,29.76,10.0,NNW,3.0,0.0,Fair,False,False,False,False,False,False,False,False,False,False,False,True,False,Day,Day,Day,Day
C-4794777,2,2021-06-11 18:52:37.000000000,2021-06-11 19:14:57.000000000,40.847994,-73.934694,40.849324,-73.933724,0.104951156831,Slow traffic from Trans-Manhattan Expressway to W 182nd St due to roadwork.,1375.0,Saint Nicholas Ave,L,New York,New York,NY,10033-6201,US,US/Eastern,KNYC,2021-06-11 18:51:00,68.0,68.0,63.0,29.81,10.0,ENE,8.0,0.0,Cloudy,True,False,True,False,False,False,True,False,True,False,False,True,False,Day,Day,Day,Day
C-4794778,4,2021-08-30 06:34:01.000000000,2021-09-06 23:59:00.000000000,40.812646,-77.89573299999998,40.812475,-77.896012,0.0187738712340999,Closed road from E Clearview Ave / N Allen St to Waddle Rd due to roadwork.,188.0,W Clearview Ave,L,State College,Centre,PA,16803-1617,US,US/Eastern,KUNV,2021-08-30 06:53:00,66.0,66.0,100.0,28.64,7.0,WSW,5.0,0.0,Fair,False,False,False,False,False,False,False,False,False,False,False,True,False,Night,Day,Day,Day
C-4794779,2,2021-01-18 02:07:56.000000000,2021-10-26 23:56:00.000000000,43.424312,-124.222749,43.331733,-124.200405,6.49427569882,Road construction is occurring causing no to minimum delays. Use caution.,,Sherman Ave,R,North Bend,Coos,OR,97459,US,US/Pacific,KOTH,2021-01-18 01:56:00,43.0,43.0,93.0,30.42,10.0,CALM,0.0,0.0,Fair,False,False,True,False,False,False,True,False,False,True,False,False,False,Night,Night,Night,Night
C-4794780,2,2020-12-29 16:21:00.000000000,2020-12-29 23:26:31.000000000,42.155097,-87.954752,42.153503,-87.955437,0.115588874163,Slow traffic on County Hwy-W17 - County Hwy-73 from Deerfield Pkwy (Weiland Rd) to IL-83/McHenry Rd (Weiland Rd) due to roadwork.,170.0,N Weiland Rd,L,Buffalo Grove,Lake,IL,60089-7047,US,US/Central,KPWK,2020-12-29 16:32:00,30.0,18.0,64.0,29.66,2.0,SSE,17.0,0.0,Light Snow,False,False,False,False,False,False,False,False,False,False,False,False,False,Day,Day,Day,Day
C-4794781,2,2021-12-01 12:37:00.000000000,2021-12-01 12:49:30.000000000,34.546637,-92.628648,34.543015000000004,-92.636718,0.5230289306270001,Slow traffic on AR-88 W - US-70 W - I-30 W from Sevier St/Exit 116 (I-30) to US-67/Exit 114 (I-30) due to roadwork.,,AR-88 W,R,Benton,Saline,AR,72015,US,US/Central,KLIT,2021-12-01 12:53:00,65.0,65.0,65.0,29.73,10.0,WSW,13.0,0.0,Partly Cloudy,False,False,False,False,False,False,False,False,False,False,False,False,False,Day,Day,Day,Day
C-4794782,4,2018-08-22 02:10:54.000000000,2018-08-22 07:08:28.000000000,47.468031,-122.21808,47.440612,-122.217849,1.89450321015,Between I-405 and 212th St - Construction work.,,WA-167 S,R,Renton,King,WA,98057,US,US/Pacific,KRNT,2018-08-22 01:53:00,64.9,,70.0,29.97,5.0,ESE,3.5,,Haze,False,False,False,False,True,False,False,False,False,False,False,False,False,Night,Night,Night,Night
C-4794783,2,2017-03-02 08:34:58.000000000,2017-03-02 14:30:00.000000000,37.76712,-121.33152,37.77482,-121.32102,0.782246537256,At I-205 - Roadwork.,,I-5 N,R,Tracy,San Joaquin,CA,95304,US,US/Pacific,KSCK,2017-03-02 08:55:00,51.1,,77.0,30.37,10.0,Calm,,,Clear,False,False,False,False,False,False,False,False,False,False,False,False,False,Day,Day,Day,Day
C-4794784,2,2021-12-15 09:10:00.000000000,2021-12-15 09:33:30.000000000,28.533467,-81.28563,28.540131,-81.28568,0.460448550199,Stationary traffic on FL-551 from Autumnvale Dr (S Goldenrod Rd/FL-551) to FL-408/East West Expy (S Goldenrod Rd/FL-551) due to roadwork.,817.0,S Goldenrod Rd,L,Orlando,Orange,FL,32822-8129,US,US/Eastern,KORL,2021-12-15 08:53:00,71.0,71.0,84.0,30.19,10.0,NNE,7.0,0.0,Mostly Cloudy,False,False,True,False,False,False,False,False,False,False,False,True,False,Day,Day,Day,Day
C-4794785,2,2021-04-19 05:26:43.000000000,2021-12-24 09:39:26.000000000,26.274963,-80.133975,26.274162,-80.135827,0.127390404823,Stationary traffic on FL-834 from Seaboard Coast Line Railroad to NW 9th Ave due to roadwork.,837.0,W Sample Rd,L,Pompano Beach,Broward,FL,33064-2002,US,US/Eastern,KPMP,2021-12-24 07:53:00,61.0,61.0,87.0,30.13,10.0,CALM,0.0,0.0,Partly Cloudy,False,False,True,False,False,False,True,False,False,False,False,False,False,Night,Night,Night,Night
C-4794786,2,2021-09-21 08:17:30.000000000,2021-09-21 10:22:45.000000000,42.080837,-88.335539,42.07864,-88.33214,0.231140320615,Slow traffic on County Hwy-34 at I-90 E due to roadwork.,,I-90 W,R,Elgin,Kane,IL,60123,US,US/Central,KDPA,2021-09-21 08:15:00,61.0,61.0,90.0,29.2,3.0,NNW,9.0,0.01,Light Rain,False,False,False,False,False,False,False,False,False,False,False,False,False,Day,Day,Day,Day
C-4794787,2,2021-08-05 13:22:50.000000000,2021-08-06 00:06:39.000000000,47.629897,-122.858883,47.631815,-122.853645,0.277571622507,Roadwork from Cadmar Ln NW to Olympic Vista Pl NW.,7263.0,Stavis Bay Rd NW,L,Seabeck,Kitsap,WA,98380-9741,US,US/Pacific,KPWT,2021-08-05 12:56:00,80.0,80.0,47.0,29.43,10.0,WSW,7.0,0.0,Fair,False,False,False,False,False,False,False,False,False,False,False,False,False,Day,Day,Day,Day
C-4794788,3,2020-04-21 21:01:46.000000000,2020-04-25 21:01:24.000000000,25.81711,-80.20644,25.78226,-80.20063,2.43487843369,Between SR-112 Hov Ramp and 2nd St/Exit 1/Exit 2 - Construction work.,,I-95 S,R,Miami,Miami-Dade,FL,33127,US,US/Eastern,KMIA,2020-04-21 20:53:00,82.0,82.0,65.0,29.94,10.0,CALM,0.0,0.0,Fair,False,False,False,False,True,False,False,False,False,False,False,False,False,Night,Night,Night,Day
C-4794789,4,2021-06-13 00:00:00.000000000,2021-06-17 23:59:59.000000000,39.181755,-76.613488,39.181863,-76.61368399999998,0.0128792527851,HMA Patching and Paving. ANNE ARUNDEL COUNTY: MD-2 NORTH/SOUTH BETWEEN (MD-270) FURNACE BRANCH RD AND (CO-2069) PASADENA RD,7050.0,E Furnace Branch Rd,R,Glen Burnie,Anne Arundel,MD,21060,US,US/Eastern,KBWI,2021-06-13 00:54:00,66.0,66.0,84.0,29.74,10.0,CALM,0.0,0.0,Partly Cloudy,False,False,False,False,False,False,False,False,False,False,False,True,False,Night,Night,Night,Night
C-4794790,2,2018-09-14 05:50:26.000000000,2018-10-31 18:59:00.000000000,42.240276,-88.861343,,,0.0,Lane closed due to construction work on US-20 both ways at Appleton Rd.,,S Appleton Rd,R,Belvidere,Boone,IL,61008,US,US/Central,KRFD,2018-09-14 05:54:00,60.1,,90.0,30.15,8.0,Calm,,,Clear,False,False,False,False,False,False,False,False,False,False,False,False,False,Night,Night,Day,Day
C-4794791,2,2021-10-22 09:19:30.000000000,2021-10-22 13:11:06.000000000,34.771945,-97.289359,34.731147,-97.257359,3.35352798327,Stationary traffic on I-35 S from OK-145/Exit 79 (I-35) to Airport Rd/Exit 70 (I-35) due to roadwork.,,I-35 S,R,Pauls Valley,Garvin,OK,73075,US,US/Central,KPVJ,2021-10-22 09:15:00,57.0,57.0,73.0,29.09,10.0,CALM,0.0,0.0,Mostly Cloudy,False,False,False,False,False,False,False,False,False,False,False,False,False,Day,Day,Day,Day
C-4794792,2,2021-02-02 14:37:00.000000000,2021-02-03 03:30:27.000000000,39.697106,-104.899687,39.696529,-104.896598,0.168990061919,Slow traffic on CO-83 from Leetsdale Dr / S Quebec St to S Trenton St due to roadwork.,1063.0,S Parker Rd,R,Denver,Arapahoe,CO,80231-2505,US,US/Mountain,KAPA,2021-02-02 14:53:00,64.0,64.0,18.0,24.15,10.0,N,8.0,0.0,Partly Cloudy,False,False,True,False,False,False,False,False,False,True,False,False,False,Day,Day,Day,Day
C-4794793,2,2021-12-12 13:33:30.000000000,2021-12-12 15:38:20.000000000,43.922625,-121.595392,43.965349,-121.617324,3.14713505333,Roadwork from NF-40 (River Summit Dr) to OR-372/Cascade Lakes Hwy (River Summit Dr).,,NFD Road 4020,R,La Pine,Deschutes,OR,97739,US,US/Pacific,KBDN,2021-12-12 13:35:00,39.0,30.0,49.0,26.15,10.0,SW,18.0,0.0,Fair,False,False,False,False,False,False,False,False,False,False,False,False,False,Day,Day,Day,Day
C-4794794,2,2021-02-20 06:27:00.000000000,2021-02-20 14:15:19.000000000,25.770764,-80.28988000000003,25.76988,-80.288087,0.127188827762,Stationary traffic on FL-959 - FL-968 from SW 58th Ave / NW 58th Ave to SW 1st St due to roadwork.,1.0,SW 58th Ave,L,Miami,Miami-Dade,FL,33144-3423,US,US/Eastern,KMIA,2021-02-20 06:53:00,62.0,62.0,72.0,30.15,10.0,NNE,8.0,0.0,Partly Cloudy,False,False,False,False,False,False,False,False,True,False,False,False,False,Night,Night,Day,Day
C-4794795,2,2021-11-03 08:56:30.000000000,2021-11-03 09:10:30.000000000,41.744916,-87.839332,41.740333,-87.828632,0.636049304128,Slow traffic on I-294 S - Tri State Tollway S from IL-171/Archer Ave (I-294) to 82nd/83rd St Toll Plaza (I-294) due to roadwork.,,I-294 S,R,Justice,Cook,IL,60458,US,US/Central,KMDW,2021-11-03 08:53:00,35.0,35.0,67.0,29.74,10.0,NNW,3.0,0.0,Fair,False,False,False,False,False,False,False,False,False,False,False,False,False,Day,Day,Day,Day
C-4794796,2,2021-09-09 08:31:00.000000000,2021-09-10 09:21:40.000000000,39.995052,-79.435614,39.994426,-79.43281800000003,0.154190573845,Construction on PA-653 EB near CAMP WILDWOOD RD Allow extra time.,100.0,Jim Mountain Rd,R,Normalville,Fayette,PA,15469,US,US/Eastern,KLBE,2021-09-09 08:50:00,63.0,63.0,100.0,28.65,4.0,SW,9.0,0.0,Cloudy,False,False,False,False,False,False,False,False,False,False,False,False,False,Day,Day,Day,Day
C-4794797,2,2019-05-16 14:58:37.000000000,2019-06-22 17:55:38.000000000,40.332205,-76.846582,40.335033,-76.837762,0.503962998066,At Colonial Rd - Roadwork. Open. Traffic problem.,3030.0,Linglestown Rd,L,Harrisburg,Dauphin,PA,17110-3628,US,US/Eastern,KCXY,2019-05-16 14:56:00,72.0,72.0,37.0,29.5,10.0,VAR,3.0,0.0,Partly Cloudy,False,False,False,False,False,False,False,False,False,False,False,False,False,Day,Day,Day,Day
C-4794798,2,2020-04-29 09:27:50.000000000,2020-05-01 15:30:00.000000000,40.1622,-74.23401,40.11524,-74.21883000000003,3.34223317949,Between I-195 and CR-526/County Line Rd - Roadwork. Right lane closed.,,US Highway 9,R,Howell,Monmouth,NJ,07731,US,US/Eastern,KBLM,2020-04-29 09:56:00,51.0,51.0,86.0,30.05,10.0,E,10.0,0.0,Cloudy,False,False,False,False,False,False,False,False,True,False,False,True,False,Day,Day,Day,Day
C-4794799,2,2021-08-10 18:28:00.000000000,2021-08-10 19:00:00.000000000,36.947171,-76.40475699999998,36.95971,-76.410791,0.9282139548,Stationary traffic on I-664 N from VA-135/College Dr/Exit 8 (I-664) to Terminal Ave/Exit 7 (I-664) due to roadwork.,,I-664 N,R,Newport News,Newport News,VA,23607,US,US/Eastern,KLFI,2021-08-10 18:56:00,88.0,88.0,61.0,30.07,10.0,SSW,12.0,0.0,Fair,False,False,False,False,False,False,False,False,False,False,False,False,False,Day,Day,Day,Day
C-4794800,2,2020-10-08 14:07:00.000000000,2020-10-09 00:12:30.000000000,35.82119799999999,-90.674771,35.82121400000001,-90.678404,0.203538957375,Stationary traffic from US-49/Stadium Blvd (E Highland Dr) to S Caraway Rd (E Highland Dr) due to construction work.,2485.0,E Highland Dr,L,Jonesboro,Craighead,AR,72401-6216,US,US/Central,KJBR,2020-10-08 13:53:00,78.0,78.0,43.0,29.79,6.0,SSW,3.0,0.0,Haze,False,False,False,False,False,False,False,False,False,False,False,False,False,Day,Day,Day,Day
C-4794801,2,2021-09-11 18:10:30.000000000,2021-09-11 20:23:31.000000000,28.078862,-80.603002,28.079726,-80.604054,0.0876154570193,Stationary traffic on US-192 E - US-1 N - US-192 W - US-1 S - FL-5 from E New Haven Ave to Depot Dr due to roadwork.,1201.0,E New Haven Ave,R,Melbourne,Brevard,FL,32901-7305,US,US/Eastern,KMLB,2021-09-11 17:53:00,84.0,84.0,72.0,30.07,10.0,ENE,9.0,0.0,Fair,False,False,True,False,False,False,False,False,False,False,False,True,False,Day,Day,Day,Day
C-4794802,2,2021-12-16 16:03:25.000000000,2021-12-16 18:13:41.000000000,30.237664,-85.652218,30.237588,-85.64765200000002,0.272608200113,Stationary traffic on FL-390 - County Hwy-390 from W Highway 390 to Pennsylvania Ave due to roadwork.,398.0,W 14th St,R,Lynn Haven,Bay,FL,32444-3706,US,US/Eastern,KECP,2021-12-16 15:53:00,74.0,74.0,76.0,30.07,10.0,S,5.0,0.0,Cloudy,False,False,False,False,False,False,False,False,False,False,False,False,False,Day,Day,Day,Day
C-4794803,2,2020-12-03 12:33:00.000000000,2020-12-04 03:28:42.000000000,26.681784000000004,-80.253135,26.681528000000004,-80.244635,0.525054191654,Stationary traffic on FL-80 - FL-700 - US-98 E - US-441 S from Big Blue Trl/F Rd (US-98) to Royal Palm Beach Blvd (US-98) due to roadwork.,13080.0,Southern Blvd,L,Loxahatchee,Palm Beach,FL,33470-9203,US,US/Eastern,KPBI,2020-12-03 12:53:00,73.0,73.0,53.0,30.17,10.0,E,16.0,0.0,Mostly Cloudy,False,False,False,False,False,False,False,False,False,False,False,False,False,Day,Day,Day,Day
C-4794804,2,2021-09-20 18:29:00.000000000,2021-09-20 20:31:40.000000000,33.53864,-112.102134,33.539336,-112.099495,0.159406791721,Slow traffic from N 21st Ave to W Myrtle Ave due to roadwork.,2003.0,W Glendale Ave,L,Phoenix,Maricopa,AZ,85021-7841,US,US/Mountain,KDVT,2021-09-20 18:53:00,93.0,93.0,,28.27,10.0,SW,5.0,0.0,Fair,True,False,False,False,False,False,False,False,True,False,False,False,False,Night,Day,Day,Day
C-4794805,2,2021-10-04 21:59:30.000000000,2021-10-05 00:28:32.000000000,40.68309,-73.979118,40.684125,-73.97777099999998,0.100473375891,Slow traffic from Dean St to Flatbush Ave due to roadwork.,43.0,4th Ave,L,Brooklyn,Kings,NY,11217-1929,US,US/Eastern,KJRB,2021-10-04 21:51:00,63.0,,90.0,29.97,10.0,,,0.0,Cloudy,True,False,True,False,False,False,False,False,True,False,False,True,False,Night,Night,Night,Night
C-4794806,2,2020-10-17 15:49:30.000000000,2020-10-18 02:06:17.000000000,37.307352,-76.75142199999998,37.306363,-76.75184899999998,0.0722505018988999,Queuing traffic from Westmoreland Dr to Williamsburg Plantation Dr due to roadwork.,5214.0,Olde Towne Rd,R,Williamsburg,James City,VA,23188-1924,US,US/Eastern,KJGG,2020-10-17 15:55:00,64.0,64.0,49.0,30.31,10.0,CALM,0.0,0.0,Fair,False,False,False,False,False,False,False,False,False,False,False,False,False,Day,Day,Day,Day
C-4794807,2,2021-01-25 12:29:00.000000000,2021-01-26 00:42:11.000000000,28.265478,-81.486199,28.255342,-81.484276,0.7100417525560001,Slow traffic on US-92 E - US-17 N from Kissimmee to Business Center Ln due to roadwork.,1498.0,S Poinciana Blvd,R,Kissimmee,Osceola,FL,34746,US,US/Eastern,KISM,2021-01-25 12:56:00,78.0,78.0,68.0,29.95,10.0,S,15.0,0.0,Mostly Cloudy,False,False,False,False,False,False,False,False,False,False,False,False,False,Day,Day,Day,Day
