ID,Severity,Start_Time,End_Time,Start_Lat,Start_Lng,End_Lat,End_Lng,Distance(mi),Description,Number,Street,Side,City,County,State,Zipcode,Country,Timezone,Airport_Code,Weather_Timestamp,Temperature(F),Wind_Chill(F),Humidity(%),Pressure(in),Visibility(mi),Wind_Direction,Wind_Speed(mph),Precipitation(in),Weather_Condition,Amenity,Bump,Crossing,Give_Way,Junction,No_Exit,Railway,Roundabout,Station,Stop,Traffic_Calming,Traffic_Signal,Turning_Loop,Sunrise_Sunset,Civil_Twilight,Nautical_Twilight,Astronomical_Twilight
C-4879279,2,2021-10-13 18:10:30.000000000,2021-10-13 20:17:45.000000000,33.480463,-112.152963,33.481806,-112.15166,0.119368984486,Stationary traffic from N 44th Ln to W Pinchot Ave due to roadwork.,4358.0,W Thomas Rd,R,Phoenix,Maricopa,AZ,85031-3844,US,US/Mountain,KGEU,2021-10-13 17:58:00,74.0,74.0,20.0,28.67,10.0,S,6.0,0.0,Fair,False,False,False,False,False,False,False,False,False,False,False,False,False,Night,Day,Day,Day
C-4879280,2,2020-08-28 12:26:30.000000000,2020-08-29 01:08:45.000000000,42.151811,-87.969146,42.153268,-87.961689,0.395014096231,Stationary traffic from N Arlington Heights Rd (W Lake Cook Rd) to Buffalo Grove Rd (Buffalo Grove) (West) (W Lake Cook Rd) due to roadwork.,481.0,W Lake Cook Rd,L,Buffalo Grove,Cook,IL,60089,US,US/Central,KPWK,2020-08-28 12:52:00,91.0,91.0,47.0,29.07,10.0,W,9.0,0.0,Fair,False,False,True,False,False,False,False,False,False,False,False,True,False,Day,Day,Day,Day
C-4879281,2,2020-11-09 04:01:00.000000000,2020-11-09 14:01:00.000000000,34.080845000000004,-118.225153,34.082935,-118.22351299999998,0.172222949656,Lane closure due to Pavement Work between Golden State Freeway Route 5 and Avenue 43,,Arroyo Seco Pkwy,R,Los Angeles,Los Angeles,CA,90031,US,US/Pacific,KCQT,2020-11-09 03:52:00,48.0,48.0,61.0,29.76,10.0,CALM,0.0,0.0,Fair,False,False,False,False,True,False,False,False,False,False,False,False,False,Night,Night,Night,Night
C-4879282,2,2021-05-13 05:04:30.000000000,2021-05-13 12:44:00.000000000,40.241889,-79.57757,40.238511,-79.57994000000002,0.264762246565,Slow traffic on US-119 S from Fairview St (US-119) to Burton Ave (US-119) due to roadwork.,115.0,N 4th St,R,Youngwood,Westmoreland,PA,15697-1307,US,US/Eastern,KLBE,2021-05-13 04:55:00,34.0,34.0,100.0,29.07,10.0,CALM,0.0,0.0,Fair,False,False,False,False,False,False,False,False,False,False,False,False,False,Night,Night,Day,Day
C-4879283,2,2021-10-20 17:41:41.000000000,2021-10-20 20:02:26.000000000,28.4528,-81.364199,28.451045,-81.363843,0.123172364956,Slow traffic on FL-527 from E Oak Ridge Rd (FL-527) to FL-482/Sand Lake Rd/McCoy Rd (FL-527) due to roadwork.,8062.0,S Orange Ave,L,Orlando,Orange,FL,32809-6712,US,US/Eastern,KMCO,2021-10-20 17:53:00,81.0,81.0,49.0,30.05,10.0,ENE,14.0,0.0,Mostly Cloudy,False,False,True,False,False,False,False,False,False,False,False,True,False,Day,Day,Day,Day
C-4879284,2,2021-01-13 09:14:30.000000000,2021-01-18 08:47:00.000000000,41.951261,-122.59028700000002,41.922531,-122.576477,2.10813913192,Slow traffic on I-5 S from Bailey Hill Rd/Exit 793 (I-5) to Ditch Creek Rd/Hornbrook Rd/Exit 790 (I-5) due to roadwork.,,I-5 S,R,Hornbrook,Siskiyou,CA,96044,US,US/Pacific,KSIY,2021-01-13 08:53:00,47.0,47.0,83.0,27.55,10.0,CALM,0.0,0.0,Mostly Cloudy,False,False,False,False,False,False,False,False,False,False,False,False,False,Day,Day,Day,Day
C-4879285,2,2021-10-27 13:16:30.000000000,2021-10-27 13:36:30.000000000,35.291953,-77.134683,35.287227,-77.128561,0.475217360433,Stationary traffic on US-17 Bus S - US-17 Bus N - NC-43 from US-17 Bus/Main St (Main St/NC-43) to US-17 (North) (NC-43) due to roadwork.,7582.0,Main St,R,Vanceboro,Craven,NC,28586-8136,US,US/Eastern,KEWN,2021-10-27 12:54:00,64.0,64.0,52.0,29.79,10.0,NW,13.0,0.0,Fair,False,False,False,False,False,False,False,False,False,False,False,False,False,Day,Day,Day,Day
C-4879286,2,2021-09-10 13:41:01.000000000,2021-09-10 14:01:01.000000000,29.745403000000003,-95.587693,29.747484000000004,-95.586474,0.161310749165,Stationary traffic from FM-1093/Westheimer Rd (Kirkwood Dr) to Briar Forest Dr (Kirkwood Dr) due to roadwork.,1985.0,S Kirkwood Rd,L,Houston,Harris,TX,77077-6209,US,US/Central,KSGR,2021-09-10 13:53:00,90.0,90.0,38.0,29.95,10.0,NE,12.0,0.0,Mostly Cloudy,False,False,False,False,False,False,False,False,False,False,False,True,False,Day,Day,Day,Day
C-4879287,2,2021-02-03 18:00:07.000000000,2021-02-05 04:02:10.000000000,31.355314,-102.34878,31.380669,-102.348407,1.7520018495900005,Roadwork on S Cowden Rd (US-385) from TX-329/6th St (S Main St/S Gaston St/US-385) to US-385 N - US-385 S.,399.0,Stoneridge Rd,R,Crane,Crane,TX,79731-4822,US,US/Central,KODO,2021-02-03 17:53:00,78.0,78.0,12.0,26.72,10.0,WSW,14.0,0.0,Fair,False,False,False,False,False,False,False,False,False,False,False,False,False,Day,Day,Day,Day
C-4879288,2,2020-08-06 12:30:28.000000000,2020-08-06 23:30:00.000000000,43.272024,-123.200951,43.216404,-123.240311,4.3235223677,Road maintenance operations are occurring causing no to minimum delays. Use caution.,12098.0,N Umpqua Hwy,R,Roseburg,Douglas,OR,97470-9435,US,US/Pacific,KRBG,2020-08-06 12:30:00,66.0,66.0,68.0,29.49,10.0,NNE,12.0,0.0,Cloudy,False,False,False,False,False,False,False,False,False,False,False,False,False,Day,Day,Day,Day
C-4879289,2,2020-08-28 12:58:00.000000000,2020-08-28 21:19:12.000000000,39.709133,-86.381831,39.709702,-86.37946600000002,0.131711531222,Stationary traffic on IN-267 from Simmons St (US-40/E Main St/IN-267) to US-40/E Main St (Plainfield) (South) (Quaker Blvd/IN-267) due to roadwork.,1495.0,E Main St,R,Plainfield,Hendricks,IN,46168-1766,US,US/Eastern,KIND,2020-08-28 12:54:00,85.0,85.0,67.0,28.99,10.0,S,15.0,0.0,Mostly Cloudy,False,False,False,False,False,False,False,False,False,False,False,False,False,Day,Day,Day,Day
C-4879290,2,2021-12-03 07:21:30.000000000,2021-12-03 10:25:42.000000000,41.946743,-87.689821,41.947504,-87.688181,0.0993350781796,Slow traffic from N Campbell Ave to W Waveland Ave due to roadwork.,2454.0,W Addison St,R,Chicago,Cook,IL,60618-5923,US,US/Central,KORD,2021-12-03 07:51:00,44.0,39.0,79.0,29.31,10.0,ENE,10.0,0.0,Mostly Cloudy,False,False,False,False,False,False,False,False,True,False,False,False,False,Day,Day,Day,Day
C-4879291,2,2021-06-01 13:01:56.000000000,2021-06-01 15:04:27.000000000,40.70058,-73.80771700000003,40.701769,-73.80690600000001,0.0924857280147,Slow traffic from Archer Ave to 148th St / 147th Pl due to roadwork.,14700.0,Archer Ave,R,Jamaica,Queens,NY,11435-4315,US,US/Eastern,KJFK,2021-06-01 12:51:00,73.0,73.0,51.0,30.24,10.0,SSW,10.0,0.0,Mostly Cloudy,True,False,True,False,False,False,True,False,True,False,False,True,False,Day,Day,Day,Day
C-4879292,2,2020-11-12 13:41:30.000000000,2020-11-13 02:18:42.000000000,26.257189,-80.186278,26.260823,-80.18628100000002,0.251085555453,Slow traffic from Coconut Creek Pkwy (46th Ave/Lyons Rd) to FL-834/W Sample Rd/NW 36th St (Lyons Rd) due to roadwork.,2222.0,Lyons Rd,L,Pompano Beach,Broward,FL,33066,US,US/Eastern,KFXE,2020-11-12 13:53:00,82.0,82.0,82.0,29.88,10.0,S,8.0,0.0,Partly Cloudy,False,False,False,False,False,False,False,False,False,False,False,False,False,Day,Day,Day,Day
C-4879293,3,2019-09-09 21:00:00.000000000,2019-09-10 05:00:00.000000000,32.924747,-96.786232,,,0.0,3 right lane closed due to construction during the night on Lyndon B Johnson Fwy Westbound at Hillcrest Rd.,,LBJ Express,R,Dallas,Dallas,TX,75240,US,US/Central,KADS,2019-09-09 20:47:00,88.0,88.0,46.0,29.26,13.0,SE,16.0,0.0,Fair,False,False,False,False,False,False,False,False,False,False,False,False,False,Night,Night,Night,Day
C-4879294,2,2018-10-26 06:01:35.000000000,2018-10-30 06:01:28.000000000,41.662899,-70.30211700000001,41.664192,-70.293401,0.458678312182,At Walton Ave - Construction work.,397.0,Falmouth Rd,R,Hyannis,Barnstable,MA,02601-2552,US,US/Eastern,KHYA,2018-10-26 05:56:00,33.1,25.5,64.0,30.05,10.0,West,9.2,,Clear,False,False,False,False,False,False,False,False,False,False,False,False,False,Night,Night,Night,Day
C-4879295,2,2021-06-15 12:07:00.000000000,2021-06-15 12:29:30.000000000,40.493587,-79.901503,40.496192,-79.91257399999998,0.608913363153,Slow traffic on PA-28 S from Delafield Rd/Exit 7 (PA-28) to PA-8/Exit 5B &amp; 5 (PA-28) due to roadwork.,,PA-28 S,R,Pittsburgh,Allegheny,PA,15215,US,US/Eastern,KAGC,2021-06-15 12:00:00,69.0,69.0,57.0,28.6,10.0,NNW,9.0,0.0,Mostly Cloudy,False,False,False,False,False,False,False,False,False,False,False,False,False,Day,Day,Day,Day
C-4879296,2,2020-11-05 14:30:30.000000000,2020-11-06 02:19:15.000000000,39.712767,-86.370164,39.709389,-86.373929,0.307443034188,Slow traffic on US-40 W - IN-267 from Shady Ln to Metropolis Pkwy due to roadwork.,2322.0,E Main St,R,Plainfield,Hendricks,IN,46168-2733,US,US/Eastern,KIND,2020-11-05 14:54:00,69.0,69.0,39.0,29.35,10.0,S,15.0,0.0,Mostly Cloudy,False,False,False,False,False,False,False,False,False,False,False,False,False,Day,Day,Day,Day
C-4879297,2,2021-07-26 14:01:16.000000000,2021-07-26 19:24:57.000000000,40.721737,-74.005241,40.723532,-74.00759599999998,0.174896920154,Stationary traffic from 6th Ave/Avenue of the Americas (Canal St) to Watts St (Canal St) due to roadwork.,52.0,Avenue of the Americas,L,New York,New York,NY,10013,US,US/Eastern,KJRB,2021-07-26 13:51:00,85.0,85.0,51.0,29.8,7.0,CALM,0.0,0.0,Partly Cloudy,False,False,True,False,False,False,True,False,True,False,False,True,False,Day,Day,Day,Day
C-4879298,4,2020-05-12 19:03:11.000000000,2020-05-18 19:00:45.000000000,40.6257,-74.25761,40.61138,-74.27315,1.28187077044,Closed at Grand Ave - Closed due to roadwork.,809.0,W Elizabeth Ave,L,Linden,Union,NJ,07036-6301,US,US/Eastern,KLDJ,2020-05-12 18:55:00,58.0,58.0,21.0,30.01,10.0,NW,9.0,0.0,Cloudy,False,False,False,False,False,False,False,False,False,False,False,True,False,Day,Day,Day,Day
C-4879299,2,2019-06-19 23:31:38.000000000,2019-06-22 23:30:00.000000000,40.84786,-73.93481899999998,40.849922,-73.943178,0.459525340352,Between Amsterdam Ave/Harlem River Dr and RT-9A/Henry Hudson Pky - Roadwork. Lane blocked.,1365.0,Saint Nicholas Ave,L,New York,New York,NY,10033-6200,US,US/Eastern,KNYC,2019-06-19 23:27:00,67.0,67.0,97.0,29.61,1.0,VAR,3.0,0.0,Fog,True,False,True,False,False,False,False,False,False,False,False,True,False,Night,Night,Night,Night
C-4879300,3,2018-11-05 22:00:00.000000000,2018-11-06 04:30:00.000000000,47.466965,-122.216209,,,0.52999997139,Entry ramp to I-405 Northbound from WA-167 Northbound closed due to construction during the night.,212.0,S 14th St,L,Renton,King,WA,98055-3300,US,US/Pacific,KRNT,2018-11-05 21:53:00,51.1,,77.0,30.12,10.0,SSE,8.1,,Mostly Cloudy,False,False,False,False,False,False,False,False,False,False,False,False,False,Night,Night,Night,Night
C-4879301,1,2020-05-12 10:30:24.000000000,2020-05-13 10:30:24.000000000,38.55579,-77.80105,38.52674,-77.82205,2.30579002983,At US-15/US-29 - Construction work.,11505.0,James Madison St,R,Remington,Fauquier,VA,22734-2151,US,US/Eastern,KCJR,2020-05-12 10:35:00,53.0,53.0,37.0,29.85,10.0,CALM,0.0,0.0,Cloudy,False,False,False,False,False,False,False,False,False,False,False,False,False,Day,Day,Day,Day
C-4879302,2,2021-02-17 22:30:30.000000000,2021-02-18 02:39:00.000000000,40.230999,-80.211115,40.36242,-80.118726,10.3032333661,Slow traffic on I-79 N from Racetrack Rd/Exit 41 (I-79) to PA-50/Exit 54 (I-79) due to roadwork.,,I-79 N,R,Washington,Washington,PA,15301,US,US/Eastern,KAFJ,2021-02-17 22:21:00,22.0,22.0,82.0,29.01,1.0,NNE,3.0,0.0,Light Snow,False,False,False,False,False,False,False,False,False,False,False,False,False,Night,Night,Night,Night
C-4879303,2,2019-04-09 05:22:12.000000000,2019-05-22 23:01:16.000000000,39.35208,-84.37543000000002,39.44487,-84.33276,6.80393722353,Between Cin-Day Rd/Exit 21 and OH-63/Exit 29 - Roadwork. Left lane blocked.,,I-75 N,R,West Chester,Butler,OH,45069,US,US/Eastern,KHAO,2019-04-09 05:18:00,49.0,49.0,90.0,29.12,0.25,CALM,0.0,0.0,Fog,False,False,False,False,True,False,False,False,False,False,False,False,False,Night,Night,Night,Night
C-4879304,2,2019-04-19 09:02:40.000000000,2019-04-23 09:02:33.000000000,32.93124,-96.681504,32.931259999999995,-96.68452,0.174908515336,Between Shiloh Rd and Buckingham Rd - Construction work. Right lane closed.,3411.0,W Buckingham Rd,L,Garland,Dallas,TX,75042-4365,US,US/Central,KADS,2019-04-19 08:47:00,55.0,55.0,58.0,29.36,13.0,NNW,23.0,0.0,Fair / Windy,False,False,False,False,False,False,False,False,False,False,False,False,False,Day,Day,Day,Day
C-4879305,2,2021-07-12 12:01:00.000000000,2021-07-12 12:42:30.000000000,42.349701,-87.869362,42.349307,-87.87410899999998,0.2439220302099999,Slow traffic from S Lewis Ave (Belvidere St/IL-120) to IL-131/S Green Bay Rd (Belvidere Rd/IL-120) due to roadwork.,2706.0,Belvidere Rd,R,Waukegan,Lake,IL,60085-6008,US,US/Central,KUGN,2021-07-12 11:55:00,66.0,66.0,93.0,29.28,3.0,ENE,10.0,0.0,Cloudy,False,False,False,False,False,False,False,False,False,False,False,True,False,Day,Day,Day,Day
C-4879306,2,2020-03-31 21:11:05.000000000,2020-04-01 05:00:00.000000000,37.86407,-122.2089,37.89265,-122.15992,3.32185322027,Between Caldecott Tunnel and Acalanes Rd/Mt Diablo Blvd - Roadwork. Two lanes closed.,,Grove Shafter Fwy E,R,Orinda,Contra Costa,CA,94563,US,US/Pacific,KCCR,2020-03-31 20:53:00,57.0,57.0,74.0,30.01,10.0,W,7.0,0.0,Fair,False,False,False,False,False,False,False,False,False,False,False,False,False,Night,Night,Night,Night
C-4879307,2,2021-10-27 18:57:00.000000000,2021-10-27 20:59:07.000000000,41.960808,-87.74506600000002,41.959836,-87.74755400000002,0.144397677324,Slow traffic on IL-50 from I-94 E to W Pensacola Ave due to roadwork.,,N Knox Ave,R,Chicago,Cook,IL,60641,US,US/Central,KORD,2021-10-27 18:51:00,51.0,51.0,68.0,29.15,10.0,ENE,9.0,0.0,Mostly Cloudy,False,False,True,False,False,False,False,False,True,False,False,True,False,Night,Night,Night,Day
C-4879308,4,2021-10-27 22:00:00.000000000,2021-10-28 05:45:00.000000000,47.64117,-122.134908,47.640818,-122.134989,0.0246114703095,Construction on WA-520 WB near MM 10 Take alternate route.,,WA-520 W,R,Redmond,King,WA,98052,US,US/Pacific,KBFI,2021-10-27 21:53:00,49.0,47.0,100.0,30.23,10.0,ESE,6.0,0.0,Light Rain,False,False,False,False,False,False,False,False,False,False,False,False,False,Night,Night,Night,Night
C-4879309,2,2021-12-09 18:01:33.000000000,2021-12-09 20:04:06.000000000,28.469355,-81.36779399999998,28.47285,-81.368691,0.247551033684,Stationary traffic on FL-527 from S Orange Ave / Prince St to S Orange Ave due to roadwork.,6298.0,Hansel Ave,R,Orlando,Orange,FL,32809,US,US/Eastern,KMCO,2021-12-09 17:53:00,75.0,75.0,71.0,30.01,10.0,NNW,3.0,0.0,Mostly Cloudy,False,False,True,False,False,False,False,False,False,False,False,False,False,Night,Night,Day,Day
C-4879310,2,2021-01-19 13:39:00.000000000,2021-01-20 03:54:36.000000000,29.709265,-82.350523,29.710949,-82.35390600000002,0.233994971569,Stationary traffic on FL-25 - US-441 N - FL-20 - FL-121 from US-441 to NW 23rd St due to roadwork.,5987.0,NW 13th St,L,Gainesville,Alachua,FL,32653-2128,US,US/Eastern,KGNV,2021-01-19 13:53:00,64.0,64.0,24.0,30.17,10.0,VAR,5.0,0.0,Fair,False,False,False,False,False,False,False,False,False,False,False,False,False,Day,Day,Day,Day
C-4879311,2,2021-09-09 07:40:34.000000000,2021-09-09 15:15:00.000000000,42.989169,-74.720603,42.987549,-74.667603,2.68102646109,Construction on I-90 EB near I-90 Construction. Right lane closed.,,I-90 E,R,Fort Plain,Montgomery,NY,13339,US,US/Eastern,KSCH,2021-09-09 07:48:00,63.0,63.0,100.0,29.41,10.0,CALM,0.0,0.0,Mostly Cloudy,False,False,False,False,False,False,False,False,False,False,False,False,False,Day,Day,Day,Day
C-4879312,2,2020-04-30 03:54:59.000000000,2020-06-30 23:59:00.000000000,40.444431,-79.887062,,,0.10000000149,Road closed due to construction work on PA-8 Penn Ave Eastbound between Pennwood Ave and Pitt St.,501.0,Penn Ave,L,Wilkinsburg,Allegheny,PA,15221-2121,US,US/Eastern,KAGC,2020-04-30 03:53:00,51.0,51.0,96.0,28.37,6.0,SSE,10.0,0.06,Light Rain,True,False,True,False,False,False,False,False,False,True,False,False,False,Night,Night,Night,Night
C-4879313,3,2021-07-27 23:07:12.000000000,2021-07-28 05:00:00.000000000,33.034382,-117.280617,,,0.5,Entry ramp to I-5 Southbound from Santa Fe Dr Westbound closed due to construction work.,,I-5 S,R,Cardiff By the Sea,San Diego,CA,92007,US,US/Pacific,KCRQ,2021-07-27 22:53:00,66.0,66.0,84.0,29.64,10.0,NNW,3.0,0.0,Fair,False,False,False,False,False,False,False,False,False,False,False,False,False,Night,Night,Night,Night
C-4879314,2,2020-04-09 07:01:00.000000000,2020-04-10 16:01:00.000000000,40.88196,-121.66671,40.88205,-121.66473,0.10361939646,At Basin Park Square Rd (Burney) - Maintenance work.,37089.0,State Highway 299 E,R,Burney,Shasta,CA,96013-4215,US,US/Pacific,KRDD,2020-04-09 07:04:00,46.0,46.0,96.0,29.46,7.0,S,3.0,0.0,Mostly Cloudy,False,False,False,False,False,False,False,False,False,False,False,False,False,Day,Day,Day,Day
C-4879315,4,2018-10-05 18:39:43.000000000,2018-10-05 23:39:08.000000000,39.06884,-94.6504,39.087167,-94.64928,1.26769924266,Closed between Steele Rd and KS-32/Kansas Ave - Closed due to roadwork.,,18th Street Expy N,R,Kansas City,Wyandotte,KS,66103,US,US/Central,KNKA,2018-10-05 14:16:00,,,,,,North,,,,False,False,False,False,True,False,False,False,False,False,False,False,False,Day,Day,Day,Day
C-4879316,2,2017-01-25 05:24:42.000000000,2017-06-30 23:59:00.000000000,36.15361,-86.84664000000002,36.16763,-86.81569,1.97969165453,Between TN-155/Robertson Ave/Exit 204 and Jefferson St/Exit 207 - Construction work.,,I-40 W,R,Nashville,Davidson,TN,37209,US,US/Central,KBNA,2017-01-25 05:53:00,46.0,43.1,71.0,29.78,10.0,SE,5.8,,Partly Cloudy,False,False,False,False,False,False,False,False,False,False,False,False,False,Night,Night,Night,Day
C-4879317,2,2021-10-28 07:33:30.000000000,2021-10-28 07:57:30.000000000,36.398174,-84.08613100000002,36.392242,-84.09496999999998,0.640039140952,Stationary traffic on TN-63 from Well Springs Rd/Brown Dr (TN-63) to TN-9/Indiana Ave (TN-63) due to roadwork.,2383.0,General Carl W Stiner Hwy,L,La Follette,Campbell,TN,37766,US,US/Eastern,KOQT,2021-10-28 07:53:00,49.0,49.0,90.0,28.69,10.0,CALM,0.0,0.0,Fair,False,False,False,False,False,False,False,False,False,False,False,False,False,Night,Day,Day,Day
C-4879318,2,2021-12-02 10:45:00.000000000,2021-12-02 11:13:00.000000000,40.441085,-75.906126,40.452354,-75.890672,1.12540234244,Stationary traffic on US-222 N - US-222 S from US-222 Bus (Reading) (North)/Allentown Pike (US-222) to PA-662/Moselem Springs Rd (Kutztown Rd/US-222) due to roadwork.,8136.0,Allentown Pike,R,Blandon,Berks,PA,19510,US,US/Eastern,KRDG,2021-12-02 10:54:00,47.0,47.0,93.0,29.39,10.0,CALM,0.0,0.0,Mostly Cloudy,False,False,False,False,False,False,False,False,False,False,False,False,False,Day,Day,Day,Day
C-4879319,2,2021-10-13 08:30:30.000000000,2021-10-13 10:46:17.000000000,33.538421,-112.086502,33.53835,-112.081752,0.273598673369,Stationary traffic from N 19th Ave (W Glendale Ave) to N Central Ave (Glendale Ave) due to roadwork.,1012.0,W Glendale Ave,R,Phoenix,Maricopa,AZ,85021,US,US/Mountain,KDVT,2021-10-13 08:53:00,55.0,55.0,42.0,28.32,10.0,E,3.0,0.0,Fair,True,False,False,False,False,False,False,False,True,True,False,False,False,Day,Day,Day,Day
C-4879320,2,2017-09-20 02:01:00.000000000,2017-09-20 06:00:00.000000000,41.339195,-72.97689799999998,,,6.23999977112,Left lane closed due to construction work on CT-15 Northbound from Exits 57 58 CT-34 Derby Ave to Exit 59 CT-69 Whalley Ave.,1667.0,Whalley Ave,R,New Haven,New Haven,CT,06515-1154,US,US/Eastern,KHVN,2017-09-20 01:53:00,70.0,,81.0,29.85,10.0,North,18.4,,Partly Cloudy,False,False,False,False,True,False,False,False,False,False,False,False,False,Night,Night,Night,Night
C-4879321,2,2021-01-24 15:21:00.000000000,2021-01-25 02:06:27.000000000,29.648438,-82.37228499999998,29.65046,-82.373077,0.147579464858,Slow traffic on FL-121 from Radio Rd to SW 35th Ter due to roadwork.,411.0,SW 34th St,R,Gainesville,Alachua,FL,32607-2857,US,US/Eastern,KGNV,2021-01-24 15:46:00,69.0,69.0,75.0,29.94,10.0,ENE,5.0,0.0,Cloudy,False,False,True,False,False,False,False,False,False,False,False,False,False,Day,Day,Day,Day
C-4879323,2,2021-05-19 13:44:38.000000000,2021-12-21 18:29:52.000000000,26.190825,-80.15534,26.187597,-80.155325,0.223035497267,Slow traffic on FL-845 from Cypress Creek Rd/62nd St (FL-845) to Prospect Rd/44th St (FL-845) due to roadwork.,5161.0,Powerline Rd,L,Fort Lauderdale,Broward,FL,33309-7400,US,US/Eastern,KFXE,2021-08-31 14:53:00,91.0,91.0,57.0,29.89,10.0,ESE,9.0,0.0,Mostly Cloudy,False,False,False,False,False,False,False,False,False,False,False,False,False,Day,Day,Day,Day
C-4879324,1,2019-07-01 09:00:00.000000000,2020-06-30 17:00:00.000000000,34.064861,-118.239967,,,0.0,Restrictions due to resurfacing work on Yale St both ways from Alpine St to College St.,897.0,Yale St,L,Los Angeles,Los Angeles,CA,90012-2327,US,US/Pacific,KCQT,2019-07-01 08:52:00,74.0,74.0,64.0,29.77,10.0,CALM,0.0,0.0,Fair,False,False,False,False,False,False,False,False,False,False,False,False,False,Day,Day,Day,Day
C-4879325,2,2019-10-10 18:44:09.000000000,2019-10-14 18:44:00.000000000,34.06151,-118.43368999999998,34.05618,-118.45145,1.08125345784,Between S Beverly Glen Blvd and I-405/San Diego Fwy - Roadwork.,10598.0,Wilshire Blvd,L,Los Angeles,Los Angeles,CA,90024-7616,US,US/Pacific,KSMO,2019-10-10 18:51:00,67.0,67.0,81.0,29.67,10.0,CALM,0.0,0.0,Fair,False,False,True,False,False,False,False,False,True,False,False,True,False,Night,Day,Day,Day
C-4879326,2,2020-09-26 10:40:00.000000000,2020-09-26 21:49:00.000000000,28.444549,-81.381637,28.445778000000004,-81.375337,0.392044372764,Slow traffic on FL-528 E - Martin Anderson Beachline Expy - Beachline Expy from US-17 exit [4] to Jetport Dr exit [8] due to roadwork.,,Beachline Expy,R,Orlando,Orange,FL,32824,US,US/Eastern,KMCO,2020-09-26 10:53:00,86.0,86.0,67.0,29.91,10.0,NNE,5.0,0.0,Fair,False,False,False,False,False,False,False,False,False,False,False,False,False,Day,Day,Day,Day
C-4879327,2,2020-06-27 08:06:51.000000000,2020-06-29 08:06:51.000000000,36.27857,-95.90197,36.27857,-95.90197,0.0,At US-75 - Major roadwork.,6500.0,E 86th St N,R,Owasso,Tulsa,OK,74055-7487,US,US/Central,KTUL,2020-06-27 07:53:00,77.0,77.0,79.0,29.21,6.0,SSW,6.0,0.0,Haze,False,False,False,False,False,False,False,False,False,False,False,False,False,Day,Day,Day,Day
C-4879328,2,2020-07-08 03:55:00.000000000,2020-07-08 09:45:00.000000000,40.802139,-74.186006,40.852679,-74.174796,3.5408222795599995,Construction on GARDEN STATE PKWY NB near ESSEX TOLL PLAZA Construction. Left lane closed.,,Garden State Pkwy N,R,Bloomfield,Essex,NJ,07003,US,US/Eastern,KTEB,2020-07-08 03:51:00,75.0,75.0,90.0,30.0,10.0,S,5.0,0.0,Mostly Cloudy,False,False,False,False,True,False,False,False,False,False,False,False,False,Night,Night,Night,Day
C-4879329,2,2021-10-21 13:46:00.000000000,2021-10-21 15:47:57.000000000,33.50786,-112.047535,33.509229,-112.046551,0.110275347754,Slow traffic from E Pierson St to Piestewa Fwy S due to roadwork.,4821.0,N 16th St,R,Phoenix,Maricopa,AZ,85016-4605,US,US/Mountain,KPHX,2021-10-21 13:51:00,85.0,85.0,19.0,28.86,10.0,W,3.0,0.0,Fair,True,False,False,False,False,False,False,False,True,False,False,False,False,Day,Day,Day,Day
C-4879330,2,2021-01-05 16:37:00.000000000,2021-01-06 02:45:00.000000000,37.627881,-76.57066,37.633619,-76.572998,0.416588593922,Construction on VA-227 NB near GENERAL PULLER HWY Drive with caution.,2092.0,Urbanna Rd,R,Saluda,Middlesex,VA,23149-2683,US,US/Eastern,KFYJ,2021-01-05 16:35:00,43.0,40.0,73.0,29.91,10.0,NNW,6.0,0.0,Cloudy,False,False,False,False,False,False,False,False,False,False,False,False,False,Day,Day,Day,Day
C-4879331,2,2016-03-22 08:01:21.000000000,2016-03-22 14:01:21.000000000,38.32283,-85.71285,38.34191,-85.70634,1.3647024406,At IN-265/IN-62/Port Rd - Construction work.,3008.0,E 10th St,R,Jeffersonville,Clark,IN,47130-5902,US,US/Eastern,KLOU,2016-03-22 07:53:00,42.1,37.7,58.0,30.12,10.0,South,6.9,,Clear,False,False,True,False,True,False,True,False,False,False,False,False,False,Day,Day,Day,Day
C-4879332,2,2020-09-25 22:00:00.000000000,2020-09-28 07:45:00.000000000,35.191378,-89.96859599999998,35.191057,-90.016079,2.68124017393,Construction on I-40 WB near EXIT 5 Drive with caution.,,I-40 W,R,Memphis,Shelby,TN,38108,US,US/Central,KMEM,2020-09-25 21:54:00,68.0,68.0,78.0,29.65,10.0,SSW,5.0,0.0,Cloudy,False,False,False,False,True,False,False,False,False,False,False,False,False,Night,Night,Night,Night
C-4879333,3,2018-06-17 17:01:43.000000000,2018-06-17 23:01:43.000000000,42.16516,-87.87399,42.265256,-87.906248,7.110244795519999,Between Deerfield Rd and Bradley Rd - Roadwork.,,I-94 W,R,Deerfield,Lake,IL,60015,US,US/Central,KPWK,2018-06-17 16:52:00,91.9,,52.0,29.95,10.0,SSW,15.0,,Clear,False,False,False,False,False,False,False,False,False,False,False,False,False,Day,Day,Day,Day
C-4879334,2,2021-06-30 07:55:30.000000000,2021-06-30 08:16:30.000000000,40.018566,-75.166312,40.019492,-75.14711899999998,1.01758940472,Slow traffic on US-1 N - Roosevelt Expy N from Wissahickon Ave (Roosevelt Expy/US-1) to US-13/Roosevelt Blvd (Roosevelt Expy/US-1) due to roadwork.,,Roosevelt Expy N,R,Philadelphia,Philadelphia,PA,19144,US,US/Eastern,KPNE,2021-06-30 07:54:00,82.0,82.0,71.0,29.96,10.0,WSW,6.0,0.0,Fair,False,False,False,False,False,False,False,False,False,False,False,False,False,Day,Day,Day,Day
C-4879335,2,2021-10-28 18:00:00.000000000,2021-10-30 07:17:33.000000000,38.223423,-122.262582,38.223018,-122.260177,0.133509384937,Roadwork from Gateway Rd W / Gateway Rd E to Jameson Canyon Rd / Napa Vallejo Hwy.,479.0,Devlin Rd,R,Napa,Napa,CA,94558-6274,US,US/Pacific,KAPC,2021-10-28 17:54:00,69.0,69.0,73.0,30.01,10.0,SSW,5.0,0.0,Fair,False,False,False,False,False,False,False,False,False,False,False,False,False,Day,Day,Day,Day
C-4879336,2,2017-06-16 20:01:55.000000000,2017-06-17 02:01:55.000000000,38.77064,-90.24265,38.76647,-90.18033,3.3695736288,Between MO-367/Exit 31 and Riverview Dr/Exit 34 - Maintenance work.,,I-270 E,R,Saint Louis,St. Louis County,MO,63136,US,US/Central,KSTL,2017-06-16 19:51:00,84.9,,48.0,29.71,10.0,South,11.5,,Mostly Cloudy,False,False,False,False,True,False,False,False,False,False,False,False,False,Day,Day,Day,Day
C-4879337,2,2020-11-01 15:00:00.000000000,2020-11-02 01:45:00.000000000,39.580789,-75.66510500000003,39.580509,-75.66383499999998,0.0703430300072,Construction on DE-72 EB near MCCOY RD Drive with caution.,1800.0,McCoy Rd,L,Bear,New Castle,DE,19701-1901,US,US/Eastern,KILG,2020-11-01 14:51:00,54.0,54.0,93.0,29.7,10.0,SSE,14.0,0.1,Cloudy,False,False,True,False,False,False,False,False,False,False,False,False,False,Day,Day,Day,Day
C-4879338,2,2021-11-15 12:40:00.000000000,2021-11-15 14:53:31.000000000,26.27215,-80.09781,26.275542,-80.09812099999998,0.2351555994269999,Stationary traffic on US-1 N - FL-834 - FL-5 from NE 33rd St to NE 18th Ter due to roadwork.,3302.0,N Federal Hwy,L,Pompano Beach,Broward,FL,33064-6742,US,US/Eastern,KPMP,2021-11-15 12:53:00,77.0,77.0,56.0,30.1,10.0,NNE,16.0,0.0,Fair,False,False,False,False,False,False,False,False,False,False,False,True,False,Day,Day,Day,Day
C-4879339,2,2021-02-18 03:36:00.000000000,2021-02-19 12:51:44.000000000,25.790011,-80.14114599999998,25.792028,-80.141903,0.147103410391,Slow traffic on FL-907 from 16th St to Dade Blvd / Bay Rd due to roadwork.,1629.0,Alton Rd,R,Miami Beach,Miami-Dade,FL,33139-2420,US,US/Eastern,KMIA,2021-02-18 03:53:00,75.0,75.0,82.0,30.04,10.0,SE,15.0,0.0,Fair,True,False,True,False,False,False,False,False,True,True,False,True,False,Night,Night,Night,Night
C-4879340,4,2021-12-22 21:00:00.000000000,2021-12-23 05:00:00.000000000,40.002524,-75.086465,40.00092,-75.08604,0.113085597967,Closed road from Adams Ave to Aramingo Ave due to roadwork.,4001.0,Ashland St,R,Philadelphia,Philadelphia,PA,19124-5001,US,US/Eastern,KPNE,2021-12-22 20:54:00,33.0,24.0,42.0,29.82,10.0,NW,13.0,0.0,Fair,False,False,False,False,False,False,False,False,False,False,False,False,False,Night,Night,Night,Night
C-4879341,2,2020-04-30 10:40:55.000000000,2020-05-04 10:39:56.000000000,41.83256,-71.41689000000002,41.83522,-71.41556,0.196127958803,At I-95 - Construction work.,,I-95 N,R,Providence,Providence,RI,02908,US,US/Eastern,KSFZ,2020-04-30 10:56:00,44.0,40.0,96.0,29.79,10.0,SE,8.0,0.04,Light Rain,False,False,False,False,False,False,False,False,False,False,False,False,False,Day,Day,Day,Day
C-4879342,2,2020-12-07 13:25:00.000000000,2020-12-08 04:30:15.000000000,40.841884,-73.99923199999998,40.842269,-74.00191600000002,0.142792871588,Slow traffic on US-1 N - US-1 S - US-9 N - US-9 S from US Highway 46 to Maple Ave due to roadwork.,,US-1 S,R,Palisades Park,Bergen,NJ,07650,US,US/Eastern,KTEB,2020-12-07 13:51:00,39.0,33.0,49.0,29.69,10.0,N,8.0,0.0,Fair,False,False,False,False,False,False,False,False,False,False,False,True,False,Day,Day,Day,Day
C-4879343,2,2020-10-16 03:00:00.000000000,2020-10-16 13:00:00.000000000,32.499071,-84.945784,32.485691,-84.94094399999999,0.966542771187,Lane closed on I-185 from US-27 Alt/GA-85/Exit 7 (I-185) to GA-22 Spur/Macon Rd/Exit 6 (I-185) due to roadwork.,,GA-411 S,R,Columbus,Muscogee,GA,31906,US,US/Eastern,KCSG,2020-10-16 02:51:00,64.0,64.0,90.0,29.59,10.0,CALM,0.0,0.0,Fair,False,False,False,False,True,False,False,False,False,False,False,False,False,Night,Night,Night,Night
C-4879344,2,2021-05-07 07:58:30.000000000,2021-12-31 19:29:56.000000000,36.58501500000001,-79.42529,36.589849,-79.41915999999998,0.476666261063,Stationary traffic on US-58 Bus E from Park Ave/Piedmont Dr (US-58 Bus/Riverside Dr) to US-29 Bus/VA-86 (US-58 Bus/Riverside Dr) due to roadwork.,3249.0,Riverside Dr,R,Danville,Danville,VA,24541-3428,US,US/Eastern,KDAN,2021-09-21 11:53:00,68.0,68.0,87.0,29.6,10.0,NE,9.0,0.0,Cloudy,False,False,False,False,False,False,False,False,False,False,False,False,False,Day,Day,Day,Day
C-4879345,2,2020-04-20 06:31:36.000000000,2020-04-21 06:31:36.000000000,39.70701,-75.47013000000003,39.70701,-75.47013000000003,0.0,At US-130/Shell Rd - Long-term roadwork.,326.0,Shell Rd,L,Penns Grove,Salem,NJ,08069-2620,US,US/Eastern,KILG,2020-04-20 06:51:00,53.0,53.0,59.0,29.58,10.0,NE,12.0,0.0,Cloudy,False,False,False,False,False,False,False,False,False,False,False,False,False,Day,Day,Day,Day
C-4879346,2,2021-06-03 19:57:00.000000000,2021-12-21 13:05:18.000000000,32.933431,-97.313694,32.933368,-97.315597,0.1104413944019999,Slow traffic on FM-1709 from Alta Vista Rd (Golden Triangle Blvd) to I-35W/North Fwy (Golden Triangle Blvd) due to roadwork.,3099.0,Golden Triangle Blvd,R,Fort Worth,Tarrant,TX,76177,US,US/Central,KAFW,2021-12-21 10:53:00,53.0,53.0,64.0,29.34,10.0,SSW,6.0,0.0,Fair,True,False,False,False,False,False,False,False,False,False,False,False,False,Day,Day,Day,Day
C-4879347,2,2021-10-15 12:16:00.000000000,2021-11-09 16:58:19.000000000,39.96291400000001,-75.250938,39.962488,-75.245456,0.291801462425,Slow traffic on PA-3 from S Millbourne Ave / N Millbourne Ave to S 62nd St due to roadwork.,,Burd Ave,R,Upper Darby,Delaware,PA,19082,US,US/Eastern,KPHL,2021-11-09 14:54:00,71.0,71.0,36.0,30.04,10.0,WSW,12.0,0.0,Fair,True,False,True,False,False,False,True,False,False,True,False,False,False,Day,Day,Day,Day
C-4879348,2,2021-01-04 16:23:00.000000000,2021-01-04 18:29:59.000000000,40.427294,-76.512297,40.452244,-76.420107,5.14529873319,Roadwork on I-78 eastbound between 1.3 miles east of Exit 89: I-81 NORTH - HAZLETON and 1.4 miles west of Exit 6: PA 343 - LEBANON/FREDERICKSBURG. There is a lane restriction.,,I-78 E,R,Jonestown,Lebanon,PA,17038,US,US/Eastern,KMUI,2021-01-04 14:28:00,43.0,39.0,61.0,29.43,10.0,N,7.0,0.0,Cloudy,False,False,False,False,True,False,False,False,False,False,False,False,False,Day,Day,Day,Day
C-4879349,2,2021-12-08 18:23:30.000000000,2021-12-08 20:30:33.000000000,37.357802,-77.41435,37.354886,-77.412436,0.22725012105,Slow traffic on US-301 S - US-1 N - US-1 S - US-301 N - VA-10 from Redwater Ridge Rd to I-95 S due to roadwork.,12291.0,Jefferson Davis Hwy,L,Chester,Chesterfield,VA,23831-2341,US,US/Eastern,KFCI,2021-12-08 17:56:00,35.0,29.0,76.0,29.69,10.0,VAR,7.0,0.0,Fair,False,False,False,False,False,False,False,False,False,False,False,False,False,Night,Night,Night,Day
C-4879350,2,2021-11-18 15:26:30.000000000,2021-11-18 17:41:09.000000000,28.831496,-81.887764,28.826938,-81.887215,0.316676210254,Slow traffic on US-27 S - FL-25 - US-27 N - US-441 N - US-441 S from Citrus Blvd / N Shore Dr to Marion St due to roadwork.,1400.0,Citrus Blvd,R,Leesburg,Lake,FL,34748-3447,US,US/Eastern,KLEE,2021-11-18 15:53:00,78.0,78.0,74.0,30.07,10.0,NE,3.0,0.0,Cloudy,False,False,False,False,False,False,False,False,False,False,False,False,False,Day,Day,Day,Day
C-4879351,2,2021-07-27 16:26:06.000000000,2021-07-27 16:39:48.000000000,35.070525,-81.762805,35.064285,-81.77328299999998,0.7327986847,Slow traffic on I-85 S from Green River Rd/Exit 86 (I-85) to SC-110/Exit 83 (I-85) due to roadwork.,,I-85 S,R,Gaffney,Cherokee,SC,29341,US,US/Eastern,KEHO,2021-07-27 16:35:00,89.0,89.0,54.0,29.07,10.0,S,5.0,0.0,Fair,False,False,False,False,False,False,False,False,False,False,False,False,False,Day,Day,Day,Day
C-4879352,2,2020-11-11 05:00:00.000000000,2020-11-11 13:45:00.000000000,29.722313,-95.377255,29.718856,-95.378269,0.246483704049,Construction on TX-288 SB near SOUTHMORE BLVD Drive with caution.,,S Freeway S,R,Houston,Harris,TX,77004,US,US/Central,KMCJ,2020-11-11 04:53:00,72.0,72.0,91.0,29.84,10.0,N,6.0,0.0,Cloudy,False,False,False,False,True,False,False,False,False,False,False,False,False,Night,Night,Night,Night
C-4879353,4,2020-05-03 20:02:07.000000000,2020-05-21 07:19:00.000000000,40.50908,-80.42229,40.48953,-80.43281,1.45948356967,Closed at Anderson Hozak Rd - Closed due to roadwork. Obstruction on roadway {something that does block the road or part of it}.,2917.0,State Route 18,R,Hookstown,Beaver,PA,15050-1614,US,US/Eastern,KPIT,2020-05-04 07:51:00,48.0,43.0,61.0,28.64,10.0,NW,12.0,0.0,Fair,False,False,False,False,False,False,False,False,False,False,False,False,False,Day,Day,Day,Day
C-4879354,2,2020-11-21 13:37:00.000000000,2020-11-22 00:53:15.000000000,33.493192,-112.083403,33.495643,-112.083485,0.1694138698539999,Stationary traffic from W Thomas Rd (N 7th Ave) to W Camelback Rd (N 7th Ave) due to roadwork.,3975.0,N 7th Ave,R,Phoenix,Maricopa,AZ,85013-3350,US,US/Mountain,KPHX,2020-11-21 13:51:00,81.0,81.0,25.0,28.79,10.0,WNW,5.0,0.0,Mostly Cloudy,False,False,False,False,False,False,False,False,False,False,False,False,False,Day,Day,Day,Day
C-4879355,2,2019-09-26 22:30:00.000000000,2019-09-27 05:00:00.000000000,26.3013,-80.251678,,,1.33000004292,Exit ramp from Sawgrass Expy Northbound to N University Dr closed due to construction work.,,Sawgrass Expy,R,Pompano Beach,Broward,FL,33076,US,US/Eastern,KFXE,2019-09-26 22:53:00,80.0,80.0,69.0,29.92,10.0,ENE,10.0,0.0,Fair,False,False,False,False,False,False,False,False,False,False,False,False,False,Night,Night,Night,Night
C-4879356,2,2021-01-29 12:30:30.000000000,2021-01-29 23:43:55.000000000,26.165398,-80.17635600000001,26.166257,-80.170877,0.344913137395,Stationary traffic on FL-816 from NW 25th Ave to NW 32nd St due to roadwork.,2508.0,W Oakland Park Blvd,L,Oakland Park,Broward,FL,33311-1426,US,US/Eastern,KFXE,2021-01-29 12:53:00,73.0,73.0,46.0,30.19,10.0,NNE,8.0,0.0,Partly Cloudy,False,False,False,False,False,False,False,False,False,False,False,False,False,Day,Day,Day,Day
C-4879357,2,2021-04-28 20:56:00.000000000,2021-04-29 22:07:10.000000000,27.394698,-82.450257,27.435528,-82.459177,2.87364446351,Construction on I-75 NB near MM 216 Construction. Right lane closed.,,I-75 N,R,Bradenton,Manatee,FL,34201,US,US/Eastern,KSRQ,2021-04-28 20:53:00,76.0,76.0,69.0,29.99,10.0,N,5.0,0.0,Fair,False,False,False,False,False,False,False,False,False,False,False,False,False,Night,Night,Night,Day
C-4879358,2,2019-06-15 17:18:06.000000000,2019-06-19 17:18:51.000000000,40.331879,-80.06989,40.30648400000001,-80.094255,2.17399128694,Between Fort Couch Rd and Valleybrook Rd - Roadwork. Open.,2186.0,Washington Rd,R,Pittsburgh,Allegheny,PA,15241,US,US/Eastern,KAGC,2019-06-15 16:53:00,73.0,73.0,55.0,28.67,10.0,WSW,18.0,0.0,Cloudy,False,False,False,False,False,False,False,False,False,False,False,False,False,Day,Day,Day,Day
C-4879359,2,2021-11-03 12:39:30.000000000,2021-11-30 11:28:00.000000000,44.294037,-121.153753,44.291183,-121.156417,0.237156309934,Stationary traffic from NE 13th St to NE 9th St due to roadwork.,1898.0,NE Negus Way,R,Redmond,Deschutes,OR,97756,US,US/Pacific,KRDM,2021-11-03 12:56:00,61.0,61.0,50.0,26.89,10.0,SSE,6.0,0.0,Fair,False,False,False,False,False,False,False,False,False,False,False,False,False,Day,Day,Day,Day
C-4879360,2,2021-04-16 05:23:00.000000000,2021-04-16 20:27:44.000000000,40.81787,-73.938037,40.819713,-73.934475,0.22562142211,Slow traffic from W 141st St to Harlem River Dr S due to roadwork.,624.0,Lenox Ave,R,New York,New York,NY,10037-1235,US,US/Eastern,KNYC,2021-04-16 05:37:00,41.0,41.0,82.0,29.57,10.0,VAR,3.0,0.0,Mostly Cloudy,False,False,True,False,False,False,True,False,False,False,False,True,False,Night,Night,Day,Day
C-4879361,2,2021-02-09 19:11:00.000000000,2021-02-09 21:34:30.000000000,40.995852,-73.658079,40.987409,-73.67047600000002,0.870806640782,Slow traffic on I-95 S from Delavan Ave/Exit 2 (I-95) to Midland Ave/Exit 22 (I-95) due to roadwork.,,I-95 S,R,Greenwich,Fairfield,CT,06830,US,US/Eastern,KHPN,2021-02-09 18:56:00,25.0,19.0,88.0,29.65,10.0,NW,5.0,0.0,Mostly Cloudy,False,False,False,False,False,False,False,False,False,False,False,False,False,Night,Night,Night,Night
C-4879362,2,2021-12-16 17:49:00.000000000,2021-12-16 20:01:12.000000000,47.607541,-122.323511,47.608811,-122.326171,0.151833548785,Slow traffic from James St to I-5 N due to roadwork.,741.0,Boren Ave,L,Seattle,King,WA,98104,US,US/Pacific,KBFI,2021-12-16 17:53:00,41.0,36.0,86.0,30.05,10.0,ENE,7.0,0.0,Cloudy,True,False,True,False,False,False,False,False,True,False,False,True,False,Night,Night,Night,Day
C-4879363,2,2021-06-17 14:21:53.000000000,2021-06-17 17:08:00.000000000,28.811359000000003,-81.354129,28.812612,-81.363043,0.546554312474,Stationary traffic on FL-46 from Lake Forest Blvd to Westlake Ln due to roadwork.,5281.0,W State Road 46,R,Sanford,Seminole,FL,32771,US,US/Eastern,KSFB,2021-06-17 13:53:00,88.0,88.0,55.0,29.94,10.0,NE,3.0,0.0,Mostly Cloudy,False,False,False,False,False,False,False,False,False,False,False,False,False,Day,Day,Day,Day
C-4879364,2,2020-12-13 14:37:30.000000000,2020-12-14 03:55:37.000000000,26.165739,-80.168089,26.166257,-80.170877,0.176557159854,Slow traffic on FL-816 from NW 17th Ter to NW 32nd St due to roadwork.,1855.0,W Oakland Park Blvd,L,Oakland Park,Broward,FL,33311-1517,US,US/Eastern,KFXE,2020-12-13 14:53:00,83.0,83.0,49.0,30.03,10.0,SE,6.0,0.0,Partly Cloudy,False,False,False,False,False,False,False,False,False,False,False,False,False,Day,Day,Day,Day
C-4879365,2,2021-06-21 02:52:27.000000000,2021-06-25 23:59:59.000000000,40.716285,-73.32211,40.717466,-73.31604300000002,0.328032756537,Construction on NY 27 both directions between Exit 40 - NY 231; Babylon Northport Expressway (Suffolk) and Exit 41 - Robert Moses Causeway (Suffolk) from 10:00 A.M. until 3:00 P.M. Not currently scheduled,,Sunrise Hwy E,R,West Babylon,Suffolk,NY,11704,US,US/Eastern,KFRG,2021-06-21 02:53:00,72.0,72.0,87.0,29.68,10.0,SSW,7.0,0.0,Fair,False,False,True,False,False,False,False,False,False,False,False,False,False,Night,Night,Night,Night
C-4879366,2,2020-12-16 15:03:30.000000000,2020-12-17 02:40:37.000000000,42.066985,-88.043875,42.068355,-88.04381500000002,0.0947079992947999,Slow traffic from I-90 (N Meacham Rd) to IL-62/E Algonquin Rd (N Meacham Rd) due to roadwork.,2405.0,N Meacham Rd,L,Schaumburg,Cook,IL,60173-4358,US,US/Central,KPWK,2020-12-16 14:52:00,34.0,29.0,67.0,29.29,10.0,NE,6.0,0.0,Cloudy,False,False,True,False,False,False,False,False,False,False,False,True,False,Day,Day,Day,Day
C-4879367,2,2021-12-08 17:10:02.000000000,2021-12-08 19:15:40.000000000,27.917866,-82.78777600000002,27.91664,-82.787061,0.0952947476117,Slow traffic on US-19 Alt S - FL-686 from Golden Gate Dr to Central Park Dr due to roadwork.,125.0,Missouri Ave N,L,Largo,Pinellas,FL,33770-3763,US,US/Eastern,KPIE,2021-12-08 16:53:00,75.0,75.0,84.0,29.98,10.0,SSW,15.0,0.0,Fair,False,False,False,False,False,False,False,False,True,False,False,False,False,Day,Day,Day,Day
C-4879368,2,2021-04-30 12:23:30.000000000,2021-04-30 14:28:00.000000000,34.307016,-109.777856,34.316829,-109.766009,0.957508574637,Stationary traffic on AZ-61 from US-60 (AZ-61) to Paco Rd (AZ-61) due to roadwork.,,State Hwy 61,R,Concho,Apache,AZ,85924,US,US/Mountain,KSJN,2021-04-30 11:54:00,73.0,73.0,18.0,24.53,10.0,ESE,9.0,0.0,Fair,False,False,False,False,False,False,False,False,False,False,False,False,False,Day,Day,Day,Day
C-4879369,2,2021-10-19 09:13:30.000000000,2021-10-19 09:47:00.000000000,39.533496,-106.215663,39.526452,-106.216728,0.4899920795979999,Slow traffic on I-70 E - US-6 E from Big Horn Rd/Exit 180 (I-70) to CR-16/Shrine Pass Rd/Exit 190 (I-70) due to roadwork.,,I-70 E,R,Vail,Eagle,CO,81657,US,US/Mountain,KCCU,2021-10-19 08:53:00,32.0,32.0,61.0,20.69,10.0,CALM,0.0,0.0,Fair,False,False,False,False,True,False,False,False,False,False,False,False,False,Day,Day,Day,Day
C-4879370,2,2021-10-21 15:10:00.000000000,2021-10-21 15:39:30.000000000,37.733783,-122.506944,37.735396,-122.506652,0.112584062563,Stationary traffic from CA-35/Skyline Blvd (Great Hwy) to Sloat Blvd (Great Hwy) due to roadwork.,3498.0,Great Hwy,R,San Francisco,San Francisco,CA,94132,US,US/Pacific,KSFO,2021-10-21 14:56:00,68.0,68.0,78.0,30.06,10.0,SSW,14.0,0.0,Mostly Cloudy,False,False,True,False,False,False,False,False,False,False,False,True,False,Day,Day,Day,Day
C-4879371,2,2020-11-30 12:44:30.000000000,2020-12-01 02:25:00.000000000,39.943129,-75.19288399999998,39.956787,-75.18021999999998,1.15778784033,Stationary traffic on Schuylkill Expy W - I-76 W from exit [346A] to exit [344] due to roadwork.,,I-76 W,R,Philadelphia,Philadelphia,PA,19104,US,US/Eastern,KPHL,2020-11-30 12:54:00,66.0,66.0,87.0,29.4,9.0,S,18.0,0.0,Cloudy,False,False,False,False,False,False,False,False,False,False,False,False,False,Day,Day,Day,Day
C-4879372,2,2021-12-03 17:32:00.000000000,2021-12-03 17:52:00.000000000,45.697422,-107.621881,45.709276,-107.622041,0.819069782444,Stationary traffic on MT-313 - County Hwy-313 from CR-216A (MT-313) to 3rd St (MT-313) due to roadwork.,,State Highway 313,R,Crow Agency,Big Horn,MT,59022,US,US/Mountain,KM46,2021-12-03 17:53:00,32.0,25.0,44.0,27.48,10.0,ENE,8.0,0.0,Cloudy,False,False,False,False,False,False,False,False,False,False,False,False,False,Night,Night,Day,Day
C-4879373,2,2020-11-16 07:00:00.000000000,2021-05-31 17:00:06.000000000,30.391044,-92.201564,30.400452,-92.176084,1.65180153684,Road Maintenance Operations on LA-754 Both Directions from Joshua Rd to LA-95 . All Lanes Intermittently Closed. Width Restriction: 12ft Starting 11/16/2020 7:00 AM and Ending 5/31/2021 5:00 PM,1399.0,Peach Bloom Hwy,R,Church Point,Acadia,LA,70525-3918,US,US/Central,KOPL,2020-11-16 06:55:00,40.0,36.0,82.0,30.24,10.0,N,6.0,0.0,Fair,False,False,False,False,False,False,False,False,False,False,False,False,False,Day,Day,Day,Day
C-4879374,2,2021-04-15 06:38:30.000000000,2021-12-31 13:04:31.000000000,28.064064,-80.620183,28.063357,-80.621447,0.0912434311188,Stationary traffic on FL-507 - County Hwy-507 from Albemarle St to Panther Pl due to roadwork.,82.0,E University Blvd,L,Melbourne,Brevard,FL,32901,US,US/Eastern,KMLB,2021-08-30 16:53:00,86.0,86.0,67.0,29.89,10.0,E,9.0,0.0,Fair,False,False,False,False,False,False,False,False,False,False,False,False,False,Night,Day,Day,Day
C-4879375,2,2020-10-28 04:18:30.000000000,2020-10-28 04:57:00.000000000,39.217163,-104.877151,39.199218,-104.85543,1.6998839536,Slow traffic on I-25 from Upper Lake Gulch Rd/Exit 172 (I-25) to Greenland Rd/Exit 167 (I-25) due to roadwork.,,I-25 S,R,Larkspur,Douglas,CO,80118,US,US/Mountain,KMNH,2020-10-28 04:15:00,21.0,12.0,63.0,23.14,10.0,WSW,8.0,0.0,Fair,False,False,False,False,False,False,False,False,False,False,False,False,False,Night,Night,Night,Night
C-4879376,2,2021-07-04 12:05:32.000000000,2021-07-04 12:18:35.000000000,40.82013900000001,-73.890327,40.822889,-73.883037,0.4259010149409999,Slow traffic on I-278 E from I-895 (I-278) to Bronx River Ave (Bronx) (South) (I-278) due to roadwork.,,Sheridan Expy N,R,Bronx,Bronx,NY,10459,US,US/Eastern,KLGA,2021-07-04 11:51:00,71.0,71.0,63.0,29.86,10.0,ENE,7.0,0.0,Mostly Cloudy,False,False,True,False,True,False,False,False,False,False,False,True,False,Day,Day,Day,Day
C-4879377,2,2020-06-03 10:37:28.000000000,2020-06-03 14:29:28.000000000,33.87438,-118.1935,33.85981,-118.20133,1.10236909171,Between CA-91 and Long Beach Blvd - Roadwork. Right lane closed.,,I-710 S,R,Long Beach,Los Angeles,CA,90805,US,US/Pacific,KLGB,2020-06-03 10:53:00,81.0,81.0,44.0,29.84,10.0,S,7.0,0.0,Fair,False,False,False,False,False,False,False,False,False,False,False,False,False,Day,Day,Day,Day
C-4879378,2,2021-09-27 08:03:00.000000000,2021-09-27 10:10:43.000000000,27.981549,-82.35768,27.97997100000001,-82.360407,0.198932007123,Slow traffic on US-301 S - FL-574 from Garden Ln to E 27th Ave due to roadwork.,,E Dr Martin Luther King Jr Blvd,R,Tampa,Hillsborough,FL,33610,US,US/Eastern,KVDF,2021-09-27 07:55:00,70.0,70.0,100.0,30.09,10.0,CALM,0.0,0.0,Fair,False,False,False,False,False,False,False,False,False,False,False,False,False,Day,Day,Day,Day
C-4879379,2,2019-06-06 11:59:17.000000000,2019-06-11 06:54:49.000000000,34.007901000000004,-118.160529,34.003029999999995,-118.16775,0.53322922302,At Washington Blvd - Roadwork.,2098.0,S Atlantic Blvd,R,Los Angeles,Los Angeles,CA,90040-1347,US,US/Pacific,KCQT,2019-06-06 11:47:00,75.0,75.0,60.0,29.73,8.0,VAR,5.0,0.0,Fair,False,False,False,False,False,False,False,False,True,False,False,True,False,Day,Day,Day,Day
C-4879380,2,2020-05-06 14:25:34.000000000,2020-05-08 16:25:34.000000000,33.78668,-84.23363,33.78668,-84.23363,0.0,At Rockbridge Rd - Roadwork. Right lane closed.,,Memorial Dr,R,Stone Mountain,DeKalb,GA,30083,US,US/Eastern,KPDK,2020-05-06 14:53:00,70.0,70.0,36.0,28.86,10.0,W,18.0,0.0,Fair,False,False,False,False,False,False,False,False,False,False,False,True,False,Day,Day,Day,Day
C-4879381,2,2020-10-21 13:55:00.000000000,2020-10-22 02:44:43.000000000,26.516244,-80.059023,26.513185,-80.059133,0.211466158816,Queuing traffic on US-1 from FL-804/Boynton Beach Blvd/2nd Ave (US-1) to FL-811/Old Dixie Hwy/Colonial Club Dr (US-1) due to resurfacing work.,1399.0,S Federal Hwy,R,Boynton Beach,Palm Beach,FL,33435-6001,US,US/Eastern,KPBI,2020-10-21 13:53:00,78.0,78.0,87.0,29.97,10.0,SE,12.0,0.0,Light Rain,False,False,False,False,False,False,False,False,False,False,False,False,False,Day,Day,Day,Day
C-4879382,2,2020-09-20 13:57:00.000000000,2020-09-20 17:59:30.000000000,39.76966,-82.989488,39.77357,-82.989048,0.271163888421,Stationary traffic on US-23 from OH-752 (US-23) to OH-762/Duvall Rd (US-23) due to roadwork.,11270.0,US Highway 23,L,Lockbourne,Pickaway,OH,43137-9634,US,US/Eastern,KLCK,2020-09-20 13:55:00,67.0,67.0,28.0,29.63,10.0,ENE,10.0,0.0,Fair,False,False,False,False,False,False,False,False,False,False,False,True,False,Day,Day,Day,Day
C-4879383,4,2020-12-04 05:00:00.000000000,2020-12-04 13:45:00.000000000,33.66999000000001,-112.099128,33.669965999999995,-112.09956,0.0248964237357999,Construction on W BEARDSLEY RD WB near N 13TH AVE Expect delays.,1848.0,W Beardsley Rd,R,Phoenix,Maricopa,AZ,85027,US,US/Mountain,KDVT,2020-12-04 04:53:00,38.0,38.0,23.0,28.57,10.0,CALM,0.0,0.0,Fair,False,False,True,False,False,False,False,False,False,False,False,True,False,Night,Night,Night,Night
C-4879384,2,2021-09-06 12:17:00.000000000,2021-09-06 12:44:00.000000000,40.262119,-92.888762,40.26204600000001,-92.874895,0.731153942827,Stationary traffic on MO-6 from MO-129/S Lincoln St (MO-6) to MO-149 (MO-6) due to roadwork.,65300.0,State Highway 6,R,Green Castle,Sullivan,MO,63544,US,US/Central,KIRK,2021-09-06 11:55:00,82.0,82.0,60.0,28.99,9.0,W,7.0,0.0,Fair,False,False,False,False,False,False,False,False,False,False,False,False,False,Day,Day,Day,Day
C-4879385,2,2021-06-04 07:01:00.000000000,2021-06-04 18:46:00.000000000,35.917404,-119.281677,35.917889,-119.28179,0.0341016356243,Construction on CA-99 NB near DEER CRK Expect delays.,,CA-99 N,R,Earlimart,Tulare,CA,93219,US,US/Pacific,KPTV,2021-06-04 06:56:00,72.0,72.0,53.0,29.42,10.0,SSE,5.0,0.0,,False,False,False,False,False,False,False,False,False,False,False,False,False,Day,Day,Day,Day
C-4879386,2,2021-05-19 04:09:07.000000000,2021-05-19 05:59:00.000000000,37.513721,-122.25515,,,0.959999978542,Entry ramp to US-101 Northbound from Holly St Eastbound closed due to construction during the night.,,Bayshore Fwy N,R,San Carlos,San Mateo,CA,94070,US,US/Pacific,KSQL,2021-05-19 04:15:00,52.0,52.0,71.0,30.03,10.0,W,10.0,0.0,Fair,False,False,False,False,False,False,False,False,False,False,False,False,False,Night,Night,Night,Night
C-4879388,2,2020-12-23 16:30:00.000000000,2021-01-15 23:00:00.000000000,33.442241,-111.926452,33.442241,-111.926308,0.00830223895725,SCOTTSDALE RD and TEMPE DR - Construction - SCOTTSDALE RD is restricted 1 Lane Northbound between TEMPE DR to FILLMORE ST to allow for pothole work. The sidewalk will be closed. SCOTTSDALE RD is restricted 1 Lane Southbound between TEMPE DR to FILLMORE ST to allow for pothole work. The sidewalk will be closed. SCOTTSDALE RD is restricted Eastbound between TEMPE DR to FILLMORE ST to allow for pothole work.,,E Tempe Dr,R,Tempe,Maricopa,AZ,85281,US,US/Mountain,KPHX,2020-12-23 16:51:00,65.0,65.0,9.0,28.99,10.0,NNE,14.0,0.0,Partly Cloudy,False,False,False,False,False,False,False,False,False,False,False,False,False,Day,Day,Day,Day
C-4879389,2,2021-11-16 08:23:00.000000000,2021-12-16 13:09:30.000000000,39.283672,-84.400954,39.289912,-84.394817,0.5418424562799999,Slow traffic on US-42 S - US-42 N from E Kemper Rd (Lebanon Rd/US-42) to I-275 (Lebanon Rd/US-42) due to roadwork.,11641.0,Lebanon Rd,L,Cincinnati,Hamilton,OH,45241-2012,US,US/Eastern,KHAO,2021-11-16 08:53:00,35.0,35.0,96.0,29.47,10.0,E,3.0,0.0,Fair,False,False,False,False,False,False,False,False,False,False,False,True,False,Day,Day,Day,Day
C-4879390,2,2020-09-16 17:43:55.000000000,2020-09-26 17:08:56.000000000,38.573784,-121.47816,38.572655,-121.478654,0.0824444941553,Construction on 22ND ST near L ST Drive with caution.,1171.0,22nd St,L,Sacramento,Sacramento,CA,95816-4911,US,US/Pacific,KSAC,2020-09-16 17:53:00,89.0,89.0,24.0,29.89,9.0,SW,5.0,0.0,Fair,False,False,False,False,False,False,False,False,False,False,False,False,False,Day,Day,Day,Day
C-4879391,2,2019-10-28 00:00:01.000000000,2019-10-29 00:00:01.000000000,39.87833,-105.28124,39.87821,-105.27873999999998,0.13281621863,At CO-93/Foothills Rd - Construction work.,25006.0,Coal Creek Canyon Dr,L,Golden,Jefferson,CO,80403-8332,US,US/Mountain,KBDU,2019-10-28 00:12:00,19.0,19.0,93.0,24.82,2.0,CALM,0.0,0.0,Light Snow,False,False,False,False,False,False,False,False,False,False,False,False,False,Night,Night,Night,Night
C-4879392,2,2020-04-08 19:35:19.000000000,2020-07-29 03:55:48.000000000,43.523636,-96.703609,43.531048,-96.698503,0.572447086143,Construction on I-229 near CLIFF AVE Allow extra time.,,I-229 N,R,Sioux Falls,Minnehaha,SD,57103,US,US/Central,KFSD,2020-04-08 19:56:00,48.0,43.0,36.0,28.45,10.0,NW,12.0,0.0,Mostly Cloudy,False,False,False,False,True,False,False,False,False,False,False,False,False,Day,Day,Day,Day
C-4879393,2,2018-10-03 19:03:48.000000000,2018-10-08 18:59:24.000000000,40.447112,-80.009309,40.45827,-79.99858,0.955275551091,Between Fort Duquesne Brg and I-579/Exit 8 - Roadwork. Lane blocked.,,I-279 N,R,Pittsburgh,Allegheny,PA,15212,US,US/Eastern,KAGC,2018-10-03 18:53:00,72.0,,87.0,30.05,10.0,SSE,3.5,,Partly Cloudy,False,False,False,False,False,False,False,False,False,False,False,False,False,Night,Day,Day,Day
C-4879394,2,2021-03-07 13:30:16.000000000,2021-12-26 03:01:04.000000000,38.853327,-76.983331,38.862412,-76.997659,0.994134355477,Stationary traffic from Alabama Ave (Suitland Pkwy) to Firth Sterling Ave (Suitland Pkwy) due to roadwork.,3033.0,Stanton Rd SE,R,Washington,District of Columbia,DC,20020,US,US/Eastern,KWBC,2021-10-06 07:41:00,66.0,66.0,100.0,30.01,7.0,ENE,8.0,0.0,Cloudy,False,False,True,False,False,False,True,False,False,False,False,True,False,Day,Day,Day,Day
C-4879395,2,2021-04-06 03:10:30.000000000,2021-04-06 04:38:00.000000000,45.284338,-123.005326,45.28126500000001,-123.007995,0.248831770256,Stationary traffic on OR-99W from OR-240/Main St (1st St/Hancock St/OR-99W) to OR-18/SE Dayton Byp (OR-99W) due to roadwork.,109.0,N Highway 99W,R,Dundee,Yamhill,OR,97115-9819,US,US/Pacific,KMMV,2021-04-06 02:53:00,34.0,30.0,92.0,29.98,10.0,W,5.0,0.0,Fair,False,False,False,False,False,False,False,False,False,False,False,False,False,Night,Night,Night,Night
C-4879396,2,2021-03-12 21:01:00.000000000,2021-12-29 23:32:28.000000000,33.218425,-96.734865,33.219539000000005,-96.732772,0.143389816511,Slow traffic on FM-2478 - US-380 E from University Business Dr to County Road 853 due to roadwork.,9091.0,W University Dr,L,Mckinney,Collin,TX,75071-1017,US,US/Central,KTKI,2021-12-29 21:53:00,52.0,52.0,89.0,29.22,10.0,NNW,3.0,0.0,Fair,False,False,True,False,False,False,False,False,False,False,False,False,False,Night,Night,Night,Night
C-4879397,4,2020-04-21 21:03:39.000000000,2020-04-22 02:02:26.000000000,37.78737,-122.27664,37.79642,-122.27169,0.681205997349,Closed between Mariner Square Dr/Constitution Way and I-880/5th St/6th St - Closed due to roadwork.,,Posey Tube,R,Alameda,Alameda,CA,94501,US,US/Pacific,KOAK,2020-04-21 20:53:00,58.0,58.0,72.0,30.24,10.0,W,18.0,0.0,Fair,False,False,False,False,False,False,False,False,False,False,False,False,False,Night,Night,Night,Day
C-4879398,3,2019-05-30 10:55:08.000000000,2019-05-30 11:53:28.000000000,37.940067,-121.298241,,,0.0,Lane blocked due to fuel spillage and clearance work on I-5 Southbound at Exit 472 CA-4 Exits 65C 66A.,,CA-4 W,R,Stockton,San Joaquin,CA,95206,US,US/Pacific,KSCK,2019-05-30 10:55:00,72.0,72.0,51.0,29.86,10.0,NW,7.0,0.0,Fair,False,False,False,False,False,False,False,False,False,False,False,False,False,Day,Day,Day,Day
C-4879399,2,2020-09-15 20:49:00.000000000,2020-09-16 00:35:33.000000000,42.641312,-82.992052,42.640692,-82.99349699999998,0.0850237729803,Queuing traffic from W Wayford Dr to Ledwon St due to resurfacing work.,13753.0,21 Mile Rd,L,Shelby Township,Macomb,MI,48315-4805,US,US/Eastern,KMTC,2020-09-15 20:56:00,59.0,59.0,92.0,29.52,12.0,S,8.0,0.0,Mostly Cloudy,False,False,False,False,False,False,False,False,False,False,False,False,False,Night,Night,Night,Day
C-4879400,2,2021-07-08 21:14:30.000000000,2021-07-08 21:49:00.000000000,40.170489,-79.726721,40.187199,-79.705011,1.6267924831799998,Slow traffic on I-70 E from Exit 49 (I-70) to PA-31/Exit 51 (I-70) due to roadwork.,,I-70 E,R,Smithton,Westmoreland,PA,15479,US,US/Eastern,KAGC,2021-07-08 21:00:00,70.0,70.0,93.0,28.56,8.0,E,3.0,0.0,Fair,False,False,False,False,False,False,False,False,False,False,False,False,False,Night,Day,Day,Day
C-4879401,4,2021-05-04 07:00:00.000000000,2021-06-09 21:07:48.000000000,39.450485,-85.478801,39.432432,-85.479334,1.24766769207,Construction on IN-3 SB near I-74 Road closed. Take alternate route.,7885.0,N State Road 3,L,Greensburg,Decatur,IN,47240-8543,US,US/Eastern,KBAK,2021-05-04 06:45:00,61.0,61.0,94.0,28.97,5.0,CALM,0.0,,Light Rain,False,False,False,False,False,False,False,False,False,False,False,False,False,Day,Day,Day,Day
C-4879402,2,2019-02-15 16:56:28.000000000,2019-02-15 22:56:00.000000000,43.42794,-124.222,43.42663,-124.22228,0.0915963758551999,At McCullough Brg (South) - Maintenance work.,,Sherman Ave,R,North Bayside,Coos,OR,,US,,,,,,,,,,,,,False,False,False,False,False,False,False,False,False,False,False,False,False,Day,Day,Day,Day
C-4879403,2,2021-05-27 15:36:30.000000000,2021-05-27 16:05:00.000000000,40.770013,-96.692105,40.769457,-96.683085,0.4735522797160001,Stationary traffic on NE-2 from S 13th St/S 14th St (NE-2) to S 27th St (NE-2) due to roadwork.,1999.0,Highway 2,L,Lincoln,Lancaster,NE,68502,US,US/Central,KLNK,2021-05-27 15:54:00,66.0,66.0,63.0,28.69,10.0,NNW,22.0,0.0,Cloudy / Windy,False,False,True,False,False,False,False,False,False,False,False,True,False,Day,Day,Day,Day
C-4879404,2,2020-09-20 03:00:00.000000000,2020-09-25 12:45:00.000000000,44.96424,-93.23336,44.965336,-93.227388,0.301610989569,Construction on I-94 EB near RIVERSIDE AVE Construction. Expect long delays.,,I-94 E,R,Minneapolis,Hennepin,MN,55454,US,US/Central,KMSP,2020-09-20 02:53:00,54.0,54.0,77.0,29.29,10.0,SE,9.0,0.0,Fair,False,False,False,False,False,False,False,False,False,False,False,False,False,Night,Night,Night,Night
C-4879405,2,2021-05-03 06:23:00.000000000,2021-09-01 18:26:00.000000000,42.153567,-87.987142,42.15354,-87.983423,0.190504976393,Slow traffic from IL-53 (Lake Cook Rd) to Buffalo Grove Rd (Buffalo Grove) (West) (W Lake Cook Rd) due to roadwork.,19823.0,Lake Cook Rd,R,Arlington Heights,Cook,IL,60004,US,US/Central,KPWK,2021-09-01 17:52:00,73.0,73.0,53.0,29.33,10.0,N,14.0,0.0,Fair,False,False,False,False,False,False,False,False,False,False,False,False,False,Day,Day,Day,Day
C-4879406,2,2021-07-17 06:43:30.000000000,2021-08-30 18:44:00.000000000,35.310863,-119.252439,35.29615300000001,-119.252459,1.01636482724,Construction on CA-43 SB near STOCKDALE HWY Expect long delays.,6387.0,S Enos Ln,L,Bakersfield,Kern,CA,93314,US,US/Pacific,KBFL,2021-08-30 05:54:00,77.0,77.0,37.0,29.22,5.0,ESE,3.0,0.0,Smoke,False,False,False,False,False,False,False,False,False,False,False,False,False,Day,Day,Day,Day
C-4879407,3,2016-06-30 07:01:10.000000000,2016-06-30 13:01:10.000000000,38.535623,-106.944182,38.535623,-106.944182,0.0,At CO-135/N CO-135/Main St - Roadwork.,1002.0,W US Highway 50,R,Gunnison,Gunnison,CO,81230-4034,US,US/Mountain,KGUC,2016-06-30 06:55:00,51.8,,71.0,30.44,10.0,Calm,,,Scattered Clouds,False,False,False,False,False,False,False,False,False,False,False,False,False,Day,Day,Day,Day
C-4879408,2,2021-10-11 05:00:00.000000000,2021-10-13 12:45:00.000000000,45.13365200000001,-93.490495,45.156378,-93.510479,1.84770379105,Construction on I-94 NB near BROCKTON LN Construction. Expect delays.,,I-94 W,R,Osseo,Hennepin,MN,55369,US,US/Central,KMIC,2021-10-11 04:53:00,52.0,52.0,77.0,28.73,10.0,WSW,6.0,0.0,Cloudy,False,False,False,False,False,False,False,False,False,False,False,False,False,Night,Night,Night,Night
C-4879409,2,2021-05-20 10:59:00.000000000,2021-05-20 13:15:08.000000000,34.709596999999995,-97.247339,34.735917,-97.260059,1.95675338042,Slow traffic on I-35 N from Airport Rd/Exit 70 (I-35) to OK-19/Exit 72 (I-35) due to roadwork.,,I-35 N,R,Pauls Valley,Garvin,OK,73075,US,US/Central,KPVJ,2021-05-20 10:55:00,68.0,68.0,88.0,28.96,10.0,E,3.0,0.0,Light Drizzle,False,False,False,False,True,False,False,False,False,False,False,False,False,Day,Day,Day,Day
C-4879410,2,2021-10-26 00:00:00.000000000,2021-12-15 00:45:00.000000000,42.189168,-83.388328,42.215725,-83.410066,2.14588234743,Construction on I-275 NB near HURON RIVER DR Construction. Expect long delays.,,I-275 N,R,Romulus,Wayne,MI,48174,US,US/Eastern,KDTW,2021-10-26 00:46:00,47.0,43.0,83.0,29.23,10.0,N,9.0,0.0,Cloudy,False,False,False,False,False,False,False,False,False,False,False,False,False,Night,Night,Night,Night
C-4879411,2,2020-09-21 14:11:00.000000000,2020-09-21 18:12:51.000000000,40.70058,-73.80771700000003,40.701769,-73.80690600000001,0.0924857280147,Slow traffic from Archer Ave to 148th St / 147th Pl due to roadwork.,14700.0,Archer Ave,R,Jamaica,Queens,NY,11435-4315,US,US/Eastern,KJFK,2020-09-21 13:51:00,65.0,65.0,29.0,30.53,10.0,N,16.0,0.0,Partly Cloudy,True,False,True,False,False,False,True,False,True,False,False,True,False,Day,Day,Day,Day
C-4879412,2,2021-05-08 05:58:30.000000000,2021-05-08 15:11:16.000000000,27.344028,-82.546882,27.334277,-82.54470699999997,0.686827717351,Slow traffic on FL-45 - FL-789 - US-41 S - FL-780 from Dr Martin Luther King Way (US-41) to US-301/S Washington Blvd (US-41) due to roadwork.,883.0,N Tamiami Trl,L,Sarasota,Sarasota,FL,34236-4052,US,US/Eastern,KSRQ,2021-05-08 05:53:00,65.0,65.0,58.0,30.0,10.0,NE,5.0,0.0,Fair,False,False,False,False,False,False,False,False,False,False,False,True,False,Night,Night,Day,Day
C-4879413,2,2020-09-12 04:35:00.000000000,2020-09-13 05:30:03.000000000,40.60397,-75.57350500000003,40.59461,-75.56790699999998,0.710271919222,Construction on I-476 SB near MP 73 Construction. Right lane closed.,,I-476 S,R,Allentown,Lehigh,PA,18104,US,US/Eastern,KXLL,2020-09-12 04:35:00,59.0,59.0,72.0,29.84,10.0,NE,7.0,0.0,Cloudy,False,False,False,False,True,False,False,False,False,False,False,False,False,Night,Night,Night,Night
C-4879414,2,2021-09-04 08:35:30.000000000,2021-09-04 08:57:30.000000000,40.792605,-107.547883,40.807254,-107.55141299999998,1.02885143003,Slow traffic on CO-13 from US-40/Yampa Ave/Victory Way (CO-13) to CR-4 (CO-13) due to roadwork.,52902.0,N Highway 13,R,Craig,Moffat,CO,81625-9237,US,US/Mountain,KCAG,2021-09-04 08:53:00,54.0,54.0,75.0,24.03,10.0,CALM,0.0,0.0,Fair,False,False,False,False,False,False,False,False,False,False,False,False,False,Day,Day,Day,Day
C-4879415,2,2021-12-15 14:41:30.000000000,2021-12-15 15:02:30.000000000,41.520119,-87.99209599999998,41.519956,-87.9919,0.015154083637,Roadwork on E Cass St / Gougar Rd from I-80 E to US-30 E.,,W Maple St,R,New Lenox,Will,IL,60451,US,US/Central,KLOT,2021-12-15 14:35:00,63.0,63.0,92.0,29.08,10.0,SSW,26.0,0.0,Cloudy / Windy,False,False,False,False,True,False,False,False,False,False,False,False,False,Day,Day,Day,Day
C-4879417,2,2021-11-17 09:19:00.000000000,2021-11-17 11:20:48.000000000,27.917679,-82.796549,27.916664,-82.795813,0.083290615832,Slow traffic on County Hwy-416 - FL-686 from Belleair Rd (US-19 Alt) to FL-686/Missouri Ave/Bay Dr (US-19 Alt) due to roadwork.,59.0,Clearwater Largo Rd N,L,Largo,Pinellas,FL,33770,US,US/Eastern,KPIE,2021-11-17 08:53:00,66.0,66.0,87.0,30.24,10.0,ENE,6.0,0.0,Fair,False,False,False,False,False,False,False,False,True,False,False,False,False,Day,Day,Day,Day
C-4879418,4,2020-04-03 09:19:46.000000000,2020-04-07 09:19:01.000000000,40.05636,-75.19712,40.0582,-75.19519,0.1630340178539999,Closed at Germantown Ave - Closed due to roadwork.,266.0,W Allens Ln,L,Philadelphia,Philadelphia,PA,19119-4138,US,US/Eastern,KLOM,2020-04-03 09:15:00,47.0,42.0,53.0,29.4,10.0,NNW,13.0,0.0,Cloudy,False,False,True,False,False,False,False,False,False,True,False,False,False,Day,Day,Day,Day
C-4879419,2,2019-05-09 14:47:00.000000000,2021-12-26 01:44:00.000000000,41.548565,-73.734344,41.540225,-73.76473399999998,1.67385514595,Construction on I-84 WB near EXIT 19 Construction. Shoulder closed.,,I-84 W,R,Hopewell Junction,Dutchess,NY,12533,US,US/Eastern,KPOU,2021-12-01 08:53:00,38.0,31.0,68.0,29.96,10.0,WSW,10.0,0.0,Cloudy,False,False,False,False,True,False,False,False,False,False,False,False,False,Day,Day,Day,Day
C-4879420,2,2020-08-16 04:00:00.000000000,2020-08-16 12:45:00.000000000,33.577516,-84.279607,33.577561,-84.279246,0.0210120460432,Construction on GA-42 EB near I-675 Right lane closed. Expect delays.,,Highway 42,R,Rex,Clayton,GA,30273,US,US/Eastern,KATL,2020-08-16 03:52:00,73.0,73.0,87.0,28.82,10.0,NW,9.0,0.0,Fair,False,False,False,False,False,False,False,False,False,False,False,False,False,Night,Night,Night,Night
C-4879421,2,2021-03-16 06:32:30.000000000,2021-03-16 18:34:55.000000000,33.509242,-112.06622,33.510168,-112.065007,0.0947458465695,Stationary traffic from N 6th St to E Colter St due to roadwork.,523.0,E Camelback Rd,R,Phoenix,Maricopa,AZ,85012-1615,US,US/Mountain,KPHX,2021-03-16 06:51:00,49.0,43.0,43.0,28.63,10.0,W,15.0,0.0,Mostly Cloudy,False,False,False,False,False,False,False,False,False,False,False,False,False,Night,Day,Day,Day
C-4879422,2,2020-02-20 16:03:20.000000000,2020-02-24 16:04:07.000000000,40.19073,-76.84849,40.19073,-76.84849,0.0,At Exit 38 - Roadwork. Lane blocked. Open.,,I-83 S,R,New Cumberland,York,PA,17070,US,US/Eastern,KCXY,2020-02-20 15:56:00,36.0,31.0,37.0,30.02,10.0,NNW,6.0,0.0,Fair,False,False,False,False,False,False,False,False,False,False,False,False,False,Day,Day,Day,Day
C-4879423,2,2021-03-17 22:55:00.000000000,2021-03-18 01:47:30.000000000,35.055158,-81.789695,35.048424,-81.806203,1.04323029251,Stationary traffic on I-85 S from Green River Rd/Exit 86 (I-85) to SC-110/Exit 83 (I-85) due to roadwork.,,I-85 S,R,Cowpens,Cherokee,SC,29330,US,US/Eastern,KSPA,2021-03-17 22:55:00,50.0,50.0,94.0,29.16,3.0,CALM,0.0,0.01,Rain,False,False,False,False,False,False,False,False,False,False,False,False,False,Night,Night,Night,Night
C-4879424,2,2018-05-09 18:21:22.000000000,2018-05-10 00:22:15.000000000,39.90629000000001,-77.52316,39.904125,-77.469426,2.85193703313,Between E Main St/New Ln and PA-234/Buchanan Valley Rd - Roadwork. Lane blocked.,7031.0,Lincoln Way E,R,Fayetteville,Franklin,PA,17222-9542,US,US/Eastern,KRYT,,,,,,,,,,,False,False,False,False,False,False,False,False,False,False,False,False,False,Day,Day,Day,Day
C-4879425,2,2020-04-30 08:01:00.000000000,2020-05-01 17:01:00.000000000,39.23978,-123.17988,39.23613,-123.15523,1.34302596789,Between Rd A - Rd 231 and East Fork Russian River - Construction work.,,Road A,R,Ukiah,Mendocino,CA,95482,US,US/Pacific,KUKI,2020-04-30 07:56:00,58.0,58.0,78.0,29.45,10.0,CALM,0.0,0.0,Fair,False,False,False,False,False,False,False,False,False,False,False,False,False,Day,Day,Day,Day
C-4879426,2,2020-04-21 13:12:45.000000000,2020-04-22 05:00:00.000000000,39.95489,-74.2067,39.70987,-74.28265,17.4022763929,Between Lakehurst Rd/Exit 81 and RT-72/Exit 63 - Resurfacing work.,,Garden State Pkwy S,R,Toms River,Ocean,NJ,08755,US,US/Eastern,KMJX,2020-04-21 12:56:00,60.0,60.0,64.0,29.42,10.0,SW,17.0,0.0,Light Rain,False,False,False,False,False,False,False,False,False,False,False,False,False,Day,Day,Day,Day
C-4879427,3,2021-04-01 12:00:00.000000000,2021-07-30 19:00:00.000000000,43.416,-83.892616,,,0.129999995232,Entry ramp to I-75 Southbound from E Holland Rd Eastbound closed due to construction.,,I-75 S,R,Saginaw,Saginaw,MI,48601,US,US/Eastern,KHYX,2021-04-01 11:55:00,32.0,22.0,47.0,29.72,10.0,NNW,15.0,0.0,Mostly Cloudy,False,False,False,False,False,False,False,False,False,False,False,False,False,Day,Day,Day,Day
C-4879428,2,2021-03-03 04:41:00.000000000,2021-03-04 14:23:16.000000000,28.663104,-81.358752,28.664137,-81.357888,0.0885321370527,Stationary traffic on County Hwy-427 - FL-436 from Newburyport Ave to Leonard St due to roadwork.,978.0,E Altamonte Dr,R,Altamonte Springs,Seminole,FL,32701-5004,US,US/Eastern,KORL,2021-03-03 04:53:00,69.0,69.0,96.0,29.73,7.0,SSW,12.0,0.0,Cloudy,False,False,False,False,False,False,False,False,False,False,False,False,False,Night,Night,Night,Night
C-4879429,2,2020-08-21 03:19:00.000000000,2020-08-22 05:37:59.000000000,30.457315,-81.636165,30.456688,-81.632604,0.216469551875,Construction on I-295 SB near N MAIN ST Construction. Left lane closed.,,E Beltway S,R,Jacksonville,Duval,FL,32218,US,US/Eastern,KJAX,2020-08-21 02:56:00,73.0,73.0,96.0,29.83,10.0,CALM,0.0,0.0,Cloudy,False,False,False,False,False,False,False,False,False,False,False,False,False,Night,Night,Night,Night
C-4879430,2,2021-03-20 06:11:30.000000000,2021-03-20 19:03:43.000000000,33.524016,-112.119923,33.524445,-112.116893,0.177026834849,Slow traffic from N 28th Dr to W Rovey Ave due to roadwork.,5999.0,N 28th Dr,R,Phoenix,Maricopa,AZ,85017,US,US/Mountain,KPHX,2021-03-20 05:51:00,58.0,58.0,31.0,28.81,10.0,E,9.0,0.0,Fair,True,False,False,False,False,False,False,False,True,True,False,False,False,Night,Day,Day,Day
C-4879431,2,2019-08-06 07:24:00.000000000,2019-08-07 16:00:00.000000000,43.45238,-71.57016999999998,43.57083400000001,-71.621937,8.585630369019999,Between Belknap/Merrimack County Line and RT-104/RT-132/Exit 23 - Construction work. Right lane closed.,,Senator Styles Bridges Hwy N,R,Tilton,Belknap,NH,03276,US,US/Eastern,KLCI,2019-08-06 07:23:00,61.0,61.0,94.0,29.36,10.0,CALM,0.0,0.0,Fair,False,False,True,False,False,False,True,False,False,False,False,False,False,Day,Day,Day,Day
C-4879432,4,2021-01-22 15:00:00.000000000,2021-01-23 01:00:00.000000000,39.284972,-92.121713,39.298093,-92.121288,0.906859569085,MO-C is closed from Audrain Road 248 to Audrain Road 132 due to roadwork.,3592.0,Highway C,R,Centralia,Audrain,MO,65240,US,US/Central,KCOU,2021-01-22 14:54:00,35.0,28.0,34.0,29.26,10.0,N,9.0,0.0,Partly Cloudy,False,False,False,False,False,False,False,False,False,False,False,False,False,Day,Day,Day,Day
C-4879433,2,2020-09-09 15:01:00.000000000,2020-09-09 21:46:00.000000000,34.996937,-119.419809,34.963177,-119.446099,2.76696645767,Construction on CA-33 SB near TRUCK ESCAPE Expect long delays.,31898.0,Highway 33,L,Maricopa,Kern,CA,93252,US,US/Pacific,KBFL,2020-09-09 14:54:00,96.0,96.0,8.0,29.25,10.0,CALM,0.0,0.0,Fair,False,False,False,False,False,False,False,False,False,False,False,False,False,Day,Day,Day,Day
C-4879434,2,2021-10-05 12:35:30.000000000,2021-10-05 15:21:46.000000000,34.076041,-118.37335,34.076044,-118.377042,0.2112921993589999,Stationary traffic from N Fairfax Ave (Beverly Blvd) to N Robertson Blvd (Beverly Blvd) due to roadwork.,8401.0,Beverly Blvd,R,Los Angeles,Los Angeles,CA,90048-3401,US,US/Pacific,KSMO,2021-10-05 12:51:00,74.0,74.0,59.0,29.77,10.0,W,9.0,0.0,Fair,False,False,False,False,False,False,False,False,True,False,False,True,False,Day,Day,Day,Day
C-4879435,4,2021-03-15 20:12:00.000000000,2021-03-25 19:50:11.000000000,41.29004000000001,-84.76681500000002,41.289369,-84.768332,0.0913887748207999,OH-2 is closed from OH-49/Antwerp Dr (W High St/OH-2) to Ohio Ind State Line Rd/OH--IN State Border (OH-3/OH-2) due to roadwork.,1.0,Antwerp Dr,R,Hicksville,Defiance,OH,43526,US,US/Eastern,KGWB,2021-03-15 20:15:00,32.0,23.0,69.0,29.12,10.0,E,13.0,0.0,Cloudy,False,False,False,False,False,False,False,False,False,False,False,False,False,Night,Day,Day,Day
C-4879436,3,2021-05-27 10:00:00.000000000,2021-05-27 15:00:00.000000000,40.57584,-74.569275,,,0.0,Two lanes closed due to construction work on I-287 Northbound before US-22.,,I-287 S,R,Bridgewater,Somerset,NJ,08807,US,US/Eastern,KSMQ,2021-05-27 09:53:00,74.0,74.0,62.0,29.86,10.0,NW,10.0,0.0,Fair,False,False,False,False,False,False,False,False,False,False,False,False,False,Day,Day,Day,Day
C-4879437,3,2019-10-03 21:00:00.000000000,2019-10-04 05:00:00.000000000,39.860764,-75.35249300000002,,,0.6399999856949999,Right & center lane closed due to construction work on I-95 Southbound between Exit 7 I-476 Exit 1 and Exit 6 Chestnut St.,,I-95 N,R,Chester,Delaware,PA,19013,US,US/Eastern,KPHL,2019-10-03 20:54:00,63.0,63.0,93.0,29.98,3.0,CALM,0.0,0.0,Light Drizzle,False,False,False,False,False,False,False,False,False,False,False,False,False,Night,Night,Night,Night
C-4879438,3,2020-03-22 07:02:55.000000000,2020-03-26 07:02:30.000000000,39.2453,-84.47093000000002,39.21557,-84.47384,2.06004312072,At Galbraith Rd - Construction work.,9930.0,Springfield Pike,R,Cincinnati,Hamilton,OH,45215-1441,US,US/Eastern,KLUK,2020-03-22 06:53:00,29.0,21.0,82.0,29.96,10.0,NE,8.0,0.0,Fair,False,False,True,False,False,False,False,False,True,False,False,True,False,Night,Night,Day,Day
C-4879439,2,2021-06-21 09:58:30.000000000,2021-10-12 22:36:45.000000000,40.70485,-73.80927199999998,40.705539,-73.81062,0.0851552428641,Slow traffic on NY-25 from 88th Ave to 146th St due to roadwork.,8798.0,Sutphin Blvd,R,Jamaica,Queens,NY,11435-3342,US,US/Eastern,KJFK,2021-10-12 20:51:00,64.0,64.0,90.0,30.08,10.0,SW,5.0,0.0,Mostly Cloudy,True,False,True,False,False,False,True,False,True,False,False,True,False,Day,Day,Day,Day
C-4879440,2,2021-08-11 17:29:51.000000000,2021-08-11 17:50:40.000000000,44.94836,-93.284871,44.948368,-93.277932,0.339320575181,Slow traffic on County Hwy-3 from Lyndale Ave (CR-3) to I-35W (CR-3) due to roadwork.,450.0,W Lake St,R,Minneapolis,Hennepin,MN,55408-2909,US,US/Central,KMSP,2021-08-11 17:53:00,82.0,82.0,31.0,28.85,10.0,WSW,15.0,0.0,Fair,False,False,False,False,False,False,False,False,True,False,False,True,False,Day,Day,Day,Day
C-4879441,2,2021-06-30 06:40:30.000000000,2021-06-30 08:17:30.000000000,37.609022,-122.068418,37.589156,-122.054246,1.57668762389,Slow traffic on Nimitz Fwy S - I-880 S from Industrial Pkwy (I-880) to Alvarado Blvd/Fremont Blvd (I-880) due to roadwork.,,I-880 S,R,Union City,Alameda,CA,94587,US,US/Pacific,KHWD,2021-06-30 06:40:00,58.0,58.0,87.0,29.82,10.0,W,10.0,0.0,Cloudy,False,False,False,False,True,False,False,False,False,False,False,False,False,Day,Day,Day,Day
C-4879442,2,2021-04-14 13:45:41.000000000,2021-04-18 18:22:30.000000000,40.716457,-73.996565,40.718004,-73.999955,0.207223585702,Slow traffic from Manhattan Bridge (Canal St) to Centre St (Canal St) due to roadwork.,157.0,Canal St,R,New York,New York,NY,10013-4511,US,US/Eastern,KJRB,2021-04-14 13:51:00,70.0,,31.0,29.88,10.0,,,0.0,Mostly Cloudy,True,False,True,False,False,False,True,False,True,False,False,True,False,Day,Day,Day,Day
C-4879443,2,2021-11-23 13:49:30.000000000,2021-11-23 14:09:30.000000000,32.744434000000005,-96.757946,32.733894,-96.757864,0.728260234955,Slow traffic on TX-310 S from US-175/Hawn Fwy (S Central Expy/TX-310) to E Overton Rd (S Central Expy/TX-310) due to roadwork.,5331.0,S Central Expy,R,Dallas,Dallas,TX,75215-4902,US,US/Central,KDAL,2021-11-23 13:53:00,69.0,69.0,24.0,29.58,10.0,SSE,15.0,0.0,Fair,False,False,False,False,False,False,False,False,False,False,False,False,False,Day,Day,Day,Day
C-4879445,2,2021-11-03 16:11:00.000000000,2021-11-03 18:22:32.000000000,33.509221999999994,-112.050777,33.508519,-112.047532,0.1931519491010001,Slow traffic from N 14th Pl to E Pierson St due to roadwork.,1417.0,E Camelback Rd,R,Phoenix,Maricopa,AZ,85014-3315,US,US/Mountain,KPHX,2021-11-03 15:51:00,84.0,84.0,17.0,28.75,10.0,WNW,7.0,0.0,Fair,True,False,False,False,False,False,False,False,True,True,False,False,False,Day,Day,Day,Day
C-4879446,2,2016-05-26 10:42:49.000000000,2016-05-26 14:00:00.000000000,35.73909000000001,-118.55648,35.73214,-118.54654,0.73578245001,At Charlott Dr - Construction work. Single alternate lane traffic.,6205.0,Evans Rd,L,Wofford Heights,Kern,CA,93285-9686,US,US/Pacific,KIYK,2016-05-26 10:56:00,77.0,77.0,23.0,27.6,10.0,NNE,5.0,0.0,Fair,False,False,False,False,False,False,False,False,False,False,False,False,False,Day,Day,Day,Day
C-4879447,2,2020-09-08 13:59:00.000000000,2020-09-08 21:20:04.000000000,40.380542,-79.810232,40.381482,-79.81290600000001,0.155001571298,Stationary traffic on US-30 from PA-48/Mosside Blvd/Jacks Run Rd (US-30) to PA-686 (US-30) due to roadwork.,468.0,Lincoln Hwy,R,North Versailles,Allegheny,PA,15137-2016,US,US/Eastern,KAGC,2020-09-08 13:53:00,83.0,83.0,53.0,28.78,10.0,S,6.0,0.0,Fair,False,False,False,False,False,False,False,False,False,False,False,False,False,Day,Day,Day,Day
C-4879448,2,2020-09-23 23:33:20.000000000,2020-10-26 07:43:59.000000000,40.747106,-73.950023,40.746223,-73.94552900000002,0.243022801194,Construction on 45TH RD near 11TH ST Allow extra time.,4525.0,11th St,L,Long Island City,Queens,NY,11101,US,US/Eastern,KNYC,2020-09-23 23:51:00,70.0,70.0,51.0,29.82,10.0,CALM,0.0,0.0,Fair,True,False,True,False,False,False,True,False,True,True,False,True,False,Night,Night,Night,Night
C-4879449,2,2021-12-23 11:38:01.000000000,2021-12-23 12:00:18.000000000,30.233644,-92.089005,30.234214,-92.09384,0.291300403555,Slow traffic on US-90 E - US-90 W - US-93 E - US-93 W - LA-93 from Westgate Rd to Saint Mary St due to roadwork.,5541.0,Cameron St,R,Scott,Lafayette,LA,70583-5201,US,US/Central,KLFT,2021-12-23 11:53:00,66.0,66.0,45.0,30.15,10.0,VAR,6.0,0.0,Fair,False,False,False,False,False,False,False,False,False,False,False,False,False,Day,Day,Day,Day
C-4879450,4,2018-06-08 05:02:27.000000000,2018-07-31 19:00:00.000000000,41.67869,-83.57337,41.677724,-83.573758,0.0696829120347,At I-475/Exit 204 - Roadwork.,,I-75 S,R,Toledo,Lucas,OH,43610,US,US/Eastern,KDUH,2018-06-08 04:55:00,63.1,,84.0,30.1,10.0,Calm,,,Clear,False,False,False,False,False,False,False,False,False,False,False,False,False,Night,Night,Day,Day
C-4879451,2,2020-05-11 07:30:00.000000000,2020-05-11 17:00:00.000000000,42.061008,-71.65139,,,13.0500001907,Intermittent ramp closures and intermittent lane closures due to paving repairs on MA-146 both ways between MA-146A Quaker Hwy and Mill St.,,MA-146 N,R,Uxbridge,Worcester,MA,01569,US,US/Eastern,KSFZ,2020-05-11 07:56:00,50.0,50.0,74.0,29.43,10.0,S,5.0,0.0,Fair,False,False,False,False,False,False,False,False,False,False,False,False,False,Day,Day,Day,Day
C-4879452,2,2020-10-19 12:55:00.000000000,2020-10-20 03:37:02.000000000,40.556966,-75.99798,40.555481,-76.002252,0.246615984977,Stationary traffic on PA-61 from I-78 E to I-78 W due to roadwork.,,US-22 E,R,Hamburg,Berks,PA,19526,US,US/Eastern,KRDG,2020-10-19 12:54:00,63.0,63.0,78.0,29.91,10.0,SE,7.0,0.0,Mostly Cloudy,False,False,False,False,False,False,False,False,False,False,False,False,False,Day,Day,Day,Day
C-4879453,2,2018-12-17 09:03:18.000000000,2019-02-02 15:30:00.000000000,26.31792,-80.12518399999998,26.31795,-80.121239,0.244329456787,At Jim Moran Blvd - Construction work.,1616.0,W Hillsboro Blvd,L,Deerfield Beach,Broward,FL,33442-1600,US,US/Eastern,KPMP,2018-12-22 08:53:00,61.0,,70.0,30.15,10.0,North,6.9,,Clear,False,False,False,False,False,False,False,False,False,False,False,False,False,Day,Day,Day,Day
C-4879455,2,2020-04-13 07:01:00.000000000,2020-04-13 19:30:00.000000000,40.96864,-124.11584,40.99385,-124.11331,1.7468369370400003,Between Airport Rd Undercrossing and North Central Ave Undercrossing - Construction work. Lane closed.,,Airport Rd,R,McKinleyville,Humboldt,CA,95519,US,US/Pacific,KACV,2020-04-13 06:53:00,37.0,37.0,93.0,29.91,7.0,NE,3.0,0.0,Fair,False,False,False,False,False,False,False,False,False,False,False,False,False,Day,Day,Day,Day
C-4879456,2,2021-03-16 06:05:30.000000000,2021-03-16 16:13:29.000000000,25.886455,-80.21079499999998,25.883804,-80.210666,0.183342098206,Stationary traffic on US-441 S from North Miami Blvd/125th St (US-441) to FL-924/119th St/Gratigny Rd (US-441) due to roadwork.,12200.0,NW 7th Ave,L,North Miami,Miami-Dade,FL,33168-2602,US,US/Eastern,KOPF,2021-03-16 05:53:00,70.0,70.0,81.0,30.06,10.0,SE,3.0,0.0,Fair,False,False,False,False,False,False,False,False,False,False,False,True,False,Night,Night,Night,Night
C-4879457,2,2021-10-16 12:25:00.000000000,2021-10-16 12:45:30.000000000,33.538555,-112.119339,33.538039000000005,-112.116902,0.14480562215,Slow traffic from N 28th Dr to W Lamar Rd due to roadwork.,2786.0,W Glendale Ave,R,Phoenix,Maricopa,AZ,85051-8429,US,US/Mountain,KDVT,2021-10-16 12:53:00,86.0,86.0,10.0,28.4,10.0,SE,9.0,0.0,Fair,True,False,False,False,False,True,False,False,True,False,False,False,False,Day,Day,Day,Day
C-4879458,2,2021-10-10 12:26:00.000000000,2021-10-10 12:47:00.000000000,34.621701,-92.504542,34.624546,-92.499587,0.343527525343,Stationary traffic on AR-5 from Springhill Rd (Stagecoach Rd/AR-5) to AR-183/Commonwealth Dr/Reynolds Rd (Stagecoach Rd/AR-5) due to roadwork.,5098.0,Highway 5 N,R,Bryant,Saline,AR,72022-7036,US,US/Central,KLIT,2021-10-10 12:53:00,83.0,83.0,53.0,29.58,10.0,SSW,14.0,0.0,Fair,False,False,True,False,False,False,False,False,False,False,False,False,False,Day,Day,Day,Day
C-4879459,2,2021-09-29 15:40:30.000000000,2021-09-29 18:09:15.000000000,39.703473,-104.996161,39.694641,-104.993645,0.624719469146,Slow traffic on US-85 S from I-25/US-87 (Denver) (S Santa Fe Dr/US-85) to W Florida Ave (S Santa Fe Dr/US-85) due to roadwork.,,S Kalamath St,R,Denver,Denver,CO,80223,US,US/Mountain,KAPA,2021-09-29 15:53:00,54.0,54.0,100.0,24.2,10.0,NNE,12.0,0.09,Mostly Cloudy,False,False,False,False,False,True,False,False,False,False,False,False,False,Day,Day,Day,Day
C-4879460,2,2021-09-25 10:40:39.000000000,2021-09-25 11:07:20.000000000,40.684468,-73.977705,40.688867,-73.98084,0.345483736327,Slow traffic from Atlantic Ave (Flatbush Ave) to Tillary St (Flatbush Ave) due to roadwork.,125.0,Flatbush Ave,L,Brooklyn,Kings,NY,11217-1403,US,US/Eastern,KJRB,2021-09-25 10:51:00,69.0,69.0,51.0,29.95,10.0,VAR,5.0,0.0,Fair,True,False,True,False,False,False,True,False,True,False,False,True,False,Day,Day,Day,Day
C-4879461,2,2020-04-09 09:04:08.000000000,2020-04-14 09:02:02.000000000,42.66371,-73.75863000000003,42.66371,-73.75863000000003,0.0,At US-9W/Lark St - Construction work. Right lane closed.,213.0,Henry Johnson Blvd,L,Albany,Albany,NY,12210-1523,US,US/Eastern,KALB,2020-04-10 08:51:00,41.0,31.0,55.0,28.94,10.0,W,24.0,0.0,Mostly Cloudy / Windy,False,False,True,False,False,False,False,False,True,False,False,True,False,Day,Day,Day,Day
C-4879462,2,2019-01-28 10:12:39.000000000,2019-02-01 10:12:39.000000000,39.954361,-75.513911,39.956413,-75.515455,0.163672421348,At PA-3/West Chester Pike/Chester Rd - Roadwork. Traffic problem.,1598.0,Woodland Rd,R,West Chester,Chester,PA,19382-7836,US,US/Eastern,KOQN,2019-01-28 10:15:00,25.0,18.0,54.0,29.41,10.0,VAR,6.0,0.0,Fair,False,False,False,False,False,False,False,False,False,False,False,False,False,Day,Day,Day,Day
C-4879463,2,2021-06-30 19:53:00.000000000,2021-06-30 20:42:00.000000000,34.898719,-98.389969,34.898635,-98.380734,0.523361258366,Stationary traffic on OK-19 from CR-2550 (OK-19) to US-62/US-281 (OK-19) due to roadwork.,,State Highway 19,R,Apache,Caddo,OK,73006,US,US/Central,KFSI,2021-06-30 19:56:00,84.0,84.0,66.0,28.77,10.0,SSE,6.0,0.0,Fair,False,False,False,False,False,False,False,False,False,False,False,False,False,Day,Day,Day,Day
C-4879464,2,2021-06-17 16:45:00.000000000,2021-12-29 13:00:32.000000000,39.622498,-104.98798700000002,39.624136,-104.988775,0.120695038734,Slow traffic on CO-88 - CO-75 from E Centennial Ave to S Acoma St due to roadwork.,5173.0,S Broadway,R,Englewood,Arapahoe,CO,80113-6705,US,US/Mountain,KAPA,2021-06-17 16:53:00,90.0,90.0,16.0,24.22,10.0,SW,15.0,0.0,Cloudy,False,False,False,False,False,False,False,False,False,False,False,False,False,Day,Day,Day,Day
C-4879465,2,2021-10-11 22:01:00.000000000,2021-10-12 05:44:00.000000000,33.870474,-117.744501,33.871754,-117.745421,0.102990856632,Construction on WEIR CANYON RD NB near CA-91 Expect delays.,,S Weir Canyon Rd,R,Anaheim,Orange,CA,92808,US,US/Pacific,KAJO,2021-10-11 21:56:00,62.0,62.0,23.0,29.17,10.0,W,8.0,0.0,Cloudy,False,False,False,False,False,False,False,False,False,False,False,True,False,Night,Night,Night,Night
C-4879466,2,2020-10-05 14:00:00.000000000,2020-10-13 22:00:00.000000000,33.637119,-112.234991,33.637381,-112.235088,0.0189429317415,Paradise Ln FROM: Arrowhead Fountains Dr TO: Stadium Wy - road construction - Paving Water and Sewer project by Alexander Building. Contact Dylan Hasse 480-748-4536,16847.0,N Arrowhead Fountains Center Dr,R,Peoria,Maricopa,AZ,85382,US,US/Mountain,KGEU,2020-10-05 13:56:00,98.0,98.0,7.0,28.79,10.0,CALM,0.0,0.0,Fair,False,False,True,False,False,False,False,False,False,False,False,False,False,Day,Day,Day,Day
C-4879467,2,2020-07-17 15:56:00.000000000,2020-07-17 21:45:00.000000000,39.134856,-75.527089,39.143876,-75.505319,1.32267755219,Construction on PUNCHEON RUN CONN EB near PUNCHEON RUN CONN Allow extra time.,1403.0,S Dupont Hwy,R,Dover,Kent,DE,19901-4905,US,US/Eastern,KDOV,2020-07-17 15:56:00,90.0,90.0,58.0,30.03,10.0,WSW,5.0,0.0,Fair,False,False,False,False,False,False,False,False,False,False,False,False,False,Day,Day,Day,Day
C-4879468,2,2021-08-17 18:19:05.000000000,2021-08-21 15:00:40.000000000,44.669459,-93.608896,44.667449,-93.613174,0.251946113506,Roadwork on CR-15/Marystown Rd (MN-282) from MN-21/Broadway St (MN-282) to MN-282.,4295.0,Country Trl W,R,Jordan,Scott,MN,55352-9316,US,US/Central,KFCM,2021-08-17 17:53:00,86.0,86.0,55.0,28.9,10.0,S,15.0,0.0,Fair,False,False,False,False,False,False,False,False,False,False,False,False,False,Day,Day,Day,Day
C-4879469,2,2020-12-02 18:07:00.000000000,2020-12-02 23:45:00.000000000,40.687426,-73.61750699999997,40.689306,-73.628947,0.613270127747,Construction on SOUTHERN STATE PKWY WB near GRAND AVE Construction. Right lane closed.,,Southern State Pkwy W,R,Hempstead,Nassau,NY,11550,US,US/Eastern,KJFK,2020-12-02 17:51:00,43.0,34.0,56.0,30.03,10.0,WSW,21.0,0.0,Fair / Windy,False,False,False,False,False,False,False,False,False,False,False,False,False,Night,Night,Night,Night
C-4879470,2,2021-03-25 14:05:00.000000000,2021-03-25 15:12:00.000000000,38.807755,-77.496517,38.801865,-77.515907,1.12053799888,Slow traffic on I-66 W from US-29/Exit 52 (I-66) to VA-234/Exit 47 (I-66) due to roadwork.,,I-66 W,R,Manassas,Prince William,VA,20109,US,US/Eastern,KHEF,2021-03-25 13:56:00,60.0,60.0,93.0,29.87,10.0,VAR,3.0,0.0,Cloudy,False,False,False,False,False,False,False,False,False,False,False,False,False,Day,Day,Day,Day
C-4879471,2,2020-03-11 09:01:00.000000000,2020-03-11 16:01:00.000000000,38.64996,-120.13128,38.63743,-120.14213,1.04515121783,Between Plasse Road (Right) and Mud Lake Road (Right) - Maintenance work.,,Kays Rd,R,Pioneer,Amador,CA,95666,US,US/Pacific,KPVF,2020-03-11 09:15:00,54.0,54.0,54.0,27.39,10.0,ENE,6.0,0.0,,False,False,False,False,False,False,False,False,False,True,False,False,False,Day,Day,Day,Day
C-4879472,4,2020-06-09 00:12:46.000000000,2020-06-09 05:12:23.000000000,42.54346,-83.34089,42.54367,-83.33391999999998,0.3551079249759999,Closed at Inkster Rd - Closed due to roadwork.,,W Maple Rd,R,West Bloomfield,Oakland,MI,48322,US,US/Eastern,KPTK,2020-06-09 00:53:00,67.0,67.0,34.0,28.9,10.0,S,5.0,0.0,Fair,False,False,True,False,False,False,False,False,False,False,False,False,False,Night,Night,Night,Night
C-4879473,2,2020-09-07 16:30:00.000000000,2020-09-07 22:00:00.000000000,38.89115,-86.904267,38.896327,-86.921859,1.01139610509,Construction work on IN-558 from Old State Road 558 to N US Highway 231.,,State Road 558,R,Crane,Martin,IN,47522,US,US/Eastern,,,,,,,,,,,,False,False,False,False,False,False,False,False,False,False,False,False,False,Day,Day,Day,Day
C-4879474,2,2021-04-08 05:07:30.000000000,2021-04-08 16:06:26.000000000,40.729511,-73.974914,40.729934,-73.972431,0.1332513706409999,Stationary traffic from E 14th St to FDR Dr S due to roadwork.,278.0,Avenue C,L,New York,New York,NY,10009-2547,US,US/Eastern,KJRB,2021-04-08 04:51:00,50.0,50.0,63.0,30.0,10.0,SW,3.0,0.0,Fair,False,False,True,False,False,False,False,False,False,False,False,False,False,Night,Night,Night,Day
C-4879475,2,2021-06-24 10:34:00.000000000,2021-12-15 11:23:30.000000000,28.054492,-82.392412,28.05351,-82.393782,0.107619097337,Slow traffic on FL-583 - FL-582 from N 58th St to Grandville Dr due to roadwork.,,E Fowler Ave,R,Tampa,Hillsborough,FL,33617,US,US/Eastern,KVDF,,,,,,,,,,,True,False,False,False,False,False,False,False,True,False,False,False,False,Day,Day,Day,Day
C-4879476,2,2021-05-20 19:44:00.000000000,2021-05-21 02:00:10.000000000,35.99047,-80.486387,36.00605,-80.44495699999997,2.55385365523,Roadwork on Farmington Rd/Exit 174 (I-40) from NC-801/Exit 180 (I-40) to I-40 E.,,I-40 E,R,Advance,Davie,NC,27006,US,US/Eastern,KINT,2021-05-20 19:54:00,79.0,79.0,35.0,29.34,10.0,SE,3.0,0.0,Fair,False,False,False,False,False,False,False,False,False,False,False,False,False,Day,Day,Day,Day
C-4879477,2,2020-10-24 12:37:30.000000000,2020-10-25 08:59:18.000000000,32.179156,-95.795396,32.154969,-95.751818,3.04778797101,Roadwork on US-175 from TX-7 Loop (Athens) (East) (US-175) to FM-804 (US-175).,3972.0,US Highway 175 E,L,Athens,Henderson,TX,75752,US,US/Central,KF44,2020-10-24 12:35:00,54.0,54.0,72.0,29.65,10.0,CALM,0.0,0.0,Cloudy,False,False,False,False,False,False,False,False,False,False,False,False,False,Day,Day,Day,Day
C-4879478,2,2021-06-05 10:44:00.000000000,2021-06-05 11:11:02.000000000,41.75031,-78.526207,41.77886,-78.504367,2.27113841967,Slow traffic on US-6 W - US-6 E from PA-146 (Grand Army of the Republic Hwy/US-6) to PA-59/Marvin St/W Main St (Grand Army of the Republic Hwy/US-6) due to roadwork.,2.0,Kasson Rd,R,Smethport,McKean,PA,16749-2414,US,US/Eastern,KBFD,2021-06-05 10:53:00,77.0,77.0,43.0,27.79,10.0,W,12.0,0.0,Fair,False,False,False,False,False,False,False,False,False,True,False,False,False,Day,Day,Day,Day
C-4879479,4,2021-03-23 06:06:17.000000000,2021-04-25 03:44:00.000000000,40.593147,-80.16359,40.593031,-80.166848,0.171122267767,Closed road from Beech Ridge Dr to Backbone Rd / Turkey Foot Rd due to roadwork.,1549.0,Campmeeting Rd,R,Sewickley,Allegheny,PA,15143-8414,US,US/Eastern,KPIT,2021-03-23 05:51:00,40.0,40.0,40.0,28.88,10.0,CALM,0.0,0.0,Fair,False,False,False,False,False,False,False,False,False,False,False,False,False,Night,Night,Night,Day
C-4879480,2,2020-09-02 22:28:00.000000000,2020-09-02 23:07:00.000000000,40.73278,-73.918877,40.73514,-73.918392,0.165025721685,Stationary traffic from I-495 W to Brooklyn Queens Expy due to resurfacing work.,5598.0,47th St,R,Woodside,Queens,NY,11377-7341,US,US/Eastern,KLGA,2020-09-02 22:51:00,76.0,76.0,87.0,29.78,10.0,S,6.0,0.0,Cloudy,True,False,False,False,False,False,False,False,True,False,False,True,False,Night,Night,Night,Night
C-4879481,2,2021-06-28 05:49:18.000000000,2021-06-30 07:41:47.000000000,36.08442700000001,-96.006559,36.095896,-96.006564,0.792432477985,Roadwork on 61st St (US-75) from 41st St (US-75) to US-75 N.,,Okmulgee Expy N,R,Tulsa,Tulsa,OK,74107,US,US/Central,KRVS,2021-06-28 05:53:00,74.0,74.0,93.0,29.3,8.0,SE,5.0,0.02,Light Rain,False,False,False,False,False,False,False,False,False,False,False,False,False,Night,Day,Day,Day
C-4879482,2,2020-07-14 15:57:46.000000000,2020-07-15 16:47:52.000000000,39.181755,-76.613488,39.226596,-76.613341,3.0982280226700003,Construction on MD-2 NB near FURNACE BRANCH RD Expect delays.,7050.0,E Furnace Branch Rd,R,Glen Burnie,Anne Arundel,MD,21060,US,US/Eastern,KBWI,2020-07-14 15:54:00,90.0,90.0,31.0,29.82,10.0,NW,8.0,0.0,Partly Cloudy,False,False,False,False,False,False,False,False,False,False,False,True,False,Day,Day,Day,Day
C-4879483,2,2021-11-10 17:38:00.000000000,2021-11-10 19:44:13.000000000,33.540081,-112.15144,33.537925,-112.151439,0.14896542368,Stationary traffic from W Northern Ave (N 43rd Ave) to W Bethany Home Rd (N 43rd Ave) due to roadwork.,7088.0,N 43rd Ave,L,Glendale,Maricopa,AZ,85301-2903,US,US/Mountain,KGEU,2021-11-10 17:58:00,76.0,76.0,25.0,28.79,10.0,SW,10.0,0.0,Fair,False,False,False,False,False,False,False,False,True,False,False,False,False,Night,Day,Day,Day
C-4879484,2,2020-09-25 13:29:30.000000000,2020-09-26 01:18:04.000000000,26.304225,-80.092939,26.305044,-80.093463,0.0652344623103,Stationary traffic on US-1 N - FL-869 - FL-5 from N Federal Hwy / NE 54th St to SE 6th Ave due to roadwork.,1044.0,S Federal Hwy,L,Deerfield Beach,Broward,FL,33441-7033,US,US/Eastern,KPMP,2020-09-25 13:28:00,82.0,82.0,85.0,29.97,1.0,S,12.0,0.17,Heavy T-Storm,False,False,False,False,False,False,False,False,False,False,False,False,False,Day,Day,Day,Day
C-4879485,2,2016-05-18 09:00:00.000000000,2016-05-18 20:30:00.000000000,42.005581,-96.228828,,,0.0,Intermittent lane closures due to construction work on IA-175 both ways in Decatur. Pilot car in operation.,15838.0,Highway 175,R,Onawa,Monona,IA,51040,US,US/Central,KTQE,2016-05-18 08:54:00,54.0,,69.0,30.26,10.0,Calm,,,Clear,False,False,False,False,False,False,False,False,False,False,False,False,False,Day,Day,Day,Day
C-4879486,2,2021-04-06 07:03:30.000000000,2021-04-06 19:21:10.000000000,42.070199,-88.043982,42.068424,-88.043983,0.122640830425,Slow traffic from Old Plum Grove Rd (S Meacham Rd) to IL-62/E Algonquin Rd (N Meacham Rd) due to roadwork.,2208.0,S Meacham Rd,R,Palatine,Cook,IL,60067-7462,US,US/Central,KPWK,2021-04-06 06:52:00,59.0,59.0,69.0,29.2,10.0,S,7.0,0.0,Fair,False,False,True,False,False,False,False,False,False,False,False,True,False,Day,Day,Day,Day
C-4879487,2,2021-08-11 22:20:30.000000000,2021-08-11 22:43:00.000000000,40.810183,-73.937414,40.809009,-73.934862,0.1561762975099999,Slow traffic from Madison Ave to Harlem River Dr S due to roadwork.,2099.0,Madison Ave,R,New York,New York,NY,10037-3706,US,US/Eastern,KNYC,2021-08-11 21:51:00,75.0,75.0,90.0,29.9,4.0,CALM,0.0,0.11,Light Rain,False,False,False,False,False,False,False,False,True,False,False,True,False,Night,Night,Night,Night
C-4879488,2,2019-10-19 20:02:16.000000000,2019-10-23 20:02:07.000000000,41.12488,-73.3957,41.12606,-73.39104,0.255871580596,At Strawberry Hill Ave - Construction work.,280.0,Westport Ave,R,Norwalk,Fairfield,CT,06851-4312,US,US/Eastern,KBDR,2019-10-19 19:52:00,51.0,51.0,68.0,30.02,10.0,CALM,0.0,0.0,Fair,False,False,False,False,False,False,False,False,False,False,False,False,False,Night,Night,Night,Night
C-4879489,2,2021-09-02 16:50:30.000000000,2021-09-02 17:11:00.000000000,38.95751,-84.621369,38.956275,-84.628074,0.370216718849,Stationary traffic on KY-2953 - KY-536 from US-25 (Mt Zion Rd/KY-536) to I-71/I-75 (Mt Zion Rd/KY-536) due to roadwork.,136.0,Mount Zion Rd,L,Florence,Boone,KY,41042-3245,US,US/Eastern,KCVG,2021-09-02 16:52:00,79.0,79.0,38.0,29.12,10.0,NE,12.0,0.0,Fair,False,False,False,False,False,False,False,False,False,False,False,True,False,Day,Day,Day,Day
C-4879490,2,2018-06-29 09:09:12.000000000,2018-06-29 15:09:12.000000000,38.96708,-76.96222,38.96708,-76.96222,0.0,At Toledo Ter - Construction work. Right lane blocked. Hard shoulder blocked.,3400.0,East-West Hwy,L,Hyattsville,Prince George's,MD,20782,US,US/Eastern,KCGS,,,,,,,,,,,False,False,True,False,False,False,False,False,False,False,False,True,False,Day,Day,Day,Day
C-4879491,2,2020-10-22 13:01:00.000000000,2020-10-23 01:44:00.000000000,36.049771,-119.520948,36.036349,-119.510564,1.09387557581,Construction on CA-43 SB near AVENUE 144 Expect long delays.,14366.0,Central Valley Hwy,R,Corcoran,Tulare,CA,93212,US,US/Pacific,KHJO,2020-10-22 12:53:00,80.0,80.0,38.0,29.57,8.0,NW,8.0,0.0,Fair,False,False,False,False,False,False,False,False,False,False,False,False,False,Day,Day,Day,Day
C-4879492,2,2018-11-05 09:00:00.000000000,2018-11-05 15:00:00.000000000,37.281437,-77.319695,,,0.0,Single alternate line traffic due to utility work on Cedar Level Rd at Wilmington Ave.,611.0,Cedar Level Rd,R,Hopewell,Hopewell,VA,23860-4601,US,US/Eastern,KRIC,2018-11-05 08:54:00,59.0,,96.0,30.15,3.0,North,5.8,0.1,Light Rain,False,False,False,False,False,False,False,False,False,False,False,False,False,Day,Day,Day,Day
C-4879493,2,2018-07-21 21:00:40.000000000,2018-07-25 21:00:38.000000000,35.49545999999999,-80.56577,35.59625,-80.53538,7.17043247899,Between Lane St/Exit 63 and Webb Rd/Exit 70 - Construction work.,,US-601 N,R,Kannapolis,Cabarrus,NC,28083,US,US/Eastern,KJQF,2018-07-21 20:50:00,82.4,,58.0,29.8,10.0,West,4.6,,Scattered Clouds,False,False,False,False,False,False,False,False,False,False,False,False,False,Night,Day,Day,Day
C-4879494,2,2020-09-28 18:02:30.000000000,2020-09-28 21:37:00.000000000,34.870243,-97.331159,34.916982,-97.356015,3.5232056859,Queuing traffic on I-35 from OK-145/Exit 79 (I-35) to OK-59/Exit 86 (I-35) due to roadwork.,,I-35 N,R,Wayne,McClain,OK,73095,US,US/Central,KPVJ,2020-09-28 17:55:00,71.0,71.0,25.0,29.08,10.0,NNW,16.0,0.0,Fair,False,False,False,False,False,False,False,False,False,False,False,False,False,Day,Day,Day,Day
C-4879495,2,2021-01-25 18:23:00.000000000,2021-01-26 19:52:01.000000000,40.006761,-75.199745,40.006398,-75.199198,0.0383028275505,Construction on I-76 EB near GREEN LN Allow extra time.,,US-1 N,R,Philadelphia,Philadelphia,PA,19131,US,US/Eastern,KPHL,2021-01-25 17:54:00,36.0,36.0,43.0,30.09,10.0,CALM,0.0,0.0,Cloudy,False,False,False,False,True,False,False,False,False,False,False,False,False,Night,Night,Night,Day
C-4879496,3,2021-05-20 00:00:00.000000000,2021-07-13 00:00:00.000000000,39.946949,-77.172607,,,3.72000002861,Road closed due to bridge maintenance work on PA-234 Heidlersburg Rd both ways between Rupp Rd and Schoolhouse Rd.,1.0,Schoolhouse Rd,R,Aspers,Adams,PA,17304-9753,US,US/Eastern,KTHV,2021-05-20 00:53:00,58.0,58.0,84.0,29.83,10.0,CALM,0.0,0.0,Fair,False,False,False,False,False,False,False,False,False,False,False,False,False,Night,Night,Night,Night
C-4879497,4,2021-04-02 09:00:00.000000000,2021-04-02 16:30:00.000000000,32.814084,-82.40425,32.661192,-82.377482,10.6777695237,GA-4 - US-1 S is closed from US-1 Bus/GA-4 Bus/Main St (US-1) to US-1 Bus/GA-57/Bill English Hwy (North) (US-1) due to roadwork.,3799.0,US Highway 1 N,L,Midville,Emanuel,GA,30441-4949,US,US/Eastern,KSBO,2021-04-02 08:55:00,41.0,36.0,39.0,30.04,10.0,NE,8.0,0.0,Fair,False,False,False,False,False,False,False,False,False,False,False,False,False,Day,Day,Day,Day
C-4879498,2,2021-08-16 12:51:00.000000000,2021-08-16 13:05:30.000000000,41.300956,-105.607746,41.297847,-105.596131,0.640034776086,Slow traffic on I-80 E from WY-230/Snowy Range Rd/Exit 311 (I-80) to US-287/S 3rd St/Exit 313 (I-80) due to roadwork.,,I-80 E,R,Laramie,Albany,WY,82070,US,US/Mountain,KLAR,2021-08-16 12:53:00,77.0,77.0,24.0,23.08,10.0,VAR,6.0,0.0,Fair,False,False,False,False,False,False,False,False,False,False,False,False,False,Day,Day,Day,Day
C-4879499,2,2021-10-06 18:32:00.000000000,2021-10-11 12:48:10.000000000,33.026814,-96.76883,33.026854,-96.770837,0.116296320924,Slow traffic on FM-544 from Promontory Pt to Daybreak Trl due to roadwork.,3953.0,W Park Blvd,L,Plano,Collin,TX,75075-3544,US,US/Central,KADS,2021-10-11 09:47:00,68.0,68.0,60.0,29.21,10.0,W,5.0,0.0,Fair,False,False,False,False,False,False,False,False,False,False,False,False,False,Day,Day,Day,Day
C-4879500,2,2021-10-15 19:29:30.000000000,2021-10-15 21:37:33.000000000,39.302337,-76.620355,39.30111,-76.620166,0.0853777381,Stationary traffic from US-1/W North Ave (N Howard St) to W Chase St/Read St (N Howard St) due to roadwork.,,N Howard St,R,Baltimore,Baltimore City,MD,21201,US,US/Eastern,KDMH,,,,,,,,,,,False,False,True,False,False,False,True,False,False,False,False,True,False,Night,Night,Night,Day
C-4879501,2,2021-03-18 04:21:30.000000000,2021-03-18 16:45:36.000000000,25.791034,-80.141189,25.792028,-80.141903,0.0817910371538,Slow traffic on FL-907 from Lincoln Rd to Dade Blvd / Bay Rd due to roadwork.,1659.0,Alton Rd,R,Miami Beach,Miami-Dade,FL,33139-2427,US,US/Eastern,KMIA,2021-03-18 03:53:00,75.0,75.0,82.0,30.02,10.0,SE,7.0,0.0,Fair,True,False,False,False,False,False,False,False,False,True,True,False,False,Night,Night,Night,Night
C-4879502,2,2021-06-17 20:32:00.000000000,2021-06-18 05:36:58.000000000,32.047709000000005,-82.34775400000002,32.057479,-82.332504,1.11947659699,Roadwork on US Highway 1 S from Je Lillard Rd to GA-56.,6361.0,US Highway 1 S,R,Lyons,Toombs,GA,30436-5959,US,US/Eastern,KVDI,2021-06-17 20:35:00,82.0,82.0,54.0,29.72,10.0,CALM,0.0,0.0,Fair,False,False,False,False,False,False,False,False,False,False,False,False,False,Day,Day,Day,Day
C-4879503,2,2021-11-01 13:47:30.000000000,2021-11-01 14:46:30.000000000,48.193519,-114.383521,48.196844,-114.373304,0.52365307318,Stationary traffic on US-2 W - US-2 E from McKillip Rd (US-2) to US-93 Alt (US-2) due to roadwork.,2182.0,US Highway 2 W,R,Kalispell,Flathead,MT,59901-7384,US,US/Mountain,KGPI,2021-11-01 13:55:00,41.0,41.0,40.0,27.1,10.0,NNE,3.0,0.0,Fair,False,False,False,False,False,False,False,False,False,False,False,False,False,Day,Day,Day,Day
C-4879504,2,2021-07-04 16:11:03.000000000,2021-07-23 05:45:00.000000000,40.726463,-73.977088,40.728438,-73.975688,0.154902470838,Slow traffic from E Houston St (Avenue C) to FDR Dr/Avenue C (Avenue C) due to roadwork.,668.0,E 11th St,R,New York,New York,NY,10009-4124,US,US/Eastern,KJRB,2021-07-04 15:51:00,78.0,78.0,48.0,29.79,10.0,NNW,5.0,0.0,Fair,True,False,True,False,False,False,False,False,True,False,False,True,False,Day,Day,Day,Day
C-4879505,2,2019-12-12 12:40:17.000000000,2019-12-16 12:39:37.000000000,26.60737,-80.11411,26.587190000000003,-80.11365,1.39459480854,Between Melaleuca Ln and Hypoluxo Rd - Construction work. Lane blocked.,4743.0,S Military Trl,L,Lake Worth,Palm Beach,FL,33463-5353,US,US/Eastern,KPBI,2019-12-12 12:42:00,73.0,73.0,87.0,30.15,1.0,SE,12.0,0.19,Rain,False,False,False,False,False,False,False,False,False,False,False,True,False,Day,Day,Day,Day
C-4879506,2,2019-09-05 10:07:54.000000000,2019-09-08 17:59:00.000000000,38.420525,-90.173523,,,10.75,Restrictions due to paving repairs and resurfacing work on IL-3 both ways between Halifax Dr and Frontage Rd. Look out for flagman.,,Hill Top Rd,R,Columbia,Monroe,IL,62236,US,US/Central,KCPS,2019-09-05 09:53:00,71.0,71.0,73.0,29.72,10.0,VAR,3.0,0.0,Fair,False,False,False,False,False,False,False,False,False,False,False,False,False,Day,Day,Day,Day
