ID,Severity,Start_Time,End_Time,Start_Lat,Start_Lng,End_Lat,End_Lng,Distance(mi),Description,Number,Street,Side,City,County,State,Zipcode,Country,Timezone,Airport_Code,Weather_Timestamp,Temperature(F),Wind_Chill(F),Humidity(%),Pressure(in),Visibility(mi),Wind_Direction,Wind_Speed(mph),Precipitation(in),Weather_Condition,Amenity,Bump,Crossing,Give_Way,Junction,No_Exit,Railway,Roundabout,Station,Stop,Traffic_Calming,Traffic_Signal,Turning_Loop,Sunrise_Sunset,Civil_Twilight,Nautical_Twilight,Astronomical_Twilight
C-4591655,4,2020-09-25 05:00:00.000000000,2020-10-02 06:59:00.000000000,40.594986,-74.234522,40.553196,-74.271162,3.4691086996900005,Road I-95 is closed from CR-602/Roosevelt Ave/Exit 12 (I-95 Car Only/I-95) to US-9/Exit 11 (I-95 Car Only/I-95) due to roadwork.,,New Jersey Tpke S,R,Carteret,Middlesex,NJ,07008,US,US/Eastern,KLDJ,2020-09-25 04:55:00,59.0,59.0,91.0,30.02,7.0,CALM,0.0,0.0,Fair,False,False,False,False,False,False,False,False,False,False,False,False,False,Night,Night,Night,Night
C-4591656,2,2021-12-28 09:08:30.000000000,2021-12-28 11:10:06.000000000,38.776357,-119.918887,38.767804,-119.87088,2.65271384228,Roadwork on CA-88/Burnside Lake Rd (CA-89) from Crystal Springs Rd (CA-89) to CA-88 - CA-89.,13802.0,State Route 88,R,Markleeville,Alpine,CA,96120,US,US/Pacific,KTVL,2021-12-28 08:53:00,21.0,11.0,74.0,23.52,10.0,S,9.0,0.0,Mostly Cloudy,False,False,False,False,False,False,False,False,False,True,False,False,False,Day,Day,Day,Day
C-4591657,2,2021-03-12 10:52:30.000000000,2021-12-26 13:37:00.000000000,33.625276,-112.120917,33.625223,-112.115977,0.284234245027,Slow traffic from N 35th Ave (W Greenway Rd) to I-17/Black Canyon Fwy (W Greenway Rd) due to roadwork.,2909.0,W Greenway Rd,L,Phoenix,Maricopa,AZ,85053-4063,US,US/Mountain,KDVT,2021-10-07 08:53:00,75.0,75.0,46.0,28.36,10.0,NE,3.0,0.0,Fair,True,False,True,False,False,False,False,False,True,False,False,True,False,Day,Day,Day,Day
C-4591658,2,2021-12-22 08:32:30.000000000,2021-12-22 11:08:27.000000000,40.816044,-73.928349,40.81836,-73.926662,0.182723933557,Slow traffic from Major Deegan Expy N / E 138th St to Anthony J Griffin Pl due to roadwork.,390.0,Grand Concourse,R,Bronx,Bronx,NY,10451-5409,US,US/Eastern,KLGA,2021-12-22 08:51:00,43.0,37.0,76.0,29.57,10.0,WNW,12.0,0.0,Mostly Cloudy,False,False,False,False,False,False,False,False,True,False,False,True,False,Day,Day,Day,Day
C-4591659,2,2021-12-16 13:06:30.000000000,2021-12-16 15:07:35.000000000,33.427117,-112.08243799999998,33.429219,-112.082377,0.145276957432,Slow traffic from W Broadway Rd (S 7th Ave) to I-17/US-60/W Maricopa Fwy (S 7th Ave) due to roadwork.,2201.0,S 7th Ave,L,Phoenix,Maricopa,AZ,85007-4301,US,US/Mountain,KPHX,2021-12-16 12:51:00,57.0,57.0,39.0,28.81,10.0,CALM,0.0,0.0,Fair,False,False,False,False,False,False,False,False,False,True,False,True,False,Day,Day,Day,Day
C-4591660,2,2021-11-16 12:07:30.000000000,2021-11-16 15:34:53.000000000,39.76371500000001,-86.34113,39.763001,-86.336865,0.231830725496,Slow traffic on US-36 E - US-36 W from Shiloh Park Dr to Conrail Railroad due to roadwork.,10239.0,E US Highway 36,R,Avon,Hendricks,IN,46123-7985,US,US/Eastern,KIND,2021-11-16 11:54:00,46.0,42.0,63.0,29.21,10.0,E,7.0,0.0,Mostly Cloudy,False,False,False,False,False,False,False,False,False,False,False,False,False,Day,Day,Day,Day
C-4591661,2,2020-07-28 15:30:00.000000000,2020-07-28 19:15:00.000000000,36.118465,-80.64019499999998,36.114075,-80.592315,2.6895910626200004,Construction on US-421 SB near EXIT 253 Construction. Right lane closed.,,US-421 S,R,Yadkinville,Yadkin,NC,27055,US,US/Eastern,KMWK,2020-07-28 14:55:00,73.0,73.0,92.0,28.71,10.0,NNW,3.0,0.22,Light Rain,False,False,False,False,False,False,False,False,False,False,False,False,False,Day,Day,Day,Day
C-4591663,2,2021-10-06 22:03:46.000000000,2021-10-07 22:49:22.000000000,39.237329,-76.58878,39.237619,-76.59010699999997,0.0737870530533,Construction on CHESAPEAKE AVE NB near SHELL RD Construction. Shoulder closed.,1203.0,Chesapeake Ave,R,Curtis Bay,Baltimore City,MD,21226,US,US/Eastern,KDMH,,,,,,,,,,,False,False,False,False,False,False,False,False,False,False,False,False,False,Night,Night,Night,Night
C-4591664,2,2021-12-07 12:46:30.000000000,2021-12-07 16:02:22.000000000,25.92239,-80.154777,25.926209,-80.154884,0.263951528902,Slow traffic on US-1 N - FL-826 - FL-5 from NE 156th St to W Dixie Hwy due to roadwork.,15979.0,Biscayne Blvd,L,Aventura,Miami-Dade,FL,33160-4607,US,US/Eastern,KHWO,2021-12-07 12:53:00,83.0,83.0,47.0,30.07,10.0,NW,6.0,0.0,Fair,False,False,False,False,False,False,False,False,True,False,False,False,False,Day,Day,Day,Day
C-4591665,2,2019-04-29 09:01:57.000000000,2019-05-03 09:01:47.000000000,42.27763,-83.69901,42.283538,-83.710859,0.7304242342899999,Between Huron Pky and Fuller Rd - Roadwork.,399.0,Huron Pkwy,L,Ann Arbor,Washtenaw,MI,48105,US,US/Eastern,KARB,2019-04-29 08:53:00,42.0,36.0,62.0,29.33,10.0,SSE,10.0,0.0,Cloudy,False,False,False,False,False,False,False,False,False,False,False,True,False,Day,Day,Day,Day
C-4591666,2,2021-05-06 06:39:30.000000000,2021-05-06 13:54:41.000000000,42.480541,-83.474402,42.480911,-83.476158,0.093060275818,Slow traffic from Meadowbrook Rd (Grand River Ave) to Taft Rd (Grand River Ave) due to roadwork.,43270.0,Grand River Ave,R,Novi,Oakland,MI,48375-1736,US,US/Eastern,KPTK,2021-05-06 06:53:00,35.0,35.0,89.0,29.06,10.0,CALM,0.0,0.0,Mostly Cloudy,False,False,False,False,False,False,False,False,False,False,False,False,False,Day,Day,Day,Day
C-4591667,2,2020-11-02 15:50:30.000000000,2020-11-03 01:26:27.000000000,34.098424,-93.658491,34.087364,-93.663378,0.813726846779,Stationary traffic on AR-27 from Cowhide Cove Dr/Anderson Trl (AR-27) to AR-19/AR-26 (E 13th St/AR-27) due to roadwork.,1116.0,Highway 27 N,R,Murfreesboro,Pike,AR,71958-8929,US,US/Central,KMWT,2020-11-02 15:53:00,63.0,63.0,30.0,29.61,10.0,VAR,3.0,0.0,Fair,False,False,False,False,False,False,False,False,False,False,False,False,False,Day,Day,Day,Day
C-4591668,2,2021-11-12 23:13:00.000000000,2021-11-13 01:14:29.000000000,40.722796,-73.99302,40.723719,-73.99150300000002,0.1018679746189999,Slow traffic from Kenmare St / Delancey St to Chrystie St / 2nd Ave due to roadwork.,247.0,Bowery,L,New York,New York,NY,10002-1201,US,US/Eastern,KJRB,2021-11-12 22:51:00,52.0,52.0,53.0,29.83,10.0,CALM,0.0,0.0,Fair,True,False,True,False,False,False,True,False,True,False,False,True,False,Night,Night,Night,Night
C-4591669,2,2020-10-01 11:37:00.000000000,2020-10-02 01:07:50.000000000,30.320464,-90.97405,30.319922,-90.9758,0.110889446468,Stationary traffic on LA-73 - LA-42 from N Lake Dr to Adams Ln due to roadwork.,37806.0,Highway 42,L,Prairieville,Ascension,LA,70769-4005,US,US/Central,KL38,2020-10-01 11:53:00,81.0,81.0,44.0,30.04,10.0,WSW,6.0,0.0,Fair,False,False,False,False,False,False,False,False,False,False,False,False,False,Day,Day,Day,Day
C-4591670,2,2021-12-23 09:32:30.000000000,2021-12-23 09:54:00.000000000,47.760319,-121.0754,47.781566,-121.043569,2.0832743864200003,Slow traffic on US-2 W - US-2 E from NFD-6095 (US-2) to NFD-6700 (US-2) due to roadwork.,32807.0,US Highway 2,R,Leavenworth,Chelan,WA,98826,US,US/Pacific,KEAT,2021-12-23 09:55:00,24.0,24.0,91.0,28.03,9.0,CALM,0.0,0.0,Fair,False,False,False,False,False,False,False,False,False,False,False,False,False,Day,Day,Day,Day
C-4591672,2,2021-06-12 12:41:00.000000000,2021-06-12 13:50:00.000000000,32.35015,-108.733969,32.342087,-108.713191,1.3346868107799998,Slow traffic on I-10 E from exit [20B] to exit [22] due to roadwork.,,I-10 E,R,Lordsburg,Hidalgo,NM,88045,US,US/Mountain,KSVC,2021-06-12 12:35:00,95.0,95.0,7.0,24.66,10.0,SE,8.0,0.0,Fair,False,False,False,False,False,False,False,False,False,False,False,False,False,Day,Day,Day,Day
C-4591673,2,2021-06-14 00:00:00.000000000,2021-09-01 00:00:00.000000000,40.613826,-111.870006,40.61319,-111.870802,0.0606144054769,Roadwork on Fort Union Blvd (S 900 E/UT-71) from E 7800 S (S 700 E/UT-71) to UT-71.,7731.0,S 900 E,R,Midvale,Salt Lake,UT,84047,US,US/Mountain,KU42,2021-06-14 00:54:00,78.0,78.0,16.0,25.65,10.0,SE,12.0,0.0,Fair,False,False,False,False,False,False,False,False,False,False,False,False,False,Night,Night,Night,Night
C-4591674,2,2021-02-16 05:38:46.000000000,2021-02-16 13:39:56.000000000,38.112501,-92.923118,38.111139,-92.911055,0.662501371138,Roadwork on MO-Z (Climax Springs) (MO-7) from MO-J (MO-7) to MO-7.,6216.0,N State Highway 7,R,Roach,Camden,MO,65787-8063,US,US/Central,KH21,2021-02-16 05:56:00,-9.0,-9.0,83.0,29.26,10.0,CALM,0.0,0.0,Fair,False,False,False,False,False,False,False,False,False,False,False,False,False,Night,Night,Night,Day
C-4591675,2,2021-12-17 12:41:21.000000000,2021-12-17 14:44:27.000000000,25.928181,-80.199585,25.928253,-80.204391,0.298679795093,Slow traffic on FL-826 from NE 1st Ave to NW 2nd Ave due to roadwork.,33.0,NE 167th St,L,Miami,Miami-Dade,FL,33162-3402,US,US/Eastern,KHWO,2021-12-17 12:53:00,81.0,81.0,62.0,30.16,10.0,ESE,15.0,0.0,Partly Cloudy,False,False,False,False,False,False,False,False,False,False,False,False,False,Day,Day,Day,Day
C-4591676,2,2020-05-29 19:04:04.000000000,2020-05-30 06:00:00.000000000,41.49614,-73.15918,41.41492,-73.27246,8.11801597729,Between CT-63/Exit 17 and CT-34/Exit 11 - Roadwork. Right lane closed.,,I-84 W,R,Southbury,New Haven,CT,06488,US,US/Eastern,KOXC,2020-05-29 18:51:00,72.0,72.0,91.0,29.15,10.0,S,12.0,0.0,Mostly Cloudy,False,False,False,False,False,False,False,False,False,False,False,False,False,Day,Day,Day,Day
C-4591677,2,2021-11-23 12:21:15.000000000,2021-12-29 17:53:16.000000000,40.994195,-73.659654,41.169588,-73.196244,27.0062605684,Slow traffic on Governor John Davis Lodge Tpke - I-95 N from Midland Ave/Exit 22 (I-95) to CT-25/CT-8/Exit 27 (I-95) due to roadwork.,,New England Trwy N,R,Port Chester,Westchester,NY,10573,US,US/Eastern,KHPN,2021-11-23 11:56:00,39.0,29.0,43.0,29.47,10.0,WNW,20.0,0.0,Partly Cloudy,False,False,False,False,True,False,False,False,False,False,False,False,False,Day,Day,Day,Day
C-4591678,2,2021-10-21 16:43:00.000000000,2021-10-21 18:45:01.000000000,33.46492,-112.098853,33.465859,-112.10078500000002,0.1288797718439999,Stationary traffic from I-10 W to I-17 N due to roadwork.,1835.0,Grand Ave,L,Phoenix,Maricopa,AZ,85007-1811,US,US/Mountain,KPHX,2021-10-21 16:51:00,88.0,88.0,16.0,28.8,10.0,WNW,5.0,0.0,Fair,False,False,True,False,False,False,True,False,False,False,False,False,False,Day,Day,Day,Day
C-4591679,2,2021-04-16 03:10:30.000000000,2021-09-28 13:47:50.000000000,42.011827,-87.712688,42.012556,-87.71146999999998,0.0802919136444,Stationary traffic from N Kimball Ave to Howard St due to roadwork.,3342.0,W Touhy Ave,R,Skokie,Cook,IL,60076-7200,US,US/Central,KORD,2021-09-28 11:51:00,72.0,72.0,51.0,29.29,10.0,E,9.0,0.0,Fair,False,False,False,False,False,False,False,False,False,False,False,False,False,Night,Night,Night,Night
C-4591680,2,2021-06-23 12:37:30.000000000,2021-06-23 13:53:00.000000000,35.004597,-105.601841,35.005927,-105.523891,4.41248849394,Slow traffic on I-40 E - Historic US 66 E from US-285/Exit 218 (I-40) to Exit 226 (I-40) due to roadwork.,,Historic US 66 E,R,Moriarty,Torrance,NM,87035,US,US/Mountain,K0E0,2021-06-23 12:35:00,94.0,94.0,9.0,23.98,10.0,NNW,14.0,0.0,Fair,False,False,False,False,False,False,False,False,False,False,False,False,False,Day,Day,Day,Day
C-4591681,2,2021-04-09 05:52:00.000000000,2021-04-09 18:26:30.000000000,39.7376,-105.10961,39.740125,-105.10878,0.179947940925,Slow traffic on US-40 E - CO-391 - I-70 Bus E from W 13th Pl to Iris St due to roadwork.,1359.0,Kipling St,L,Lakewood,Jefferson,CO,80215-4620,US,US/Mountain,KBJC,2021-04-09 05:55:00,36.0,28.0,70.0,24.28,10.0,N,10.0,0.0,Fair,False,False,False,False,False,False,False,False,True,False,False,False,False,Night,Night,Day,Day
C-4591682,2,2019-05-29 22:03:48.000000000,2019-06-04 22:02:12.000000000,28.56008,-81.37947,28.55996,-81.38098000000002,0.0920100544788,At US-17/US-92/Ivanhoe Blvd/Exit 84 - Construction work. Lane blocked.,,SW Ivanhoe Blvd,R,Orlando,Orange,FL,32804,US,US/Eastern,KORL,2019-05-31 21:53:00,84.0,84.0,63.0,29.82,10.0,ENE,7.0,0.0,Cloudy,False,False,True,False,False,False,False,False,False,False,False,False,False,Night,Night,Night,Night
C-4591683,2,2017-04-06 05:00:00.000000000,2017-05-07 17:00:00.000000000,41.844028,-83.665115,,,0.0,One lane closed due to construction on Summerfield Rd both ways at Tunnicliff Rd. Look out for flagman.,15999.0,Tunnicliff Rd,L,Petersburg,Monroe,MI,49270,US,US/Eastern,KDUH,2017-04-06 04:54:00,42.8,41.1,92.0,29.37,3.0,North,3.5,,Overcast,False,False,False,False,False,False,False,False,False,False,False,False,False,Night,Night,Night,Night
C-4591684,2,2021-11-21 11:31:30.000000000,2021-11-21 13:58:54.000000000,32.954379,-96.837439,32.953565999999995,-96.838946,0.103870622084,Slow traffic at Beltway Dr due to roadwork.,4351.0,Belt Line Rd,L,Addison,Dallas,TX,75001-4512,US,US/Central,KADS,2021-11-21 11:49:00,68.0,68.0,68.0,29.42,10.0,NW,10.0,0.0,Cloudy,False,False,False,False,False,False,False,False,False,False,False,False,False,Day,Day,Day,Day
C-4591685,2,2021-09-16 14:22:30.000000000,2021-09-16 16:35:12.000000000,33.416168,-111.788342,33.415301,-111.787071,0.0946654650256,Slow traffic from E Rancho Palos Verde to S Chestnut due to roadwork.,22.0,N Gilbert Rd,R,Mesa,Maricopa,AZ,85203-9049,US,US/Mountain,KFFZ,2021-09-16 14:51:00,102.0,102.0,14.0,28.55,10.0,VAR,3.0,0.0,Fair,False,False,False,False,False,False,False,False,False,False,False,False,False,Day,Day,Day,Day
C-4591686,2,2020-12-14 13:52:00.000000000,2020-12-15 01:16:41.000000000,25.732155,-80.38143000000002,25.731368,-80.383314,0.129257800171,Slow traffic on FL-976 from SW 114th Ave to SW 43rd Ter due to roadwork.,11501.0,SW 40th St,R,Miami,Miami-Dade,FL,33165-3315,US,US/Eastern,KMIA,2020-12-14 13:53:00,85.0,85.0,59.0,29.99,10.0,WSW,9.0,0.0,Partly Cloudy,False,False,False,False,False,False,False,False,False,False,False,True,False,Day,Day,Day,Day
C-4591687,2,2021-10-21 17:00:30.000000000,2021-10-21 17:26:30.000000000,42.240961,-79.774979,42.252171,-79.761909,1.02312671636,Slow traffic on I-90 E from US-20/Exit 45 (I-90) to PA--NY State Border (I-90) due to roadwork.,,I-90 E,R,North East,Erie,PA,16428,US,US/Eastern,KERI,2021-10-21 16:51:00,64.0,64.0,80.0,28.97,10.0,SSW,12.0,0.0,Mostly Cloudy,False,False,False,False,False,False,False,False,False,False,False,False,False,Day,Day,Day,Day
C-4591688,2,2020-11-30 14:36:30.000000000,2020-11-30 22:43:27.000000000,43.604954,-116.35308,43.604037,-116.354845,0.108684330616,Slow traffic on ID-55 from S Brooklyn Ave to E Springwood Dr due to roadwork.,3323.0,E Franklin Rd,R,Meridian,Ada,ID,83642-6008,US,US/Mountain,KMAN,2020-11-30 14:35:00,32.0,26.0,100.0,27.58,10.0,WNW,6.0,0.0,Partly Cloudy,False,False,False,False,False,False,False,False,False,False,False,False,False,Day,Day,Day,Day
C-4591689,2,2021-08-12 10:53:00.000000000,2021-08-12 11:06:30.000000000,40.824483,-115.804742,40.836732,-115.783813,1.38327007401,Slow traffic on I-80 E from I-80 Bus/Exit 298 (I-80) to NV-225/Exit 301 (I-80) due to roadwork.,,I-80 E,R,Elko,Elko,NV,89801,US,US/Pacific,KEKO,2021-08-12 10:56:00,86.0,86.0,20.0,25.01,10.0,CALM,0.0,0.0,Fair,False,False,False,False,False,False,False,False,False,False,False,False,False,Day,Day,Day,Day
C-4591690,2,2021-09-19 15:47:00.000000000,2021-09-19 16:10:30.000000000,43.881472,-111.737931,43.88365200000001,-111.717941,1.00683091822,Slow traffic on ID-33 from N 2nd W (ID-33) to Center St (ID-33) due to roadwork.,753.0,N 7th E,L,Sugar City,Madison,ID,83448-5023,US,US/Mountain,KRXE,2021-09-19 15:44:00,51.0,51.0,74.0,25.07,10.0,SSW,16.0,0.0,Cloudy,False,False,False,False,False,False,False,False,False,False,False,False,False,Day,Day,Day,Day
C-4591691,4,2018-10-27 08:45:54.000000000,2018-10-27 13:45:28.000000000,33.43538,-111.93238999999998,33.4357,-111.92692,0.31616815765,Ramp closed to N Scottsdale Rd - Closed due to roadwork.,,AZ-202 Loop E,R,Tempe,Maricopa,AZ,85281,US,US/Mountain,KPHX,2018-10-27 08:51:00,71.1,,42.0,30.02,10.0,SE,9.2,,Partly Cloudy,False,False,False,False,True,False,False,False,False,False,False,False,False,Day,Day,Day,Day
C-4591692,2,2021-03-19 07:00:04.000000000,2021-03-19 16:45:00.000000000,39.930974,-75.083342,39.930374,-75.08336700000002,0.0414772067464,Construction on US-130 SB near NJ-70 Construction. Right lane closed.,7889.0,S Crescent Blvd,R,Merchantville,Camden,NJ,08109,US,US/Eastern,KPNE,2021-03-19 06:54:00,39.0,31.0,57.0,29.88,10.0,NNE,13.0,0.0,Fair,False,False,False,False,False,False,False,False,False,False,False,False,False,Night,Day,Day,Day
C-4591693,2,2021-06-29 11:18:00.000000000,2021-06-29 14:13:30.000000000,41.009955,-97.59762,41.03963,-97.597657,2.05034813222,Slow traffic on US-81 S - US-81 N from US-34/Road 15 (US-81) to NE-66/CR-23 (US-81) due to roadwork.,,Highway 81,R,Benedict,York,NE,68316,US,US/Central,KJYR,2021-06-29 11:15:00,77.0,77.0,69.0,28.39,10.0,CALM,0.0,0.0,Fair,False,False,False,False,False,False,False,False,False,False,False,False,False,Day,Day,Day,Day
C-4591694,2,2019-06-18 02:53:31.000000000,2019-06-25 18:01:00.000000000,39.76685,-105.012779,,,0.0,Intermittent lane closures due to construction on Vallejo St both ways from 35th Ave to 36th Ave.,2117.0,W 36th Ave,R,Denver,Denver,CO,80211,US,US/Mountain,KBJC,2019-06-18 02:54:00,55.0,55.0,94.0,24.46,10.0,ENE,3.0,0.0,Light Rain,False,False,True,False,False,False,False,False,False,True,False,False,False,Night,Night,Night,Night
C-4591695,4,2019-04-17 20:32:00.000000000,2020-09-23 17:43:05.000000000,41.796955,-76.428139,41.8053,-76.427414,0.577792549378,Roadwork on LANING CREEK RD northbound between GRAND ARMY OF REPUBLIC HW and JAMES ST. All lanes closed.,2.0,Barner Rd,R,Towanda,Bradford,PA,18848-9286,US,US/Eastern,KELM,2019-04-17 20:53:00,57.0,57.0,57.0,29.02,10.0,VAR,5.0,0.0,Cloudy,False,False,False,False,False,False,False,False,False,False,False,False,False,Night,Night,Day,Day
C-4591696,2,2021-10-14 11:10:30.000000000,2021-10-14 11:30:30.000000000,45.849004,-88.665686,45.836064,-88.669966,0.917495747713,Slow traffic on WI-139 from WI-70 (Long Lake) (South) (WI-139) to Old 139 Rd (WI-139) due to roadwork.,3440.0,State Highway 139,R,Long Lake,Florence,WI,54542-9752,US,US/Central,KIMT,2021-10-14 10:54:00,59.0,59.0,51.0,28.49,10.0,SW,12.0,0.0,Fair,False,False,False,False,False,False,False,False,False,False,False,False,False,Day,Day,Day,Day
C-4591697,2,2021-04-04 10:09:30.000000000,2021-12-21 16:21:16.000000000,40.851104,-73.93243000000002,40.846735,-73.935624,0.344951995864,Slow traffic from W 184th St to W 177th St due to roadwork.,1478.0,Saint Nicholas Ave,R,New York,New York,NY,10033-4024,US,US/Eastern,KNYC,2021-07-12 14:51:00,83.0,83.0,72.0,30.01,7.0,VAR,6.0,0.0,Partly Cloudy,True,False,True,False,False,False,False,False,False,False,False,True,False,Day,Day,Day,Day
C-4591698,2,2021-09-20 15:13:54.000000000,2021-09-20 17:49:47.000000000,40.579054,-73.98415,40.582342,-73.98253000000003,0.242563819576,Slow traffic from Cropsey Ave / W 17th St to Belt Pkwy E due to roadwork.,2786.0,W 16th St,R,Brooklyn,Kings,NY,11224-2708,US,US/Eastern,KJRB,2021-09-20 14:51:00,74.0,,57.0,30.24,10.0,,,0.0,Mostly Cloudy,False,False,False,False,False,False,False,False,False,False,False,True,False,Day,Day,Day,Day
C-4591699,2,2021-09-24 14:41:28.000000000,2021-09-24 20:10:10.000000000,42.417468,-76.524002,42.414017,-76.532575,0.498086574809,Stationary traffic on NY-13 - NY-34 - NY-96 from NY-79/W Green St (NY-34/NY-13/S Fulton St/NY-96) to NY-327 (NY-96) due to roadwork.,451.0,Elmira Rd,R,Ithaca,Tompkins,NY,14850-5128,US,US/Eastern,KITH,2021-09-24 14:56:00,64.0,64.0,54.0,28.85,10.0,WSW,7.0,0.0,Cloudy,False,False,False,False,False,False,False,False,False,False,False,False,False,Day,Day,Day,Day
C-4591700,2,2020-05-27 07:30:00.000000000,2020-05-27 15:15:00.000000000,40.43407,-123.15912,40.45743,-123.16239,1.62315489584,At 0.8 mi south of Peanut - Maintenance work.,,State Highway 3,R,Hayfork,Trinity,CA,96041,US,US/Pacific,KO54,2020-05-27 07:35:00,59.0,59.0,67.0,27.57,10.0,CALM,0.0,0.0,Fair,False,False,False,False,False,False,False,False,False,False,False,False,False,Day,Day,Day,Day
C-4591701,2,2021-08-23 21:26:30.000000000,2021-08-24 03:04:01.000000000,45.704962,-87.53139200000004,45.701991,-87.527388,0.281898001751,Roadwork on Main St (US-2) from US-41 (US-2) to US-2 W - US-2 E.,,W4197 US Highway 2,L,Powers,Menominee,MI,49874,US,US/Eastern,KESC,2021-08-23 20:56:00,74.0,74.0,85.0,29.21,10.0,S,9.0,0.0,Fair,False,False,False,False,False,False,False,False,False,False,False,False,False,Night,Night,Night,Day
C-4591702,2,2017-05-22 10:00:00.000000000,2017-05-22 15:00:00.000000000,40.686066,-73.596878,,,0.00999999977648,Intermittent lane closures due to construction work on Southern State Pkwy Westbound at Exit 21 Nassau Rd.,,Southern State Pkwy E,R,Roosevelt,Nassau,NY,11575,US,US/Eastern,KFRG,2017-05-22 09:53:00,54.0,,90.0,30.16,1.8,SE,12.7,0.0,Overcast,False,False,False,False,False,False,False,False,False,False,False,False,False,Day,Day,Day,Day
C-4591703,2,2016-08-29 22:00:41.000000000,2016-08-30 04:00:41.000000000,41.31083,-112.02611,41.19216,-112.00466000000002,8.2746792871,Between UT-134/Exit 349 and I-84/Exit 340 - Roadwork.,,I-84 E,R,Ogden,Weber,UT,84404,US,US/Mountain,KOGD,2016-08-29 21:53:00,72.0,,30.0,29.98,10.0,SSW,5.8,,Clear,False,False,False,False,True,False,False,False,False,False,False,False,False,Night,Night,Night,Night
C-4591704,2,2016-08-12 08:02:29.000000000,2016-08-19 23:59:00.000000000,42.60574,-83.796036,,,0.0,Road closed due to construction on Hacker Rd both ways from Golf Club Rd to Norlynn Dr.,398.0,Norlynn Dr,L,Howell,Livingston,MI,48843-9026,US,US/Eastern,KOZW,2016-08-12 07:55:00,78.4,,83.0,29.89,10.0,WSW,6.9,,Mostly Cloudy,False,False,False,False,False,False,False,False,False,False,False,False,False,Day,Day,Day,Day
C-4591705,2,2020-09-14 17:54:00.000000000,2020-11-24 10:39:16.000000000,40.026067,-79.589763,40.02335,-79.595217,0.344257174018,Construction on US-119 SB near PITTSBURGH ST ET Allow extra time.,806.0,Memorial Blvd,L,Connellsville,Fayette,PA,15425-2651,US,US/Eastern,KLBE,2020-09-14 17:47:00,68.0,68.0,,29.02,10.0,NNW,10.0,0.0,Fair,False,False,False,False,False,False,False,False,False,False,False,False,False,Day,Day,Day,Day
C-4591706,2,2021-09-16 11:13:30.000000000,2021-09-16 11:45:00.000000000,33.422,-111.93076200000002,33.421369,-111.92632,0.259845311158,Slow traffic from S College Ave to S Terrace Rd / E Krueger St due to roadwork.,,E University Dr,R,Tempe,Maricopa,AZ,85287,US,US/Mountain,KPHX,2021-09-16 10:51:00,92.0,92.0,20.0,28.61,10.0,ESE,8.0,0.0,Fair,False,False,False,False,False,True,False,False,True,False,False,True,False,Day,Day,Day,Day
C-4591707,2,2021-07-02 12:39:08.000000000,2021-07-02 15:05:48.000000000,41.731842,-87.702137,41.735237,-87.703312,0.2422695230629999,Stationary traffic from W 89th St to S Central Park Ave due to roadwork.,8887.0,S Kedzie Ave,L,Evergreen Park,Cook,IL,60805-1221,US,US/Central,KMDW,2021-07-02 12:53:00,73.0,73.0,46.0,29.44,10.0,NE,9.0,0.0,Mostly Cloudy,False,False,False,False,False,False,False,False,True,False,False,False,False,Day,Day,Day,Day
C-4591708,2,2021-12-01 17:37:33.000000000,2021-12-01 19:39:13.000000000,25.941779,-80.18303900000002,25.94162,-80.18719,0.258141900195,Slow traffic on FL-860 from 10th Ave (FL-860) to I-95/FL-915/6th Ave (FL-860) due to roadwork.,871.0,NE Miami Gardens Dr,R,Miami,Miami-Dade,FL,33162,US,US/Eastern,KHWO,2021-12-01 17:53:00,73.0,73.0,61.0,30.12,10.0,E,3.0,0.0,Fair,False,False,False,False,False,False,False,False,False,False,False,False,False,Night,Day,Day,Day
C-4591709,2,2020-11-06 12:50:00.000000000,2020-11-06 22:05:30.000000000,33.436819,-112.163151,33.436767,-112.169223,0.350118160409,Slow traffic on AZ-85 from S 43rd Ave (W Buckeye Rd/AZ-85) to S 51st Ave (W Buckeye Rd/AZ-85) due to roadwork.,4777.0,W Buckeye Rd,L,Phoenix,Maricopa,AZ,85043-4806,US,US/Mountain,KGEU,2020-11-06 12:58:00,88.0,88.0,12.0,28.53,10.0,S,5.0,0.0,Partly Cloudy,False,False,True,False,False,False,False,False,False,False,False,True,False,Day,Day,Day,Day
C-4591710,3,2017-01-05 21:00:00.000000000,2017-01-06 03:00:00.000000000,40.651493,-74.454674,,,0.01,Left lane closed due to water main work on I-78 Eastbound at Exit 40 County Hwy-531 Hillcrest Rd.,,I-78 E,R,Warren,Somerset,NJ,07059,US,US/Eastern,KSMQ,2017-01-05 20:53:00,30.0,,47.0,29.97,10.0,Calm,,,Overcast,False,False,False,False,False,False,False,False,False,False,False,False,False,Night,Night,Night,Night
C-4591711,2,2021-09-24 00:12:30.000000000,2021-09-24 02:15:34.000000000,45.513616,-122.683813,45.512657,-122.683213,0.0723489941303,Stationary traffic from SW 10th Ave to I-405 N due to roadwork.,763.0,SW Market St,R,Portland,Multnomah,OR,97201,US,US/Pacific,KPDX,2021-09-24 00:53:00,61.0,61.0,75.0,30.09,10.0,NW,5.0,0.0,Fair,True,False,True,False,False,False,True,False,True,False,False,True,False,Night,Night,Night,Night
C-4591712,2,2021-09-15 16:41:00.000000000,2021-10-11 16:00:30.000000000,44.060656,-122.97021,44.058203000000006,-122.968431,0.191122619331,Stationary traffic from Marcola Rd (S 42nd St) to Olympic St (S 42nd St) due to roadwork.,1679.0,42nd St,R,Springfield,Lane,OR,97477,US,US/Pacific,KEUG,2021-09-15 16:54:00,76.0,76.0,23.0,29.61,10.0,NE,16.0,0.0,Partly Cloudy,False,False,False,False,False,False,False,False,False,False,False,False,False,Day,Day,Day,Day
C-4591713,2,2021-06-12 19:17:30.000000000,2021-06-12 20:02:30.000000000,42.08844600000001,-122.603379,42.064042,-122.602615,1.68661098584,Slow traffic on OR-99 S - Pacific Highway 1 S - I-5 S from OR-99/Exit 11 (I-5) to OR-99/Exit 1 (I-5) due to roadwork.,,I-5 S,R,Ashland,Jackson,OR,97520,US,US/Pacific,KMFR,2021-06-12 18:53:00,78.0,78.0,42.0,28.42,10.0,NW,8.0,0.0,Cloudy,False,False,False,False,False,False,False,False,False,False,False,False,False,Day,Day,Day,Day
C-4591714,2,2019-04-01 06:00:00.000000000,2019-04-30 23:59:00.000000000,41.187962,-87.195839,,,30.0100002289,Intermittent lane closures and temporary width limit of 13' due to maintenance work on US-231 County Road 1200 both ways between IN-2 and Begonia St.,250.0,15th St SE,L,Demotte,Jasper,IN,46310-9306,US,US/Central,KRZL,2019-04-01 05:55:00,27.0,27.0,80.0,29.58,10.0,CALM,0.0,0.0,Fair,False,False,False,False,False,False,False,False,False,False,False,False,False,Night,Night,Day,Day
C-4591715,3,2021-07-23 20:00:00.000000000,2021-07-24 08:00:00.000000000,33.604351,-117.690598,,,1.5,Intermittent lane closures due to construction work on I-5 Northbound from Exit 89 Muirlands Blvd to Exit 90 Alicia Pkwy.,24701.0,Alicia Pkwy,R,Laguna Hills,Orange,CA,92653-4618,US,US/Pacific,KSNA,2021-07-23 19:53:00,72.0,72.0,73.0,29.95,8.0,SW,7.0,0.0,Mostly Cloudy,False,False,False,False,False,False,False,False,False,False,False,False,False,Night,Day,Day,Day
C-4591716,2,2021-12-10 14:12:15.000000000,2021-12-10 16:33:23.000000000,27.916737,-82.785526,27.914917,-82.787864,0.190233085933,Slow traffic on US-19 Alt S - FL-686 - FL-595 from 2nd St NE to US-19 Alt due to roadwork.,2.0,2nd St NE,R,Largo,Pinellas,FL,33770,US,US/Eastern,KPIE,2021-12-10 13:53:00,80.0,80.0,74.0,30.08,10.0,SSE,7.0,0.0,Fair,False,False,False,False,False,False,False,False,True,False,False,False,False,Day,Day,Day,Day
C-4591717,4,2020-08-24 14:02:30.000000000,2020-08-26 23:30:00.000000000,35.289742,-79.450457,35.29145399999999,-79.445003,0.329546332714,West of Whispering Pines / Both Directions. Maintenance to superstructure,798.0,Brinkley Rd,L,Carthage,Moore,NC,28327-7838,US,US/Eastern,KSOP,2020-08-24 13:56:00,84.0,84.0,69.0,29.66,10.0,VAR,3.0,0.0,Mostly Cloudy,False,False,False,False,False,False,False,False,False,False,False,False,False,Day,Day,Day,Day
C-4591718,2,2021-10-18 04:30:30.000000000,2021-10-18 04:50:30.000000000,33.508761,-93.944242,33.511854,-93.947859,0.298478244624,Stationary traffic on AR-108 from N Highway 67 to Camper Ln due to roadwork.,8301.0,State Highway 108,L,Texarkana,Miller,AR,71854,US,US/Central,KTXK,2021-10-18 04:53:00,53.0,53.0,71.0,29.76,10.0,CALM,0.0,0.0,Fair,False,False,False,False,False,False,False,False,False,True,False,False,False,Night,Night,Night,Night
C-4591719,2,2021-04-15 05:47:30.000000000,2021-04-15 18:13:02.000000000,33.480632,-112.109847,33.482975,-112.112829,0.23608994123,Slow traffic from N 23rd Ave to I-17 N due to roadwork.,2372.0,W Thomas Rd,R,Phoenix,Maricopa,AZ,85015-5903,US,US/Mountain,KPHX,2021-04-15 05:51:00,68.0,68.0,24.0,28.62,10.0,W,7.0,0.0,Fair,False,False,False,False,False,False,False,False,False,False,False,True,False,Night,Day,Day,Day
C-4591720,2,2020-10-08 12:12:00.000000000,2020-10-09 00:33:34.000000000,42.15645900000001,-87.959908,42.154165,-87.958538,0.173339395623,Stationary traffic on IL-83 from Bank Ln to Weiland Rd due to roadwork.,170.0,McHenry Rd,R,Buffalo Grove,Lake,IL,60089-1767,US,US/Central,KPWK,2020-10-08 11:52:00,67.0,67.0,44.0,29.5,10.0,NE,12.0,0.0,Fair,False,False,False,False,False,False,False,False,False,False,False,False,False,Day,Day,Day,Day
C-4591721,2,2020-12-11 16:01:00.000000000,2020-12-12 00:46:00.000000000,37.192786,-118.249808,37.229576,-118.209068,3.3892666319700004,Construction on CA-168 EB near DEATH VALLEY RD Expect long delays.,,CA-168,R,Big Pine,Inyo,CA,93513,US,US/Pacific,KBIH,2020-12-11 15:56:00,58.0,58.0,8.0,25.73,10.0,SSE,6.0,0.0,Fair,False,False,False,False,False,False,False,False,False,False,False,False,False,Day,Day,Day,Day
C-4591722,2,2017-11-27 21:20:36.000000000,2017-11-28 03:20:36.000000000,39.64204,-78.79656,39.65015,-78.7551,2.27581505241,Between US-220/Greene St/Exit 42 and Maryland Avenue/Exit 43 - Construction work. Right lane blocked.,,US-40 E,R,Cumberland,Allegany,MD,21502,US,US/Eastern,KCBE,2017-11-27 21:26:00,42.8,40.1,66.0,30.26,10.0,North,4.6,,Clear,False,False,False,False,False,False,False,False,False,False,False,False,False,Night,Night,Night,Night
C-4591723,2,2021-09-21 09:00:00.000000000,2021-11-05 12:45:00.000000000,45.29305,-92.976681,45.289201,-92.99013,0.7057464814769999,Construction on US-8 WB near GREENWAY AVE Construction. Expect long delays.,,Lake Blvd,R,Forest Lake,Washington,MN,55025,US,US/Central,KANE,2021-09-21 08:45:00,57.0,57.0,88.0,29.17,10.0,W,8.0,0.0,Partly Cloudy,False,False,False,False,False,False,False,False,False,False,False,False,False,Day,Day,Day,Day
C-4591724,2,2021-06-10 18:50:06.000000000,2021-09-21 18:02:32.000000000,40.427394,-78.38906800000002,40.42802800000001,-78.390789,0.100559619001,Stationary traffic on US-22 E - US-22 W - PA-36 from Charger Hwy / Loop Rd to S Juniata St due to roadwork.,,Penn St,R,Hollidaysburg,Blair,PA,16648,US,US/Eastern,KAOO,2021-09-21 16:04:00,70.0,70.0,68.0,28.62,10.0,VAR,6.0,0.0,Cloudy,False,False,True,False,False,False,False,False,False,True,False,False,False,Day,Day,Day,Day
C-4591725,2,2021-06-03 14:05:52.000000000,2021-06-03 16:21:10.000000000,29.954021,-90.082395,29.97298300000001,-90.06393299999998,1.7139896475299998,Slow traffic on I-10 E from Poydras St exit [234B] to exit [236B] due to roadwork.,,I-10 E,R,New Orleans,Orleans,LA,70112,US,US/Pacific,KAUD,2021-06-03 13:59:00,79.0,79.0,77.0,29.95,10.0,S,8.0,0.0,Thunder,False,False,False,False,False,False,False,False,False,False,False,False,False,Day,Day,Day,Day
C-4591726,2,2019-06-28 05:56:38.000000000,2019-07-02 05:56:06.000000000,34.991890000000005,-117.54144,34.806298,-117.489521,13.1563754925,At Wheeler Rd - Roadwork.,40567.0,US Highway 395,R,Boron,San Bernardino,CA,93516,US,US/Pacific,K9L2,2019-06-28 05:58:00,55.0,55.0,57.0,27.57,10.0,NE,5.0,0.0,Fair,False,False,False,False,False,False,False,False,False,False,False,False,False,Day,Day,Day,Day
C-4591727,2,2021-02-18 08:01:30.000000000,2021-02-18 23:32:16.000000000,29.957529,-95.418432,29.952023,-95.417856,0.381987859259,Roadwork on I-45/North Fwy Frontage/FM-1960 (I-45 HOV) from West Rd (I-45 HOV) to I-45 N - I-45 S.,,I-45 N,R,Houston,Harris,TX,77060,US,US/Central,KIAH,2021-02-18 07:53:00,31.0,21.0,85.0,30.07,7.0,N,14.0,0.0,Cloudy,False,False,False,False,False,False,False,False,False,False,False,False,False,Day,Day,Day,Day
C-4591728,2,2020-09-25 04:01:00.000000000,2020-09-25 12:46:00.000000000,32.723711,-117.159415,32.722011,-117.159295,0.117665748566,Construction on 6TH AVE SB near I-5 Construction. Expect long delays.,1749.0,6th Ave,R,San Diego,San Diego,CA,92101,US,US/Pacific,KSAN,2020-09-25 03:51:00,67.0,67.0,79.0,29.89,9.0,SE,7.0,0.0,Cloudy,True,False,True,False,False,False,False,False,False,False,False,True,False,Night,Night,Night,Night
C-4591729,2,2019-05-31 07:00:00.000000000,2019-05-31 17:01:00.000000000,40.01965,-105.24337,,,0.0,Intermittent lane closures due to paving repairs and maintenance work on Walnut St Eastbound from 30th St to dead end.,4561.0,Walnut St,L,Boulder,Boulder,CO,80301,US,US/Mountain,KBDU,2019-05-31 06:55:00,54.0,54.0,58.0,24.79,10.0,CALM,0.0,0.0,Fair,False,False,False,False,False,False,False,False,False,False,False,False,False,Day,Day,Day,Day
C-4591730,2,2021-02-18 04:30:00.000000000,2021-02-19 19:40:46.000000000,25.797246,-80.12845300000002,25.803445,-80.125741,0.460336906924,Slow traffic on FL-A1A from FL-A1A/5th St (FL-A1A) to Arthur Godfrey Rd/41st St (FL-A1A) due to roadwork.,2174.0,Collins Ave,L,Miami Beach,Miami-Dade,FL,33139,US,US/Eastern,KMIA,2021-02-18 04:53:00,76.0,76.0,76.0,30.04,10.0,SSE,10.0,0.0,Fair,False,False,False,False,False,False,False,False,True,False,False,False,False,Night,Night,Night,Night
C-4591731,4,2020-10-04 02:35:15.000000000,2020-10-14 06:59:00.000000000,47.618914,-122.339797,47.620339,-122.339779,0.098461691577,Closed road from Denny Way (9th Ave) to Mercer St/Broad St (9th Ave) due to roadwork.,135.0,9th Ave N,L,Seattle,King,WA,98109,US,US/Pacific,KBFI,2020-10-04 02:53:00,58.0,58.0,87.0,30.06,8.0,CALM,0.0,0.0,Cloudy,True,False,False,False,False,False,False,False,False,False,False,False,False,Night,Night,Night,Night
C-4591732,4,2020-06-29 08:49:58.000000000,2020-06-29 13:48:50.000000000,42.22028,-88.9968,42.21109000000001,-89.0128,1.03611788179,Closed at Baxter Rd/Exit 115 - Closed due to roadwork.,,US-20 W,R,Rockford,Winnebago,IL,61109,US,US/Central,KRFD,2020-06-29 08:54:00,82.0,82.0,76.0,29.12,10.0,SSE,12.0,0.0,Mostly Cloudy,False,False,False,False,True,False,False,False,False,False,False,False,False,Day,Day,Day,Day
C-4591733,2,2021-10-08 14:48:11.000000000,2021-10-08 16:50:54.000000000,27.844027,-82.38155400000002,27.849778000000004,-82.38126199999998,0.397756486435,Slow traffic on FL-45 - US-41 N from Mottie Rd to Gibsonton Dr due to roadwork.,10874.0,S US Highway 41,R,Gibsonton,Hillsborough,FL,33534-4708,US,US/Eastern,KTPF,2021-10-08 14:55:00,86.0,86.0,74.0,29.96,10.0,CALM,0.0,0.0,Mostly Cloudy,False,False,True,False,False,False,True,False,False,False,False,False,False,Day,Day,Day,Day
C-4591734,3,2016-07-21 07:00:56.000000000,2016-07-21 13:00:56.000000000,40.22967,-111.66064,40.22966,-111.64648,0.746942899632,Between Freedom Blvd and 700 E - Roadwork.,312.0,S 100 W,R,Provo,Utah,UT,84601-4470,US,US/Mountain,KPVU,2016-07-21 06:49:00,73.4,,38.0,30.18,10.0,ESE,9.2,,Scattered Clouds,False,False,True,False,False,False,False,False,False,False,False,True,False,Day,Day,Day,Day
C-4591735,2,2021-04-16 06:35:30.000000000,2021-04-16 16:52:33.000000000,43.632047,-116.354289,43.635165,-116.354178,0.215504781544,Slow traffic on ID-55 from E Fairview Ave (ID-55) to W McMillan Rd (ID-55) due to roadwork.,2956.0,N Eagle Rd,L,Meridian,Ada,ID,83646-6251,US,US/Mountain,KMAN,2021-04-16 06:35:00,41.0,41.0,93.0,27.48,10.0,CALM,0.0,0.0,Fair,False,False,False,False,False,False,False,False,False,False,False,False,False,Night,Day,Day,Day
C-4591736,2,2021-04-15 10:55:10.000000000,2021-12-18 14:19:51.000000000,32.864049,-96.668257,32.865390000000005,-96.665551,0.182338935963,Slow traffic from Garland Rd to I-635 E due to roadwork.,12328.0,E Northwest Hwy,L,Dallas,Dallas,TX,75228-8004,US,US/Central,KDAL,2021-10-04 18:53:00,83.0,83.0,23.0,29.47,10.0,VAR,7.0,0.0,Fair,False,False,False,False,False,False,False,False,False,False,False,False,False,Day,Day,Day,Day
C-4591737,3,2020-07-28 22:00:00.000000000,2020-07-29 06:00:00.000000000,41.06292,-81.505676,,,0.790000021458,Entry ramp to I-77 Westbound from OH-8 Southbound closed due to construction work.,618.0,Johnston St,R,Akron,Summit,OH,44311-1819,US,US/Eastern,KAKR,2020-07-28 21:54:00,76.0,76.0,56.0,28.8,10.0,SW,6.0,0.0,Fair,False,False,False,False,False,False,False,False,False,False,False,False,False,Night,Night,Night,Day
C-4591739,2,2019-08-29 06:00:00.000000000,2019-08-29 14:00:00.000000000,44.990429,-87.858284,,,30.3899993896,Left hand shoulder closed due to construction on US-41 Northbound between US-141 and CR-W.,8797.0,US Highway 41,L,Oconto,Oconto,WI,54153,US,US/Central,KOCQ,2019-08-29 05:55:00,47.0,47.0,96.0,29.21,10.0,SW,3.0,0.0,Fair,False,False,False,False,False,False,False,False,False,False,False,False,False,Night,Day,Day,Day
C-4591740,2,2020-01-13 00:00:00.000000000,2020-01-19 23:59:00.000000000,36.175419,-83.34683199999998,,,0.0,Intermittent lane closures due to construction work on TN-160 Gov Dewitt Clinton Senator Hwy both ways at TN-474 Merchants Greene Blvd.,,S Air Park Blvd,R,Morristown,Hamblen,TN,37813,US,US/Eastern,K0VG,2020-01-13 00:53:00,41.0,41.0,89.0,28.67,10.0,S,3.0,0.0,Mostly Cloudy,False,False,False,False,False,False,False,False,False,False,False,False,False,Night,Night,Night,Night
C-4591741,3,2017-05-16 20:32:40.000000000,2017-05-17 06:00:00.000000000,41.66878,-72.83015,41.66438,-72.80105,1.5324424945299997,Between I-84 and CT-372/Corbin Ave/Exit 7 - Construction work.,,Route 72 E,R,Plainville,Hartford,CT,06062,US,US/Eastern,KMMK,2017-05-16 20:53:00,64.0,,67.0,29.94,10.0,Calm,,,Clear,False,False,False,False,False,False,False,False,False,False,False,False,False,Night,Day,Day,Day
C-4591742,2,2021-07-21 23:17:30.000000000,2021-07-21 23:52:00.000000000,41.220703,-75.881537,41.211675,-75.896159,0.983179554123,Stationary traffic on I-81 S from Highland Park Blvd/Exit 168 (I-81) to PA-29/Exit 164 (I-81) due to roadwork.,,I-81 S,R,Wilkes Barre,Luzerne,PA,18702,US,US/Eastern,KAVP,2021-07-21 22:54:00,66.0,66.0,70.0,29.02,10.0,N,7.0,0.0,Fair,False,False,False,False,False,False,False,False,False,False,False,False,False,Night,Night,Night,Night
C-4591743,2,2021-06-03 08:51:00.000000000,2021-06-03 12:45:00.000000000,47.247315,-122.396696,47.244415,-122.421136,1.16372155646,Construction on WA-509 SB near MP 0 Allow extra time.,2223.0,State Highway 509,L,Tacoma,Pierce,WA,98421,US,US/Pacific,KTIW,2021-06-03 08:53:00,57.0,57.0,93.0,29.7,10.0,WSW,6.0,0.0,Cloudy,False,False,False,False,False,False,False,False,False,False,False,False,False,Day,Day,Day,Day
C-4591744,2,2020-11-03 16:03:30.000000000,2020-11-03 17:47:30.000000000,39.733126,-107.944661,39.764904,-107.950391,2.21664994289,Slow traffic on CO-13 from Railroad Ave (W 20th St/CO-13) to CO-64 (CO-13) due to roadwork.,23135.0,Highway 13,R,Rifle,Rio Blanco,CO,81650-8881,US,US/Mountain,KRIL,2020-11-03 15:53:00,65.0,65.0,22.0,24.62,10.0,CALM,0.0,0.0,Fair,False,False,False,False,False,False,False,False,False,False,False,False,False,Day,Day,Day,Day
C-4591745,2,2021-12-06 15:09:00.000000000,2021-12-06 17:10:55.000000000,33.466285,-111.94798,33.466579,-111.943435,0.262752721242,Stationary traffic from Bushmaster Blvd to Papago Park Rd due to roadwork.,6237.0,E McDowell Rd,R,Phoenix,Maricopa,AZ,85008,US,US/Mountain,KPHX,2021-12-06 14:51:00,77.0,77.0,19.0,28.76,10.0,S,3.0,0.0,Mostly Cloudy,False,False,False,False,False,False,False,False,False,False,False,False,False,Day,Day,Day,Day
C-4591746,2,2021-07-09 17:00:40.000000000,2021-07-09 19:17:07.000000000,41.995631,-87.71609000000002,41.99501,-87.713581,0.13579450574,Slow traffic on US-41 S from W Rosemont Ave to W Devon Ave due to roadwork.,6286.0,N Lincoln Ave,L,Chicago,Cook,IL,60659-2235,US,US/Central,KORD,2021-07-09 16:51:00,76.0,76.0,36.0,29.34,10.0,ENE,8.0,0.0,Partly Cloudy,False,False,False,False,False,False,False,False,False,False,False,False,False,Day,Day,Day,Day
C-4591747,3,2018-04-29 18:00:00.000000000,2018-04-30 05:01:00.000000000,39.535713,-104.868279,,,95.3899993896,Intermittent lane closures and restrictions on ramps due to maintenance work on I-25 both ways between Exit 163 Palmer Divide Ave and Exit 193 Lincoln Ave.,,US-87 N,R,Parker,Douglas,CO,80134,US,US/Mountain,KAPA,2018-04-29 17:53:00,73.9,,15.0,29.5,10.0,SSW,16.1,,Mostly Cloudy,False,False,False,False,False,False,False,False,False,False,False,False,False,Day,Day,Day,Day
C-4591748,2,2018-12-07 07:00:00.000000000,2018-12-07 17:00:00.000000000,37.28177,-107.87794,37.281163,-107.878136,0.0433017771413,At CO-789/US-160 - Construction work.,1645.0,Main Ave,L,Durango,La Plata,CO,81301-5000,US,US/Mountain,KDRO,2018-12-07 06:53:00,28.9,23.9,100.0,30.29,10.0,North,4.6,0.0,Overcast,False,False,False,False,False,False,False,False,False,False,False,False,False,Night,Day,Day,Day
C-4591749,2,2021-12-22 16:29:36.000000000,2021-12-22 18:51:31.000000000,25.682907,-80.41640799999998,25.685397,-80.417449,0.183848461622,Slow traffic on FL-825 - FL-94 from SW 96th St to SW 137th Ct due to roadwork.,9015.0,SW 137th Ave,L,Miami,Miami-Dade,FL,33186,US,US/Eastern,KTMB,2021-12-22 16:53:00,70.0,70.0,59.0,29.95,10.0,NW,10.0,0.0,Cloudy,False,False,True,False,False,False,False,False,True,False,False,False,False,Day,Day,Day,Day
C-4591750,2,2021-09-21 18:08:00.000000000,2021-09-21 19:20:00.000000000,42.076906,-122.602029,42.095052,-122.60549,1.26626721317,Slow traffic on Pacific Highway 1 N - I-5 N - OR-99 N from Old Siskiyou Hwy/Exit 6 (I-5) to OR-99/Exit 11 (I-5) due to roadwork.,,I-5 N,R,Ashland,Jackson,OR,97520,US,US/Pacific,KMFR,2021-09-21 17:53:00,90.0,90.0,15.0,28.62,10.0,WNW,9.0,0.0,Fair,False,False,False,False,False,False,False,False,False,False,False,False,False,Day,Day,Day,Day
C-4591751,2,2018-07-30 02:11:41.000000000,2018-07-30 05:00:00.000000000,38.24123,-122.26843999999998,,,0.0,Lane closed due to construction work on CA-29 Napa Vallejo Hwy Northbound at CA-221 Napa Vallejo Hwy.,,Napa Vallejo Hwy,R,Napa,Napa,CA,94558,US,US/Pacific,KAPC,2018-07-30 01:54:00,57.0,,93.0,29.95,10.0,SSW,11.5,,Scattered Clouds,False,False,False,False,False,False,False,False,False,False,False,False,False,Night,Night,Night,Night
C-4591752,2,2021-10-21 13:05:30.000000000,2021-10-21 13:26:30.000000000,42.151998,-87.965626,42.154055,-87.959168,0.360036003236,Slow traffic from N Arlington Heights Rd (W Lake Cook Rd) to IL-83/McHenry Rd (E Lake Cook Rd) due to roadwork.,301.0,W Lake Cook Rd,L,Buffalo Grove,Cook,IL,60089,US,US/Central,KPWK,2021-10-21 12:52:00,50.0,50.0,80.0,29.21,10.0,W,13.0,0.0,Cloudy,False,False,False,False,False,False,False,False,False,False,False,True,False,Day,Day,Day,Day
C-4591753,2,2020-04-13 20:50:43.000000000,2020-04-14 06:00:00.000000000,40.8082,-73.49155,40.77153,-73.48021,2.60217413906,Between RT-25/Exit 14 and Old Country Rd/Exit 10 - Roadwork. Two lanes closed. Center lane blocked.,,Seaford Oyster Bay Expy S,R,Syosset,Nassau,NY,11791,US,US/Eastern,KFRG,2020-04-13 20:53:00,58.0,58.0,84.0,29.61,10.0,SSW,7.0,0.0,Fair,False,False,False,False,False,False,False,False,False,False,False,False,False,Night,Night,Night,Day
C-4591754,2,2021-01-23 15:26:30.000000000,2021-01-23 23:08:08.000000000,39.739164,-105.053205,39.740413,-105.053974,0.0954807216584,Stationary traffic on US-40 W - CO-95 - I-70 Bus W from W 14th Ave to N Ames St due to roadwork.,1450.0,N Sheridan Blvd,R,Denver,Denver,CO,80214-3012,US,US/Mountain,KBJC,2021-01-23 15:45:00,41.0,34.0,45.0,24.11,75.0,NNE,13.0,0.0,Mostly Cloudy,False,False,True,False,False,True,False,False,False,False,False,False,False,Day,Day,Day,Day
C-4591755,2,2021-10-19 09:07:00.000000000,2021-10-19 11:24:25.000000000,33.437278000000006,-111.769227,33.437824,-111.770909,0.104059106471,Stationary traffic from N Pad to E Glencove St due to roadwork.,2855.0,E Brown Rd,R,Mesa,Maricopa,AZ,85213-4213,US,US/Mountain,KFFZ,2021-10-19 08:51:00,63.0,63.0,52.0,28.75,10.0,E,3.0,0.0,Fair,False,False,False,False,False,False,False,False,False,False,False,False,False,Day,Day,Day,Day
C-4591756,2,2020-01-06 19:08:42.000000000,2020-01-11 14:00:00.000000000,40.07413,-77.90839,40.10344,-77.80429000000002,5.86351774408,Between Waters Dr and PA-641/Spring Run Rd - Construction work. Lane blocked.,,I-76 E,R,Burnt Cabins,Fulton,PA,17215,US,US/Eastern,KAOO,2020-01-06 22:53:00,36.0,30.0,46.0,28.47,10.0,WSW,8.0,0.0,Fair,False,False,False,False,False,False,False,False,False,False,False,False,False,Night,Night,Night,Night
C-4591757,2,2018-11-06 06:00:00.000000000,2018-11-20 23:59:00.000000000,39.780907,-86.168304,,,0.0,Intermittent lane closures due to construction on Dr Martin Luther King Jr St both ways at 10th St.,,Dr Martin Luther King Jr St,R,Indianapolis,Marion,IN,46202,US,US/Eastern,KEYE,2018-11-06 05:53:00,51.1,,77.0,29.66,10.0,WSW,9.2,,Scattered Clouds,False,False,True,False,False,False,False,False,False,False,False,True,False,Night,Night,Night,Day
C-4591758,4,2021-10-29 04:27:11.000000000,2021-11-28 02:00:09.000000000,44.193656,-91.977935,44.20667,-91.94956,1.66853474235,MN-74 is closed from CR-30 (MN-74) to US-61 (MN-74) due to roadwork.,,N State Highway 74,R,Altura,Wabasha,MN,55910,US,US/Central,KONA,2021-10-29 04:35:00,46.0,42.0,93.0,29.07,10.0,N,9.0,0.0,Light Drizzle,False,False,False,False,False,False,False,False,False,False,False,False,False,Night,Night,Night,Night
C-4591759,2,2019-02-08 07:00:00.000000000,2019-02-08 15:00:00.000000000,40.639851,-73.263405,,,0.0,Intermittent lane closures due to construction work on Robert Moses Cswy both ways at Fire Island Inlet Bridge.,,Robert Moses Cswy N,R,Babylon,Suffolk,NY,11702,US,US/Eastern,KFRG,2019-02-08 06:53:00,41.0,37.1,100.0,29.91,7.0,South,5.8,,Overcast,False,False,False,False,False,False,False,False,False,False,False,False,False,Day,Day,Day,Day
C-4591760,2,2021-04-19 06:00:00.000000000,2021-10-20 17:00:48.000000000,46.122997,-122.926486,46.119257,-122.920256,0.394708989873,Beginning at 7:30 a.m. Monday April 19 through 7:30 p.m. Friday April 23 travelers may encounter intermittent shoulder closures on the off-ramp from westbound SR 432 to SR 411 for interchange improvement work.,,Tennant Way,R,Longview,Cowlitz,WA,98632,US,US/Pacific,KKLS,2021-04-19 05:56:00,47.0,47.0,86.0,30.23,10.0,CALM,0.0,0.0,Cloudy,False,False,False,False,False,False,False,False,False,False,False,False,False,Night,Day,Day,Day
C-4591761,2,2021-07-28 17:54:53.000000000,2021-07-28 18:14:53.000000000,40.683854,-76.192116,40.681956,-76.19026,0.163261523289,Stationary traffic on PA-61 from US-209/E Norwegian St (Claude A Lord Blvd/PA-61) to US-209 (Claude A Lord Blvd/PA-61) due to roadwork.,199.0,S Claude A Lord Blvd,L,Pottsville,Schuylkill,PA,17901,US,US/Eastern,KRDG,2021-07-28 17:54:00,85.0,85.0,41.0,29.61,10.0,N,8.0,0.0,Fair,False,False,False,False,False,False,False,False,False,False,False,True,False,Day,Day,Day,Day
C-4591762,3,2019-04-23 07:00:00.000000000,2019-04-23 18:00:00.000000000,37.037121,-119.514427,,,58.4300003052,Single alternate line traffic due to construction work on CA-168 Auberry Rd both ways between Shepherd Ave and Auberry Rd.,,CA-168,R,Prather,Fresno,CA,93651,US,US/Pacific,KFAT,2019-04-23 06:53:00,62.0,62.0,65.0,29.66,9.0,E,7.0,0.0,Partly Cloudy,False,False,False,False,False,False,False,False,False,False,False,False,False,Day,Day,Day,Day
C-4591764,2,2020-11-20 16:01:00.000000000,2020-11-20 23:44:00.000000000,34.432858,-118.39366,34.435908000000005,-118.37696,0.974727116056,Construction on CA-14 NB near SOLEDAD RD Expect delays.,,Antelope Valley Fwy N,R,Canyon Country,Los Angeles,CA,91387,US,US/Pacific,K3A6,2020-11-20 15:51:00,78.0,78.0,19.0,29.18,10.0,N,3.0,0.0,Fair,False,False,False,False,False,False,False,False,False,False,False,False,False,Day,Day,Day,Day
C-4591765,2,2021-06-03 08:01:00.000000000,2021-06-03 15:15:00.000000000,34.511307,-117.39946100000002,34.50863,-117.399549,0.185030930652,Construction on US-395 SB near SENECA RD Expect delays.,14338.0,US Highway 395,L,Adelanto,San Bernardino,CA,92301,US,US/Pacific,KVCV,2021-06-03 07:45:00,,,,26.92,10.0,ESE,6.0,0.0,Fair,False,False,False,False,False,False,False,False,False,False,False,True,False,Day,Day,Day,Day
C-4591766,2,2021-09-01 15:45:30.000000000,2021-09-01 15:58:30.000000000,42.996164,-82.989059,43.001744,-83.055859,3.39752275736,Slow traffic on I-69 W from Capac Rd/Exit 176 (I-69) to MI-53/Exit 168 (I-69) due to roadwork.,,I-69 W,R,Imlay City,Lapeer,MI,48444,US,US/Eastern,KD95,2021-09-01 15:55:00,74.0,74.0,42.0,29.07,10.0,NNE,9.0,0.0,Partly Cloudy,False,False,False,False,False,False,False,False,False,False,False,False,False,Day,Day,Day,Day
C-4591767,2,2021-02-18 05:21:30.000000000,2021-02-18 10:36:03.000000000,25.763402,-80.238708,25.76609,-80.238794,0.185800190555,Slow traffic on FL-9 from FL-972/SW 22nd St/Coral Way (FL-9) to FL-968/Flagler St (South) (FL-9) due to roadwork.,1021.0,SW 27th Ave,L,Miami,Miami-Dade,FL,33135-4614,US,US/Eastern,KMIA,2021-02-18 04:53:00,76.0,76.0,76.0,30.04,10.0,SSE,10.0,0.0,Fair,True,False,True,False,False,False,False,False,True,False,False,True,False,Night,Night,Night,Night
C-4591768,2,2020-09-11 03:00:00.000000000,2020-09-12 15:08:08.000000000,39.370804,-74.431232,39.370618,-74.430631,0.0345782315823,Construction roadwork on US 30 both directions East of NJ 187 (Atlantic City) to East of CR 601/New Jersey Av (Absecon City) moving operation until 6:00 A.M.,1116.0,Absecon Blvd,L,Atlantic City,Atlantic,NJ,08401-2525,US,US/Eastern,KACY,2020-09-11 03:03:00,,,,29.99,1.0,CALM,0.0,0.0,Haze,False,False,False,False,False,False,False,False,False,False,False,True,False,Night,Night,Night,Night
C-4591769,3,2017-04-24 22:00:00.000000000,2017-04-25 05:00:00.000000000,28.571236,-81.375641,,,0.01,Entry ramp closed due to construction on I-4 Eastbound at FL-438 Princeton St.,,I-4 E,R,Orlando,Orange,FL,32804,US,US/Eastern,KORL,2017-04-24 21:53:00,68.0,,65.0,29.76,10.0,West,12.7,,Clear,False,False,False,False,False,False,False,False,False,False,False,False,False,Night,Night,Night,Night
C-4591770,2,2020-07-28 02:00:00.000000000,2020-08-07 14:45:00.000000000,40.751943,-74.525986,40.771511,-74.481726,2.68199905866,Construction on I-287 NB near US-202 Drive with caution.,,I-287 N,R,Morristown,Morris,NJ,07960,US,US/Eastern,KMMU,2020-07-28 01:55:00,81.0,81.0,70.0,29.57,10.0,SW,6.0,0.0,Fair,False,False,False,False,False,False,False,False,False,False,False,False,False,Night,Night,Night,Night
C-4591771,2,2021-07-12 12:58:00.000000000,2021-09-20 18:55:25.000000000,33.41607800000001,-111.856615,33.413738,-111.856719,0.161789819413,Slow traffic from W University Dr (N Alma School Rd) to W Broadway Rd (S Alma School Rd) due to roadwork.,34.0,N Alma School Rd,L,Mesa,Maricopa,AZ,85201,US,US/Mountain,KFFZ,2021-09-20 16:51:00,97.0,97.0,14.0,28.68,10.0,NW,6.0,0.0,Partly Cloudy,False,False,False,False,False,False,False,False,False,True,False,False,False,Day,Day,Day,Day
C-4591772,2,2021-07-19 15:10:21.000000000,2021-07-19 16:13:15.000000000,26.254936,-80.186267,26.259637,-80.186274,0.324808454915,Stationary traffic from Coconut Creek Pkwy (46th Ave/Lyons Rd) to NW 24th St/W Copans Rd (Lyons Rd) due to roadwork.,4598.0,NW 20th St,R,Coconut Creek,Broward,FL,33066-1041,US,US/Eastern,KFXE,2021-07-19 14:53:00,90.0,90.0,59.0,30.07,10.0,ESE,14.0,0.0,Fair,False,False,False,False,False,False,False,False,False,False,False,True,False,Day,Day,Day,Day
C-4591773,2,2021-11-10 19:27:30.000000000,2021-11-10 21:29:55.000000000,29.734174,-95.411729,29.734193,-95.409669,0.123599323279,Slow traffic from Kirby Dr (Richmond Ave) to Montrose Blvd (Richmond Ave) due to roadwork.,2113.0,Richmond Ave,L,Houston,Harris,TX,77098-3326,US,US/Central,KMCJ,2021-11-10 19:53:00,73.0,73.0,79.0,29.85,10.0,SSE,9.0,0.0,Fair,False,False,False,False,False,False,False,False,False,True,False,False,False,Night,Night,Night,Night
C-4591775,2,2021-04-09 07:30:00.000000000,2021-12-31 11:04:45.000000000,30.477557,-90.085422,30.476218,-90.091825,0.392343553408,Slow traffic on US-190 Bus W - US-190 Bus E - LA-21 from Covington Ctr (LA-21) to LA-437/N Columbia St (LA-21) due to roadwork.,72119.0,Military Rd,L,Covington,St. Tammany,LA,70435-8700,US,US/Central,KHDC,2021-06-30 14:55:00,73.0,73.0,100.0,30.03,10.0,NNW,3.0,0.1,Partly Cloudy,False,False,False,False,False,False,False,False,False,False,False,False,False,Day,Day,Day,Day
C-4591776,2,2020-12-11 13:08:30.000000000,2020-12-11 22:36:40.000000000,28.811369,-81.357848,28.81196,-81.36360400000002,0.350854014226,Stationary traffic on FL-46 from I-4 (FL-46) to Lake Markham Rd (FL-46) due to roadwork.,5500.0,W State Road 46,L,Sanford,Seminole,FL,32771-9238,US,US/Eastern,KSFB,2020-12-11 12:53:00,70.0,70.0,42.0,30.11,10.0,CALM,0.0,0.0,Mostly Cloudy,False,False,False,False,False,False,False,False,False,False,False,False,False,Day,Day,Day,Day
C-4591777,2,2019-10-28 08:00:00.000000000,2019-10-29 16:00:00.000000000,38.93197,-105.15801,38.92732,-105.15829,0.321636690286,At CR-61/Four Mine Rd (North) - Construction work.,25330.0,State Highway 67,R,Divide,Teller,CO,80814-8905,US,US/Mountain,KAFF,2019-10-28 07:58:00,14.0,14.0,88.0,23.46,0.25,S,3.0,0.0,Heavy Snow,False,False,False,False,False,False,False,False,False,False,False,False,False,Day,Day,Day,Day
C-4591778,2,2021-03-10 10:28:30.000000000,2021-12-27 14:49:30.000000000,40.726238,-74.003745,40.728372,-74.002717,0.156963207311,Stationary traffic from Spring St to MacDougal St due to roadwork.,1.0,Vandam St,R,New York,New York,NY,10013-1215,US,US/Eastern,KJRB,2021-10-31 14:51:00,62.0,62.0,67.0,29.49,10.0,VAR,5.0,0.0,Mostly Cloudy,True,False,True,False,False,False,True,False,True,False,False,True,False,Day,Day,Day,Day
C-4591779,2,2021-08-21 13:03:30.000000000,2021-08-21 15:08:44.000000000,33.406785,-112.044136,33.407831,-112.047109,0.1860835633949999,Slow traffic from S 18th St to E Wood St due to roadwork.,1711.0,E Broadway Rd,L,Phoenix,Maricopa,AZ,85040-2409,US,US/Mountain,KPHX,2021-08-21 12:51:00,94.0,94.0,36.0,28.58,10.0,SSW,8.0,0.0,Fair,False,False,False,False,False,False,False,False,False,False,False,False,False,Day,Day,Day,Day
C-4591780,2,2020-06-06 05:15:00.000000000,2020-06-10 17:44:35.000000000,40.75277,-80.21247,40.79269,-80.27391,4.23590707181,Between Zelienople Service Plaza and PA-18/Exit 13 - Roadwork. Right lane closed.,,I-76 W,R,New Brighton,Beaver,PA,15066,US,US/Eastern,KBVI,2020-06-06 05:15:00,67.0,67.0,96.0,28.52,2.0,WSW,3.0,,Fog,False,False,False,False,False,False,False,False,False,False,False,False,False,Night,Night,Day,Day
C-4591781,4,2021-11-29 15:33:13.000000000,2021-12-01 02:59:09.000000000,41.66903,-69.96516,41.670074,-69.960114,0.270240131082,Bridge closure from Stage Harbor Rd to Cotton Sedge Way.,515.0,Stage Harbor Rd,R,Chatham,Barnstable,MA,02633-2231,US,US/Eastern,KCQX,2021-11-29 15:52:00,39.0,35.0,67.0,29.72,10.0,VAR,6.0,0.0,Cloudy,False,False,False,False,False,False,False,False,False,False,False,False,False,Day,Day,Day,Day
C-4591782,2,2020-10-02 19:54:00.000000000,2020-10-03 00:16:50.000000000,35.66061,-91.246475,35.667065,-91.242036,0.510888126554,Stationary traffic on AR-367 from Tucker Rd (AR-367) to AR-37/Elgin Rd (AR-367) due to construction work.,5003.0,Highway 67 N,L,Tuckerman,Jackson,AR,72473,US,US/Central,KM19,2020-10-02 19:56:00,55.0,55.0,72.0,29.91,10.0,SE,6.0,0.0,Fair,False,False,False,False,False,False,False,False,False,False,False,False,False,Night,Night,Night,Day
C-4591783,2,2021-03-23 00:00:00.000000000,2021-04-09 11:20:32.000000000,38.569318,-121.443566,38.567239,-121.444497,0.152195477049,Construction on BEAR FLAG WAY near I ST Drive with caution.,4473.0,I St,L,Sacramento,Sacramento,CA,95819-3416,US,US/Pacific,KSAC,2021-03-23 00:53:00,50.0,50.0,80.0,30.0,10.0,CALM,0.0,0.0,Fair,True,False,False,False,False,False,False,False,False,False,False,False,False,Night,Night,Night,Night
C-4591784,4,2018-09-19 16:15:12.000000000,2018-09-19 21:14:50.000000000,37.88426,-95.39311,37.81687,-95.41021,4.74874741607,Closed between US-54/East St and KS-224/Hawaii Rd - Closed. Resurfacing work.,,US-169 N,R,Iola,Allen,KS,66749,US,US/Central,KCNU,2018-09-19 15:52:00,91.0,,52.0,29.85,10.0,South,12.7,,Clear,False,False,False,False,False,False,False,False,False,False,False,False,False,Day,Day,Day,Day
C-4591785,2,2021-09-01 17:04:30.000000000,2021-09-01 17:30:00.000000000,45.577136,-122.687777,45.577125,-122.682123,0.273438859792,Slow traffic on US-30 Byp E - US-30 Byp W from N Portsmouth Ave (US-30 Byp/N Lombard St) to N Interstate Ave (US-30 Byp/N Lombard St) due to roadwork.,7499.0,N Lancaster Denver Aly,R,Portland,Multnomah,OR,97217,US,US/Pacific,KVUO,2021-09-01 16:53:00,78.0,78.0,25.0,29.87,10.0,NW,13.0,0.0,Fair,False,False,True,False,False,False,True,False,True,False,False,True,False,Day,Day,Day,Day
C-4591786,2,2021-10-13 15:22:00.000000000,2021-10-13 17:38:49.000000000,47.03723,-122.821548,47.036648,-122.823346,0.0937303222237,Stationary traffic from Ruddell Rd SE to Lacey Blvd SE due to roadwork.,4680.0,Pacific Ave SE,L,Lacey,Thurston,WA,98503-1214,US,US/Pacific,KOLM,2021-10-13 14:54:00,53.0,53.0,66.0,29.88,10.0,W,7.0,0.0,Cloudy,False,False,False,False,False,False,False,False,True,False,False,False,False,Day,Day,Day,Day
C-4591787,2,2020-06-26 06:01:41.000000000,2020-06-27 05:00:00.000000000,43.08722,-77.60922,43.09246,-77.6795,3.56460657948,Between CR-85/Brighton Henrietta Town Line Rd and CR-84/E River Rd - Roadwork. Roadway reduced to 1 lane.,,E Henrietta Rd,R,Rochester,Monroe,NY,14623,US,US/Eastern,KROC,2020-06-26 05:54:00,60.0,60.0,90.0,29.36,10.0,WSW,7.0,0.0,Mostly Cloudy,False,False,False,False,False,False,False,False,False,False,False,True,False,Day,Day,Day,Day
C-4591788,2,2021-02-22 08:01:00.000000000,2021-02-22 16:46:00.000000000,36.288748,-121.845422,36.192296,-121.710189,10.0600338496,Construction on CA-1 SB near COAST RD Expect long delays.,44983.0,Highway 1,R,Big Sur,Monterey,CA,93920,US,US/Pacific,KMRY,2021-02-22 07:54:00,48.0,48.0,66.0,30.06,10.0,CALM,0.0,0.0,Fair,False,False,False,False,False,False,False,False,False,False,False,False,False,Day,Day,Day,Day
C-4591789,2,2020-05-21 05:35:25.000000000,2020-05-22 05:35:25.000000000,41.94331,-80.45938000000002,41.94011,-80.51387,2.80914222757,Between PA-215/Exit 6 and Pennsylvania/Ohio State Line - Roadwork. Roadway reduced to 1 lane. Lane blocked.,,I-90 W,R,West Springfield,Erie,PA,16443,US,US/Eastern,KHZY,2020-05-21 05:53:00,51.0,51.0,46.0,29.26,10.0,SSE,9.0,0.0,Fair,False,False,False,False,True,False,False,False,False,False,False,False,False,Night,Day,Day,Day
C-4591790,2,2020-10-11 19:02:30.000000000,2020-10-11 19:40:00.000000000,41.063429,-114.527233,41.073305,-114.546806,1.22685586349,Slow traffic on I-80 from Exit 376 (I-80) to Exit 373 (I-80) due to roadwork.,,I-80 W,R,Montello,Elko,NV,89830,US,US/Pacific,,,,,,,,,,,,False,False,False,False,False,False,False,False,False,False,False,False,False,Night,Night,Night,Day
C-4591791,2,2020-07-14 01:11:05.000000000,2020-07-14 14:45:00.000000000,34.440346000000005,-79.376896,34.444576,-79.368726,0.549673822707,Construction on I-95 NB near EXIT 193 Construction. Right lane closed.,,I-95 N,R,Dillon,Dillon,SC,29536,US,US/Eastern,KMAO,2020-07-14 03:15:00,70.0,70.0,100.0,29.82,10.0,CALM,0.0,0.0,Fair,False,False,False,False,False,False,False,False,False,False,False,False,False,Night,Night,Night,Night
C-4591792,2,2021-07-11 23:33:00.000000000,2021-07-12 00:08:00.000000000,36.029524,-96.091459,36.021297,-96.09525,0.6066223345480001,Slow traffic on Turner Tpke W - I-44 W from OK-66/Toll Booth Plaza/Exit 221 (I-44) to Hilton Rd/W 96th St S/Exit 218A (Turner Tpke/I-44) due to roadwork.,,Creek Tpke W,R,Tulsa,Creek,OK,74131,US,US/Central,KRVS,2021-07-11 23:53:00,71.0,71.0,87.0,29.3,10.0,CALM,0.0,0.0,Fair,False,False,False,False,False,False,False,False,False,False,False,False,False,Night,Night,Night,Night
C-4591793,2,2020-10-12 15:30:00.000000000,2020-10-15 21:45:00.000000000,43.046745,-88.25581600000002,43.052537,-88.381283,6.34756676182,Mainline Moving Lane Closure on I-94 Westbound from COUNTY T to WIS 83.,,I-94 W,R,Waukesha,Waukesha,WI,53188,US,US/Central,KUES,2020-10-12 15:15:00,52.0,52.0,88.0,28.71,10.0,W,17.0,0.0,Mostly Cloudy,False,False,False,False,False,False,False,False,False,False,False,False,False,Day,Day,Day,Day
C-4591794,4,2019-11-08 19:00:00.000000000,2019-11-09 19:00:00.000000000,39.15562,-94.50342,39.15712,-94.50095,0.168088517934,At MO-210/Exit 55 - Ramps closed. Construction work.,6529.0,Armour Rd,R,Kansas City,Clay,MO,64117,US,US/Central,KMKC,2019-11-08 18:54:00,41.0,35.0,40.0,29.4,10.0,S,10.0,0.0,Fair,False,False,False,False,False,False,False,False,False,False,False,False,False,Night,Night,Night,Night
C-4591795,2,2021-12-23 09:53:00.000000000,2021-12-23 13:54:20.000000000,39.775069,-105.081372,39.776694,-105.082374,0.124246484136,Stationary traffic on County Hwy-58 - CO-121 from 3 Acre Ln to Yarrow St due to roadwork.,4300.0,Wadsworth Blvd,R,Wheat Ridge,Jefferson,CO,80033-4622,US,US/Mountain,KBJC,2021-12-23 09:45:00,54.0,54.0,30.0,24.21,10.0,WNW,17.0,0.0,Partly Cloudy,False,False,False,False,False,False,False,False,False,False,False,False,False,Day,Day,Day,Day
C-4591796,2,2020-08-25 16:53:00.000000000,2020-08-26 00:06:30.000000000,41.65925900000001,-87.660838,41.652704,-87.660526,0.453193664533,Stationary traffic from W 127th St (Ashland Ave) to Broadway St (Ashland Ave) due to maintenance work.,12848.0,S Ashland Ave,R,Calumet Park,Cook,IL,60827-6308,US,US/Central,KIGQ,2020-08-25 16:55:00,85.0,85.0,52.0,29.36,10.0,SE,8.0,0.0,Fair,False,False,False,False,False,False,False,False,False,False,False,True,False,Day,Day,Day,Day
C-4591797,3,2020-06-15 20:00:00.000000000,2020-06-16 05:00:00.000000000,42.788837,-89.00457,,,0.0,Lane closed due to construction work on I-39 Southbound at CR-M.,,I-39 S,R,Milton,Rock,WI,53563,US,US/Central,KJVL,2020-06-15 19:45:00,70.0,70.0,31.0,29.43,10.0,ESE,10.0,0.0,Fair,False,False,False,False,False,False,False,False,False,False,False,False,False,Day,Day,Day,Day
C-4591798,2,2020-02-25 08:47:48.000000000,2020-02-25 15:00:00.000000000,41.545807,-73.044762,,,0.0,Left lane closed due to construction on CT-8 Southbound at Exit 30 Charles St.,,Bank St,R,Waterbury,New Haven,CT,06708,US,US/Eastern,KOXC,2020-02-25 08:51:00,44.0,44.0,79.0,29.11,10.0,CALM,0.0,0.0,Cloudy,False,False,False,False,False,False,False,False,False,False,False,False,False,Day,Day,Day,Day
C-4591799,2,2021-02-25 07:55:00.000000000,2021-02-25 17:10:00.000000000,42.242957,-124.392002,42.268777,-124.401772,1.85263603506,Stationary traffic on US-101 S - US-101 N from Unnamed Street 1 (US-101) to Cape Sebastian State Park (US-101) due to roadwork.,23488.0,Oregon Coast Hwy,R,Gold Beach,Curry,OR,97444,US,US/Pacific,KBOK,2021-02-25 07:56:00,43.0,43.0,76.0,29.94,10.0,CALM,0.0,0.0,Cloudy,False,False,False,False,False,False,False,False,False,False,False,False,False,Day,Day,Day,Day
C-4591800,2,2016-10-20 12:00:00.000000000,2016-10-20 19:00:00.000000000,47.728226,-122.355545,,,2.45,Intermittent lane closures due to construction work on Greenwood Ave both ways from 112th St to 136th St.,13599.0,Greenwood Ave N,L,Seattle,King,WA,98133-7314,US,US/Pacific,KPAE,2016-10-20 11:58:00,54.0,,90.0,30.03,10.0,South,5.8,0.0,Light Rain,False,False,False,False,False,False,False,False,False,False,False,False,False,Day,Day,Day,Day
C-4591801,3,2017-09-29 22:00:00.000000000,2017-09-30 07:00:00.000000000,42.669811,-88.983406,,,3.90000009537,Left lane closed due to construction on I-39 Westbound between 177 / WI-11 / Avalon Rd and US-14 Bus Racine St.,,I-39 N,R,Janesville,Rock,WI,53546,US,US/Central,KJVL,2017-09-29 21:55:00,53.6,,62.0,30.34,10.0,Calm,,,Clear,False,False,False,False,False,False,False,False,False,False,False,False,False,Night,Night,Night,Night
C-4591802,4,2020-05-06 20:00:00.000000000,2020-05-07 05:00:00.000000000,29.42831,-98.649147,,,10.9899997711,Road closed intermittently due to construction work on I-410 both ways between New Valley Hi Dr and Lakeside Pkwy.,,Connally Loop,R,San Antonio,Bexar,TX,78227,US,US/Central,KSKF,2020-05-06 19:56:00,82.0,82.0,28.0,29.32,10.0,E,10.0,0.0,Fair,False,False,False,False,False,False,False,False,False,False,False,False,False,Day,Day,Day,Day
C-4591803,2,2021-09-07 02:00:00.000000000,2021-10-09 08:20:30.000000000,41.111303,-80.819211,41.112863,-80.812289,0.376111819552,Slow traffic on I-80 E from I-80/I-76 (I-80) to OH-46/Exit 223 (I-80) due to roadwork.,,I-80 E,R,North Jackson,Mahoning,OH,44451,US,US/Eastern,KYNG,2021-10-09 08:05:00,64.0,64.0,96.0,28.81,1.0,SW,3.0,0.1,Heavy Rain,False,False,False,False,False,False,False,False,False,False,False,False,False,Night,Night,Night,Night
C-4591804,2,2021-02-12 05:58:30.000000000,2021-02-12 11:37:17.000000000,40.808125,-73.946309,40.808328,-73.9489,0.136225244468,Slow traffic from Lenox Ave to W 124th St due to roadwork.,122.0,W 125th St,L,New York,New York,NY,10027-4502,US,US/Eastern,KNYC,2021-02-12 05:51:00,21.0,21.0,53.0,30.23,10.0,VAR,3.0,0.0,Fair,True,False,True,False,False,False,False,False,True,False,False,True,False,Night,Night,Day,Day
C-4591805,2,2019-01-10 07:30:00.000000000,2019-01-10 15:30:00.000000000,41.68718,-69.973221,,,0.949999988079,Intermittent lane closures due to utility work on MA-28 Main St Eastbound between Pond View Ave and Old Queen Anne Rd.,1050.0,Main St,L,Chatham,Barnstable,MA,02633-2732,US,US/Eastern,KCQX,2019-01-10 07:52:00,34.0,27.2,59.0,29.47,10.0,West,8.1,,Overcast,False,False,False,False,False,False,False,False,False,False,False,False,False,Day,Day,Day,Day
C-4591806,2,2021-07-01 08:50:56.000000000,2021-10-07 20:21:43.000000000,38.874129,-77.286321,38.870892,-77.297976,0.66564778664,Construction on I-66 WB near MM 49 Construction. Right lane closed.,,I-66 W,R,Fairfax,Fairfax County,VA,22031,US,US/Eastern,KDAA,2021-08-05 08:56:00,74.0,74.0,63.0,30.06,10.0,CALM,0.0,0.0,Fair,False,False,False,False,False,False,False,False,False,False,False,False,False,Day,Day,Day,Day
C-4591807,2,2021-01-08 10:39:00.000000000,2021-01-09 03:02:00.000000000,33.388368,-111.805451,33.393349,-111.806043,0.345844663974,Stationary traffic from E Inverness Ave to S Solomon due to roadwork.,1489.0,S Stapley Dr,R,Mesa,Maricopa,AZ,85204-5848,US,US/Mountain,KFFZ,2021-01-08 10:51:00,60.0,60.0,20.0,28.92,10.0,CALM,0.0,0.0,Mostly Cloudy,False,False,False,False,False,False,False,False,False,False,False,False,False,Day,Day,Day,Day
C-4591808,2,2019-06-13 04:10:00.000000000,2019-06-13 06:00:00.000000000,41.646431,-72.772522,,,0.0,Right lane closed due to construction on CT-9 Northbound at Exit 24 CT-372.,,CT-571,R,Berlin,Hartford,CT,06037,US,US/Eastern,KMMK,2019-06-13 03:53:00,56.0,56.0,90.0,29.93,10.0,CALM,0.0,0.0,Fair,False,False,False,False,False,False,False,False,False,False,False,False,False,Night,Night,Day,Day
C-4591809,2,2021-12-15 17:44:00.000000000,2021-12-15 19:00:00.000000000,43.422467,-95.125524,43.418604,-94.904897,11.0752713634,Construction on US-71 NB near COUNTY HWY-B14 Drive with caution.,2223.0,18th St,L,Spirit Lake,Dickinson,IA,51360,US,US/Central,KMJQ,2021-12-15 17:35:00,52.0,52.0,94.0,27.55,10.0,ESE,9.0,0.0,Partly Cloudy,False,False,False,False,False,False,False,False,False,False,False,False,False,Night,Night,Day,Day
C-4591810,2,2021-03-16 05:32:30.000000000,2021-03-16 12:13:00.000000000,39.170842,-96.593598,39.16894600000001,-96.597522,0.247675624262,Slow traffic on KS-18 W - KS-18 from S 17th St (Fort Riley Blvd/KS-18) to KS-113/S Seth Child Rd (Fort Riley Blvd/KS-18) due to roadwork.,2204.0,Fort Riley Blvd,L,Manhattan,Riley,KS,66502-3137,US,US/Central,KMHK,2021-03-16 05:27:00,43.0,43.0,93.0,28.75,0.5,CALM,0.0,0.0,Cloudy,False,False,True,False,False,False,False,False,False,False,False,False,False,Night,Night,Night,Night
C-4591811,2,2021-12-06 10:20:30.000000000,2021-12-06 13:56:02.000000000,25.842584,-80.30725,25.84255,-80.306168,0.0673238094324999,Stationary traffic on US-27 S - FL-25 from W 29th St to W 23rd St due to roadwork.,,W Okeechobee Rd,R,Hialeah,Miami-Dade,FL,33010,US,US/Eastern,KMIA,2021-12-06 10:00:00,80.0,80.0,85.0,30.13,10.0,VAR,6.0,0.0,Mostly Cloudy,True,False,False,False,False,False,False,False,True,False,False,False,False,Day,Day,Day,Day
C-4591812,2,2021-07-19 13:46:15.000000000,2021-07-19 14:06:15.000000000,45.04570800000001,-91.987979,45.045637,-91.970236,0.8661821676870001,Slow traffic on WI-170 from 320th St to County Road F due to roadwork.,,E3465 State Road 170,R,Boyceville,Dunn,WI,54725-5109,US,US/Central,KLUM,2021-07-19 13:55:00,80.0,80.0,45.0,29.23,10.0,SW,5.0,0.0,Partly Cloudy,False,False,False,False,False,False,False,False,False,False,False,False,False,Day,Day,Day,Day
C-4591813,2,2021-07-23 18:31:25.000000000,2021-07-23 18:56:13.000000000,40.878223,-73.869784,40.880266,-73.876787,0.392130821371,Slow traffic from US-1/Boston Rd/Hering Ave (E Gun Hill Rd) to Jerome Ave (Gun Hill Rd) due to roadwork.,501.0,E Gun Hill Rd,L,Bronx,Bronx,NY,10467-5618,US,US/Eastern,KLGA,2021-07-23 18:51:00,79.0,79.0,42.0,30.05,10.0,NE,9.0,0.0,Mostly Cloudy,False,False,False,False,False,False,False,False,False,False,False,True,False,Day,Day,Day,Day
C-4591814,2,2020-06-09 15:17:30.000000000,2020-06-10 15:17:30.000000000,27.80836,-97.39565,27.80836,-97.39565,0.0,At I-37 - Construction work.,1771.0,N Chaparral St,L,Corpus Christi,Nueces,TX,78401,US,US/Central,KCRP,2020-06-09 14:51:00,90.0,90.0,75.0,29.71,10.0,SSE,12.0,0.0,Mostly Cloudy,False,False,False,False,False,False,False,False,False,False,False,False,False,Day,Day,Day,Day
C-4591815,2,2017-11-30 20:00:00.000000000,2017-12-01 04:00:00.000000000,40.41509600000001,-80.01178,,,1.60000002384,Entry ramp to Liberty Tunl from Saw Mill Run Blvd Westbound partially blocked due to construction.,,Saw Mill Run Blvd,R,Pittsburgh,Allegheny,PA,15226,US,US/Eastern,KAGC,2017-11-30 20:00:00,48.0,,83.0,30.05,10.0,WNW,8.1,,Mostly Cloudy,False,False,False,False,False,False,False,False,False,False,False,True,False,Night,Night,Night,Night
C-4591816,4,2020-05-15 13:48:26.000000000,2020-05-19 13:48:07.000000000,40.44788,-80.00035,40.44527,-79.99904000000002,0.193041114001,Closed between Anderson St and Fort Duquesne Blvd - Closed due to roadwork.,498.0,Anderson St,R,Pittsburgh,Allegheny,PA,15212-5802,US,US/Eastern,KAGC,2020-05-15 13:53:00,77.0,77.0,50.0,28.61,10.0,WSW,15.0,0.0,Mostly Cloudy,False,False,True,False,False,False,False,False,False,False,False,True,False,Day,Day,Day,Day
C-4591817,4,2019-08-04 16:28:40.000000000,2019-08-04 21:28:18.000000000,42.849408,-78.861979,42.883738,-78.879021,2.52410283029,Closed between Fuhrmann Blvd/Tifft St and Edward St/Goodell St - Closed due to roadwork.,,Buffalo Skwy N,R,Buffalo,Erie,NY,14203,US,US/Eastern,KBUF,2019-08-04 16:54:00,80.0,80.0,32.0,29.24,10.0,N,9.0,0.0,Fair,False,False,True,False,False,False,False,False,False,False,False,True,False,Day,Day,Day,Day
C-4591818,2,2021-07-29 14:02:49.000000000,2021-07-29 14:28:05.000000000,34.57966,-92.985042,34.577936,-92.982028,0.208775878842,Stationary traffic on AR-7 - AR-298 from W Glazypeau Rd (AR-7) to AR-5/Park Ave (AR-7) due to roadwork.,193.0,N Highway 7,L,Hot Springs National Park,Garland,AR,71901-8450,US,US/Central,KHOT,2021-07-29 13:53:00,95.0,95.0,47.0,29.46,10.0,VAR,5.0,0.0,Mostly Cloudy,False,False,False,False,False,False,False,False,False,False,False,False,False,Day,Day,Day,Day
C-4591819,2,2021-06-19 12:31:56.000000000,2021-06-19 14:43:53.000000000,41.749631,-87.71947800000002,41.750804,-87.72188299999998,0.148113228388,Slow traffic from S Hamlin Ave to W 78th St due to roadwork.,3856.0,W 79th St,R,Chicago,Cook,IL,60652-1815,US,US/Central,KMDW,2021-06-19 12:53:00,84.0,84.0,53.0,29.09,10.0,SW,16.0,0.0,Fair,False,False,False,False,False,False,False,False,True,False,False,False,False,Day,Day,Day,Day
C-4591820,2,2021-09-25 20:24:30.000000000,2021-09-25 22:26:30.000000000,40.719787,-73.99853399999998,40.721451,-73.997382,0.129836816865,Slow traffic from Canal St to Kenmare St due to roadwork.,228.0,Centre St,R,New York,New York,NY,10013-3612,US,US/Eastern,KJRB,2021-09-25 20:51:00,67.0,67.0,63.0,29.82,10.0,CALM,0.0,0.0,Fair,True,False,True,False,False,False,False,False,False,False,False,True,False,Night,Night,Night,Night
C-4591821,2,2021-06-02 10:47:00.000000000,2021-06-04 02:58:17.000000000,30.251236,-82.678851,30.245868,-82.675207,0.429961334346,Roadwork on CR-246 (US-41) from I-10 (US-41) to FL-25 - US-41 S - US-41 N - FL-100.,5199.0,NW US Highway 41,R,Lake City,Columbia,FL,32055,US,US/Eastern,KLCQ,2021-06-02 10:55:00,82.0,82.0,58.0,30.0,10.0,CALM,0.0,0.0,Fair,False,False,False,False,False,False,False,False,False,False,False,False,False,Day,Day,Day,Day
C-4591822,2,2021-09-30 15:20:30.000000000,2021-09-30 17:43:25.000000000,42.67178,-82.945115,42.67194600000001,-82.939636,0.278573613741,Stationary traffic from Hayes Rd (23 Mile Rd) to Card Rd (23 Mile Rd) due to roadwork.,17948.0,23 Mile Rd,R,Macomb,Macomb,MI,48044-1160,US,US/Eastern,KMTC,2021-09-30 14:56:00,69.0,69.0,53.0,29.58,10.0,SE,6.0,0.0,Mostly Cloudy,False,False,True,False,False,False,False,False,False,False,False,False,False,Day,Day,Day,Day
C-4591823,2,2016-08-17 05:00:00.000000000,2017-08-09 23:00:00.000000000,27.452774,-82.546921,,,0.0,Restrictions due to construction work on FL-70 15th St both ways between Tara Blvd and 301 Blvd.,,15th St E,R,Bradenton,Manatee,FL,34203,US,US/Eastern,KSRQ,2016-08-17 04:53:00,78.1,,87.0,30.1,10.0,ENE,4.6,,Clear,False,False,False,False,False,False,False,False,False,False,False,True,False,Night,Night,Night,Night
C-4591824,2,2021-10-11 13:34:30.000000000,2021-10-11 15:57:08.000000000,39.703838,-104.996365,39.696712,-104.993868,0.509939489308,Stationary traffic on US-85 S from Denver to S Fox St due to roadwork.,,S Kalamath St,R,Denver,Denver,CO,80223,US,US/Mountain,KAPA,2021-10-11 13:53:00,64.0,64.0,24.0,23.95,10.0,SSE,21.0,0.0,Partly Cloudy / Windy,False,False,True,False,False,False,False,False,False,False,False,False,False,Day,Day,Day,Day
C-4591825,2,2020-09-17 06:00:00.000000000,2020-09-17 21:45:00.000000000,40.949598,-115.614461,40.949163,-115.534089,4.19435996252,Construction on I-80 near MM 310 Allow extra time.,,I-80 E,R,Elko,Elko,NV,89801,US,US/Pacific,KEKO,2020-09-17 05:56:00,47.0,45.0,39.0,25.01,10.0,NE,5.0,0.0,Fair,False,False,False,False,False,False,False,False,False,False,False,False,False,Night,Day,Day,Day
C-4591826,2,2016-11-22 17:02:50.000000000,2016-11-22 22:59:00.000000000,41.53286,-83.62738,41.53276,-83.629372,0.103261015276,Between I-475 and I-75/US-23 - Construction work.,,US-23 N,R,Perrysburg,Wood,OH,43551,US,US/Eastern,KTDZ,2016-11-22 16:53:00,37.9,,47.0,30.35,10.0,Calm,,,Clear,False,False,False,False,False,False,False,False,False,False,False,False,False,Day,Day,Day,Day
C-4591827,2,2021-09-30 12:57:30.000000000,2021-09-30 13:20:00.000000000,32.866018,-97.34239,32.862517,-97.342713,0.242621306732,Slow traffic on FM-156 from E Bailey Boswell Rd (Blue Mound Rd/FM-156) to E McLeroy Blvd (Blue Mound Rd/FM-156) due to roadwork.,6763.0,Blue Mound Rd,L,Fort Worth,Tarrant,TX,76131,US,US/Central,KFWD,2021-09-30 12:53:00,83.0,83.0,58.0,29.22,10.0,SSE,9.0,0.0,Fair,False,False,False,False,False,False,False,False,False,False,False,False,False,Day,Day,Day,Day
C-4591828,3,2018-05-14 19:00:00.000000000,2018-05-15 06:00:00.000000000,41.097534,-74.040215,,,0.0,Left lane closed due to construction work on I-87 Southbound at Exit 14A Garden State Parkway Conn.,,I-87 S,R,Spring Valley,Rockland,NY,10977,US,US/Eastern,KHPN,2018-05-14 18:56:00,64.9,,73.0,29.92,10.0,South,5.8,,Clear,False,False,False,False,False,False,False,False,False,False,False,False,False,Day,Day,Day,Day
C-4591830,3,2017-09-29 09:02:25.000000000,2017-09-29 15:02:25.000000000,38.03373300000001,-84.491362,38.031194,-84.490112,0.188156406711,At Ashland Ave - Resurfacing work during the day time.,614.0,E High St,R,Lexington,Fayette,KY,40502-1752,US,US/Eastern,KLEX,2017-09-29 08:54:00,55.9,,75.0,30.17,10.0,NNE,3.5,,Clear,False,False,False,False,False,False,False,False,False,False,False,True,False,Day,Day,Day,Day
C-4591831,2,2021-07-25 04:26:30.000000000,2021-07-26 07:07:13.000000000,44.89072,-93.315524,44.890385,-93.299626,0.778545885389,Construction on MN-62 EB near MM 100 Allow extra time.,,Crosstown Hwy E,R,Minneapolis,Hennepin,MN,55423,US,US/Central,KMSP,2021-07-25 04:53:00,69.0,69.0,63.0,29.08,9.0,SW,3.0,0.0,Fair,False,False,False,False,True,False,False,False,False,False,False,False,False,Night,Night,Night,Day
C-4591832,4,2016-10-16 06:00:00.000000000,2016-10-16 15:00:00.000000000,39.09669,-94.59547,39.09622,-94.575501,1.07127793125,Closed between I-35/Exit 2T and I-70/Bruce R Watkins Dr/Exit 2 - Closed due to roadwork.,,I-670 E,R,Kansas City,Jackson,MO,64108,US,US/Central,KMKC,2016-10-16 05:54:00,69.1,,84.0,29.83,10.0,South,6.9,,Clear,False,False,False,False,False,False,False,False,False,False,False,False,False,Night,Night,Night,Day
C-4591833,2,2020-11-30 22:43:00.000000000,2020-12-22 09:46:04.000000000,39.93679,-75.199166,39.954894,-75.180971,1.5791070241,Roadwork on I-76 westbound between Exit 346B: UNIVERSITY AVE and Exit 344: I-676-US30 EAST - CENTRAL PHILA. There is a lane restriction.,,I-76 W,R,Philadelphia,Philadelphia,PA,19146,US,US/Eastern,KPHL,2020-11-30 22:49:00,55.0,55.0,88.0,29.46,10.0,SW,12.0,0.0,Mostly Cloudy,True,False,True,False,False,False,False,False,False,False,False,False,False,Night,Night,Night,Night
C-4591834,2,2021-03-18 09:00:00.000000000,2021-12-28 03:01:04.000000000,25.685015,-80.42894799999998,25.68402,-80.43001,0.0953890788288,Stationary traffic on FL-94 from N Kendall Dr to SW 90th Ter due to roadwork.,14609.0,SW 88th St,L,Miami,Miami-Dade,FL,33186-1024,US,US/Eastern,KTMB,2021-12-20 15:53:00,81.0,81.0,65.0,29.91,10.0,ESE,8.0,0.0,Fair,False,False,False,False,False,False,False,False,False,False,False,False,False,Day,Day,Day,Day
C-4591835,4,2020-12-17 13:40:43.000000000,2020-12-25 07:59:00.000000000,39.946728,-75.162609,39.947938,-75.162349,0.0847297901056,Closed road from Lombard St (S 13th St) to Walnut St (S 13th St) due to roadwork.,1300.0,Spruce St,L,Philadelphia,Philadelphia,PA,19107-5825,US,US/Eastern,KPHL,2020-12-17 13:54:00,36.0,27.0,64.0,29.96,10.0,N,15.0,0.0,Mostly Cloudy,True,False,True,False,False,False,True,False,True,False,False,True,False,Day,Day,Day,Day
C-4591836,2,2021-12-10 16:47:30.000000000,2021-12-10 18:48:48.000000000,32.270959999999995,-110.978046,32.273576,-110.978071,0.1807542860579999,Stationary traffic on AZ-77 from W Fort Lowell Rd (N Oracle Rd/AZ-77) to W Wetmore Rd (N Oracle Rd/AZ-77) due to roadwork.,3556.0,N Oracle Rd,R,Tucson,Pima,AZ,85705-3518,US,US/Mountain,KDMA,2021-12-10 16:56:00,57.0,57.0,49.0,27.23,10.0,NW,9.0,0.0,Fair,False,True,True,False,False,False,False,False,False,True,True,True,False,Day,Day,Day,Day
C-4591837,2,2020-03-07 23:20:30.000000000,2020-07-20 18:50:00.000000000,42.08866,-91.70162,42.04301,-91.68081,3.3298361355799995,At Boyson Rd/Exit 25 - Roadwork. Hard shoulder closed.,,I-380 S,R,Cedar Rapids,Linn,IA,52411,US,US/Central,KCID,2020-03-13 07:52:00,28.0,17.0,85.0,29.26,10.0,WSW,15.0,0.0,Fair,False,False,False,False,False,False,False,False,False,False,False,False,False,Night,Night,Night,Night
C-4591838,4,2018-04-09 09:55:10.000000000,2018-04-09 15:56:27.000000000,40.08729,-75.29313,40.09608,-75.2961,0.627292576491,Closed at W Ridge Pike/Colwell Ln - Closed due to roadwork.,199.0,W North Ln,R,Conshohocken,Montgomery,PA,19428-1318,US,US/Eastern,KLOM,2018-04-09 09:55:00,33.8,30.8,52.0,30.26,10.0,NNW,3.5,,Clear,False,False,True,False,False,False,False,False,False,False,False,True,False,Day,Day,Day,Day
C-4591839,2,2021-04-23 07:00:00.000000000,2021-04-23 21:45:00.000000000,41.550336,-95.97526,41.549868,-95.918799,2.91965636495,Construction on US-30 EB near MISSOURI RIVER BRG Drive with caution.,3148.0,Grover Ave,R,Missouri Valley,Harrison,IA,51555,US,US/Central,KBTA,2021-04-23 06:55:00,45.0,38.0,77.0,28.47,10.0,S,16.0,0.0,Cloudy,False,False,False,False,False,False,False,False,False,False,False,False,False,Day,Day,Day,Day
C-4591840,3,2017-08-23 09:00:00.000000000,2017-08-23 15:00:00.000000000,41.44845,-71.78608,41.53788,-71.67866,8.31183864603,Between RI-3/Exit 1 and RI-3/Exit 4 - Construction work.,,I-95 N,R,Ashaway,Washington,RI,02804,US,US/Eastern,KWST,2017-08-23 09:07:00,75.9,,87.0,29.79,10.0,SW,3.5,,Overcast,False,False,False,False,True,False,False,False,False,False,False,False,False,Day,Day,Day,Day
C-4591841,2,2021-11-12 08:40:00.000000000,2021-11-12 09:01:30.000000000,47.605685,-122.11298,47.608073,-122.112313,0.1678952265349999,Stationary traffic from SE 26th St (W Lake Sammamish Pkwy SE) to Northup Way (W Lake Sammamish Pkwy SE) due to roadwork.,341.0,W Lake Sammamish Pkwy SE,R,Bellevue,King,WA,98008-5238,US,US/Pacific,KRNT,2021-11-12 08:53:00,58.0,58.0,90.0,30.07,4.0,S,8.0,0.01,Light Rain,False,False,False,False,False,False,False,False,False,False,False,False,False,Day,Day,Day,Day
C-4591842,2,2021-11-16 08:44:00.000000000,2021-11-16 09:24:30.000000000,25.846879,-80.214507,25.847039,-80.20924699999998,0.3272611223889999,Slow traffic on FL-934 from FL-934/NW 13th Ct (FL-934) to I-95 (FL-934) due to roadwork.,1088.0,NW 79th St,R,Miami,Miami-Dade,FL,33150-3142,US,US/Eastern,KOPF,2021-11-16 08:53:00,76.0,76.0,62.0,30.17,10.0,ENE,15.0,0.0,Fair,False,False,False,False,False,False,False,False,True,False,False,True,False,Day,Day,Day,Day
C-4591843,4,2020-05-20 23:34:15.000000000,2020-05-21 04:33:56.000000000,41.96075,-87.74507,41.96081,-87.73982,0.269766629319,Closed between Knox Ave and Kenneth Ave - Closed for bridge demolition work.,,N Knox Ave,R,Chicago,Cook,IL,60641,US,US/Central,KORD,2020-05-20 23:18:00,58.0,58.0,67.0,29.4,10.0,ESE,8.0,0.0,Cloudy,True,False,True,False,False,False,False,False,True,False,False,True,False,Night,Night,Night,Night
C-4591844,3,2019-10-09 19:00:00.000000000,2019-10-10 05:00:00.000000000,36.917091,-76.26709,,,0.0,Two lanes closed and left hand shoulder closed due to construction work on I-64 Hampton Roads Bltwy Eastbound at Exits 276 276A 276B 276C VA-165 Little Creek Rd.,,I-64 W,R,Norfolk,Norfolk,VA,23505,US,US/Eastern,KNGU,2019-10-09 18:59:00,64.0,64.0,80.0,30.13,10.0,NNE,15.0,0.0,Cloudy,False,False,False,False,False,False,False,False,False,False,False,False,False,Night,Day,Day,Day
C-4591845,4,2019-05-02 12:32:27.000000000,2019-05-02 17:31:44.000000000,42.848492,-78.861491,42.865833,-78.875955,1.40436670269,Closed between Fuhrmann Blvd/Tifft St and I-190/New York State Thruway - Closed due to roadwork.,,Buffalo Skwy N,R,Buffalo,Erie,NY,14203,US,US/Eastern,KBUF,2019-05-02 12:54:00,51.0,51.0,89.0,29.39,5.0,NNE,3.0,0.0,Cloudy,False,False,False,False,True,False,False,False,False,False,False,False,False,Day,Day,Day,Day
C-4591846,2,2021-11-18 17:49:30.000000000,2021-11-18 17:59:30.000000000,41.060406,-81.554015,41.059972,-81.56071,0.3500815216539999,Slow traffic on I-77 N - I-76 W from OH-59/Exit 21 (I-76/I-77) to I-76 (I-76/I-77) due to roadwork.,,I-76 W,R,Akron,Summit,OH,44307,US,US/Eastern,KAKR,2021-11-18 17:54:00,41.0,34.0,49.0,29.0,10.0,W,12.0,0.0,Fair,False,False,False,False,True,False,False,False,False,False,False,False,False,Night,Night,Day,Day
C-4591847,2,2021-06-14 10:20:45.000000000,2021-06-14 12:26:09.000000000,40.689576,-73.981368,40.687376,-73.979781,0.17325914288,Slow traffic from Tillary St (Flatbush Ave) to Atlantic Ave (Flatbush Ave) due to roadwork.,398.0,Flatbush Avenue Ext,R,Brooklyn,Kings,NY,11201-5312,US,US/Eastern,KJRB,2021-06-14 10:29:00,65.0,,93.0,29.76,1.0,,,0.0,Light Rain,True,False,False,False,False,False,True,False,True,False,False,True,False,Day,Day,Day,Day
C-4591848,2,2021-03-04 09:28:30.000000000,2021-12-31 15:04:00.000000000,35.99220800000001,-96.011763,35.988228,-96.012873,0.28190640117,Stationary traffic from Okmulgee Bee Line Expy to W 121st St S due to roadwork.,,Okmulgee Bee Line Expy,R,Jenks,Tulsa,OK,74037,US,US/Central,KRVS,2021-04-19 14:53:00,75.0,75.0,23.0,29.23,10.0,S,12.0,0.0,Fair,False,False,False,False,True,False,False,False,False,False,False,False,False,Day,Day,Day,Day
C-4591849,2,2021-04-20 04:33:30.000000000,2021-04-20 11:07:00.000000000,40.849544,-73.934262,40.847412,-73.929418,0.292909000499,Slow traffic from Broadway to Harlem River Dr S due to roadwork.,612.0,W 181st St,L,New York,New York,NY,10033-4912,US,US/Eastern,KNYC,2021-04-20 04:51:00,53.0,53.0,66.0,29.79,10.0,SSW,3.0,0.0,Fair,False,False,False,False,True,False,False,False,False,False,False,False,False,Night,Night,Night,Day
C-4591850,2,2021-11-11 17:11:02.000000000,2021-11-11 17:31:02.000000000,30.232389,-92.086433,30.233562,-92.093555,0.43280869092,Slow traffic on US-90 E - US-90 W - US-93 E - US-93 W - LA-93 from LA-3184/Ambassador Caffery Pkwy (US-90) to LA-95/Austria Rd (US-90) due to roadwork.,5413.0,Cameron St,L,Lafayette,Lafayette,LA,70506-1418,US,US/Central,KLFT,2021-11-11 16:53:00,69.0,69.0,70.0,29.98,10.0,N,9.0,0.0,Mostly Cloudy,False,False,False,False,False,False,False,False,False,False,False,False,False,Day,Day,Day,Day
C-4591851,2,2021-11-07 18:11:00.000000000,2021-11-07 18:24:00.000000000,42.380887,-83.031932,42.385347,-83.023422,0.532533744149,Slow traffic on I-94 E - Edsel Ford Fwy E from Chene St/Exit 217 (I-94) to MI-53/Van Dyke/Exit 218 (I-94) due to roadwork.,,E Edsel Ford Fwy,R,Detroit,Wayne,MI,48211,US,US/Eastern,KDET,2021-11-07 17:53:00,56.0,56.0,64.0,29.47,10.0,SSW,3.0,0.0,Fair,False,False,False,False,True,False,False,False,False,False,False,False,False,Night,Night,Day,Day
C-4591852,2,2021-09-04 09:51:00.000000000,2021-09-04 10:15:00.000000000,41.926996,-87.835669,41.928779,-87.836624,0.132614541171,Stationary traffic on IL-171 from 1st Ave to Tarpey Ln due to roadwork.,2600.0,Thatcher Ave,L,River Grove,Cook,IL,60171-1613,US,US/Central,KORD,2021-09-04 09:51:00,68.0,68.0,76.0,29.17,9.0,SSW,13.0,0.0,Light Rain,False,False,False,False,False,False,False,False,True,False,False,False,False,Day,Day,Day,Day
C-4591853,2,2021-10-11 08:00:00.000000000,2021-10-14 02:35:24.000000000,30.078569,-90.964133,30.069075,-90.96916,0.721557847676,Road Maintenance Operations on LA-70 Both Directions from LA-3127 to LA-3125 . All Lanes Intermittently Closed. Width Restriction: 16ft Starting 10/11/2021 8:00 AM,,Highway 70,R,Donaldsonville,Ascension,LA,70346,US,US/Central,KL38,2021-10-11 07:53:00,71.0,71.0,96.0,29.86,10.0,CALM,0.0,0.0,Partly Cloudy,False,False,False,False,False,False,False,False,False,False,False,False,False,Day,Day,Day,Day
C-4591854,4,2018-10-29 19:49:00.000000000,2018-11-02 19:48:52.000000000,36.027937,-78.938017,36.01825,-78.89966,2.24551031452,Between Hillandale Rd/Exit 174 and US-501/Duke St/Gregson/Exit 176 - Construction work. Two lanes blocked.,,I-85 N,R,Durham,Durham,NC,27705,US,US/Eastern,KIGX,,,,,,,,,,,False,False,False,False,False,False,False,False,False,False,False,False,False,Night,Night,Night,Night
C-4591855,2,2021-03-12 05:01:00.000000000,2021-03-12 14:36:31.000000000,33.510588,-112.116976,33.509469,-112.116158,0.0905450473324999,Stationary traffic from W Medlock Dr to I-17 S due to roadwork.,5023.0,N 27th Ave,R,Phoenix,Maricopa,AZ,85017,US,US/Mountain,KPHX,2021-03-12 04:51:00,48.0,46.0,89.0,28.81,9.0,SSW,5.0,0.06,Light Rain,True,False,False,False,False,False,False,False,True,False,False,False,False,Night,Night,Night,Night
C-4591856,3,2021-02-18 01:30:28.000000000,2021-02-18 05:00:00.000000000,33.604229,-117.691727,,,0.40000000596,Entry ramp to I-5 Southbound from Alicia Pkwy closed due to construction work.,,I-5 S,R,Laguna Hills,Orange,CA,92653,US,US/Pacific,KSNA,2021-02-18 01:53:00,60.0,60.0,16.0,30.1,10.0,NE,9.0,0.0,Fair,False,False,False,False,False,False,False,False,False,False,False,False,False,Night,Night,Night,Night
C-4591857,2,2021-08-25 14:42:30.000000000,2021-08-25 15:28:00.000000000,40.299259,-76.45388299999998,40.30152,-76.450384,0.2416624636609999,Stationary traffic on PA-241 from Horseshoe Pike (Colebrook Rd) to Royal Rd (Colebrook Rd) due to roadwork.,2052.0,Colebrook Rd,R,Lebanon,Lebanon,PA,17042-9512,US,US/Eastern,KMUI,2021-08-25 14:55:00,97.0,97.0,39.0,29.57,10.0,SW,10.0,0.0,Mostly Cloudy,False,False,False,False,False,False,False,False,False,False,False,False,False,Day,Day,Day,Day
C-4591858,2,2021-12-26 17:26:00.000000000,2021-12-26 19:30:22.000000000,39.763692,-86.33834,39.764293,-86.33668399999998,0.0972619893639,Stationary traffic on US-36 E - US-36 W from Shiloh Professional Dr to Shiloh Xing / N County Road 1050 E due to roadwork.,10376.0,E US Highway 36,L,Avon,Hendricks,IN,46123-7050,US,US/Eastern,KIND,2021-12-26 17:54:00,46.0,43.0,73.0,29.16,10.0,E,6.0,0.0,Mostly Cloudy,False,False,False,False,False,False,False,False,False,False,False,False,False,Day,Day,Day,Day
C-4591859,2,2020-12-03 12:35:00.000000000,2020-12-03 18:51:54.000000000,30.836472,-96.637049,30.834712,-96.640266,0.226302057133,Stationary traffic on US-190 W - US-79 S - US-79 N - US-190 E from FM-50 (US-190/US-79) to FM-1644 (US-190/US-79) due to roadwork.,,W Brown St,R,Hearne,Robertson,TX,77859,US,US/Central,KLHB,2020-12-03 12:35:00,51.0,51.0,57.0,29.94,10.0,NNW,9.0,0.0,Fair,False,False,False,False,False,False,False,False,False,False,False,False,False,Day,Day,Day,Day
C-4591860,2,2021-10-07 13:34:00.000000000,2021-10-07 15:39:12.000000000,29.739855,-95.41071,29.744676,-95.410656,0.333115128245,Slow traffic from Farnham St/Richmond Ave (Shepherd Dr) to W Gray St/Inwood Dr (S Shepherd Dr) due to roadwork.,2096.0,Kipling St,R,Houston,Harris,TX,77098-2304,US,US/Central,KMCJ,2021-10-07 13:53:00,89.0,89.0,32.0,30.02,10.0,NE,6.0,0.0,Fair,False,False,True,False,False,False,False,False,False,True,False,True,False,Day,Day,Day,Day
C-4591861,2,2021-06-11 17:22:08.000000000,2021-06-11 17:42:08.000000000,30.157356,-92.047508,30.156084000000003,-92.04872,0.1138723039379999,Slow traffic from Camellia Blvd (Kaliste Saloom Rd/LA-3095) to LA-3073/Ambassador Caffery Pkwy (Kaliste Saloom Rd/LA-3095) due to roadwork.,2518.0,Kaliste Saloom Rd,L,Lafayette,Lafayette,LA,70508-6812,US,US/Central,KLFT,2021-06-11 16:53:00,88.0,88.0,61.0,29.85,10.0,SSW,13.0,0.0,Partly Cloudy,False,False,False,False,False,False,False,False,False,False,False,False,False,Day,Day,Day,Day
C-4591862,4,2020-09-21 14:30:00.000000000,2020-09-22 02:45:00.000000000,32.151691,-83.141071,32.15327,-83.14267099999998,0.143744616893,Construction on GA-27 NB near HARRY HARGROVE RD Road closed. Take alternate route.,1845.0,McRae Hwy,R,Eastman,Dodge,GA,31023-7812,US,US/Eastern,KEZM,2020-09-21 14:30:00,74.0,74.0,51.0,29.97,10.0,ENE,12.0,0.0,Fair,False,False,False,False,False,False,False,False,False,True,False,False,False,Day,Day,Day,Day
C-4591863,3,2020-11-25 02:04:58.000000000,2020-11-25 05:00:00.000000000,33.687302,-117.900208,,,0.589999973774,Entry ramp to Ca-73 Southbound from I-405 Southbound closed due to bridge maintenance work.,,I-405 S,R,Costa Mesa,Orange,CA,92626,US,US/Pacific,KSNA,2020-11-25 01:53:00,53.0,53.0,83.0,30.03,8.0,NNE,3.0,0.0,Fair,False,False,False,False,False,False,False,False,False,False,False,False,False,Night,Night,Night,Night
C-4591864,2,2021-02-15 21:52:00.000000000,2021-02-16 10:21:19.000000000,30.809794,-98.069843,30.800882,-98.067202,0.635394010468,Roadwork on County Road 200 from Bertram to RM-1174.,5444.0,N FM 1174,L,Bertram,Burnet,TX,78605-3791,US,US/Central,KBMQ,2021-02-15 21:53:00,10.0,2.0,76.0,28.88,10.0,N,5.0,0.0,Fair,False,False,False,False,False,False,False,False,False,False,False,False,False,Night,Night,Night,Night
C-4591865,2,2021-09-02 09:39:30.000000000,2021-11-24 04:45:00.000000000,33.451569,-112.203446,33.451584999999994,-112.204514,0.0615782358788,Construction on VAN BUREN ST near 67TH AVE Allow extra time.,6700.0,W Van Buren St,R,Phoenix,Maricopa,AZ,85043,US,US/Mountain,KGEU,2021-11-22 08:58:00,66.0,66.0,23.0,29.01,10.0,NE,7.0,0.0,Fair,False,False,True,False,False,False,False,False,False,False,False,True,False,Day,Day,Day,Day
C-4591866,3,2020-06-16 21:00:00.000000000,2020-06-17 06:00:00.000000000,37.442326,-77.427658,,,0.0,Right lane closed due to bridge maintenance work on I-95 Southbound after Exit 67 / VA-150 Chippenham Pkwy.,,Pocahontas Pkwy E,R,Richmond,Chesterfield,VA,23234,US,US/Eastern,KFCI,2020-06-16 20:56:00,62.0,62.0,96.0,29.93,10.0,NE,9.0,0.01,Light Rain,False,False,False,False,False,False,False,False,False,False,False,False,False,Night,Day,Day,Day
C-4591867,2,2019-05-26 07:03:19.000000000,2019-05-30 07:02:14.000000000,35.11222,-80.68358,35.120388,-80.906531,12.6132520633,Between Idlewild Rd/Exit 49 and I-77/US-21/Exit 67 - Construction work.,,I-485 S,R,Matthews,Mecklenburg,NC,28105,US,US/Eastern,KEQY,2019-05-26 06:53:00,70.0,70.0,90.0,29.38,6.0,CALM,0.0,0.0,Fair,False,False,False,False,True,False,False,False,False,False,False,False,False,Day,Day,Day,Day
C-4591868,2,2019-05-06 07:00:00.000000000,2019-05-07 17:00:00.000000000,40.32602,-104.811731,40.327468,-104.81178,0.100080559337,At CR-396 - Construction work.,22495.0,State Highway 60,L,Milliken,Weld,CO,80543-9421,US,US/Mountain,KFNL,2019-05-06 06:56:00,51.0,51.0,83.0,24.96,10.0,ENE,3.0,0.0,Cloudy,False,False,False,False,False,False,False,False,False,False,False,False,False,Day,Day,Day,Day
C-4591869,2,2020-07-08 13:42:00.000000000,2020-07-09 14:32:23.000000000,40.818372,-79.489551,40.860372,-79.445717,3.697464273530002,Roadwork on PA 28 northbound between TO 1038/0130 SH and PINE FURNACE RD. There is a lane restriction.,,PA-28,R,Kittanning,Armstrong,PA,16201,US,US/Eastern,KBTP,2020-07-08 13:56:00,88.0,88.0,48.0,28.65,10.0,WSW,7.0,0.0,Fair,False,False,False,False,False,False,False,False,False,False,False,False,False,Day,Day,Day,Day
C-4591870,2,2017-11-02 09:52:52.000000000,2017-11-10 13:00:00.000000000,40.817493,-91.14135,,,128.429992676,Intermittent lane closures and temporary width limit of 12' due to construction on US-34 both ways between County Hwy-W40 Center St and Exit 261 US-61 Roosevelt Ave.,,N Roosevelt Ave,R,Burlington,Des Moines,IA,52601,US,US/Central,KBRL,2017-11-02 09:53:00,48.9,,100.0,29.88,1.8,NE,3.5,,Overcast,False,False,False,False,False,False,False,False,False,False,False,False,False,Day,Day,Day,Day
C-4591871,2,2021-09-24 16:24:00.000000000,2021-09-24 17:13:00.000000000,29.20567,-90.041719,29.206063,-90.035967,0.347962613003,Slow traffic on LA-1 - LA-3235 from Central Ave (LA-1) to Cheramie Dr (LA-1) due to roadwork.,,Highway 1,R,District 1,Jefferson,LA,,US,,,,,,,,,,,,,False,False,False,False,False,False,False,False,False,False,False,False,False,,,,
C-4591872,2,2020-10-08 10:56:30.000000000,2020-10-09 02:16:30.000000000,28.444629,-81.38134000000002,28.445627,-81.376866,0.280414949751,Slow traffic on FL-528 E - Martin Anderson Beachline Expy - Beachline Expy from US-17 exit [4] to Jetport Dr exit [8] due to roadwork.,,Beachline Expy,R,Orlando,Orange,FL,32824,US,US/Eastern,KMCO,2020-10-08 10:53:00,84.0,84.0,72.0,29.95,10.0,ENE,8.0,0.0,Partly Cloudy,False,False,False,False,False,False,False,False,False,False,False,False,False,Day,Day,Day,Day
C-4591873,2,2017-08-19 22:17:54.000000000,2017-10-10 16:32:37.000000000,40.17214,-79.91556,40.170074,-79.90800300000002,0.423744983623,Between PA-88/Country Club Rd and Monessen Brg - Roadwork. Lane blocked.,101.0,Route 837,R,Monongahela,Washington,PA,15063-1033,US,US/Eastern,KAGC,2017-08-19 21:53:00,64.0,,87.0,29.99,10.0,SSE,4.6,,Clear,False,False,False,False,False,False,False,False,False,False,False,True,False,Night,Night,Night,Night
C-4591874,2,2021-11-12 12:45:13.000000000,2021-11-12 13:09:08.000000000,36.250272,-93.118694,36.249736,-93.119058,0.0422242289231,Slow traffic on AR-43 - US-62 W - US-65 S - US-62 E - US-412 W - US-65 N - US-412 E from Beene Ave to W Industrial Park Rd due to roadwork.,715.0,Highway 62 65 N,R,Harrison,Boone,AR,72601-2152,US,US/Central,KHRO,2021-11-12 12:53:00,50.0,50.0,44.0,28.55,10.0,WNW,15.0,0.0,Fair,False,False,False,False,False,False,False,False,False,False,False,False,False,Day,Day,Day,Day
C-4591875,2,2021-03-05 05:01:00.000000000,2021-03-05 18:29:18.000000000,36.940304,-76.54035400000002,36.940788,-76.53713,0.181154202257,Stationary traffic on US-258 N - VA-32 from Campbells Chapel Dr/VA-665 (VA-32/Brewers Neck Blvd/US-258) to US-17/Carrollton Blvd (VA-32/US-258) due to roadwork.,22286.0,Brewers Neck Blvd,R,Carrollton,Isle of Wight,VA,23314-3508,US,US/Eastern,KPHF,2021-03-05 04:54:00,31.0,23.0,50.0,30.01,10.0,NNW,9.0,0.0,Fair,False,False,False,False,False,False,False,False,False,False,False,True,False,Night,Night,Night,Night
C-4591876,4,2020-09-18 07:00:00.000000000,2020-09-21 01:09:56.000000000,33.872366,-80.364949,33.883067,-80.363928,0.741684744036,Construction on LEWIS RD NB near SC-645 Road closed. Take alternate route.,1666.0,Lewis Rd,L,Sumter,Sumter,SC,29154-7353,US,US/Eastern,KSSC,2020-09-18 06:56:00,70.0,70.0,94.0,29.52,10.0,N,10.0,0.0,Cloudy,False,False,False,False,False,False,False,False,False,True,False,False,False,Night,Day,Day,Day
C-4591877,2,2021-03-02 09:01:06.000000000,2021-03-03 09:51:14.000000000,39.28462,-76.54389599999998,39.28267,-76.54960600000003,0.33377122666,Construction on I-95 SB near MM 57 Expect delays.,,I-95 S,R,Baltimore,Baltimore City,MD,21224,US,US/Eastern,KDMH,,,,,,,,,,,False,False,False,False,False,False,False,False,False,False,False,False,False,Day,Day,Day,Day
C-4591878,2,2021-12-28 08:55:00.000000000,2021-12-28 09:15:00.000000000,40.684581,-73.977788,40.688867,-73.98084,0.336547519421,Slow traffic from Atlantic Ave (Flatbush Ave) to Tillary St (Flatbush Ave) due to roadwork.,,Flatbush Ave,R,Brooklyn,Kings,NY,11217,US,US/Eastern,KJRB,2021-12-28 08:51:00,40.0,34.0,86.0,29.77,7.0,W,9.0,0.0,Fair,True,False,True,False,False,False,True,False,True,False,False,True,False,Day,Day,Day,Day
C-4591879,2,2018-10-08 21:01:42.000000000,2018-10-12 21:01:27.000000000,28.580241,-82.217316,28.518996,-82.23764399999997,4.4078100305,Between Hernando/Sumter County Line and US-98/SR-50/Exit 301 - Construction work.,,I-75 S,R,Webster,Sumter,FL,33597,US,US/Eastern,KINF,,,,,,,,,,,False,False,False,False,False,False,False,False,False,False,False,False,False,Night,Night,Night,Night
C-4591880,3,2019-05-11 12:02:46.000000000,2019-05-15 12:02:44.000000000,47.44057,-122.21764,47.467448,-122.21789,1.85712965992,Between 41st St/180th St/Valley Rd and I-405 - Construction work.,,WA-167 N,R,Renton,King,WA,98055,US,US/Pacific,KRNT,2019-05-11 11:53:00,75.0,75.0,40.0,29.86,10.0,SE,6.0,0.0,Fair,False,False,False,False,True,False,False,False,False,False,False,False,False,Day,Day,Day,Day
C-4591881,2,2020-08-25 13:45:00.000000000,2020-08-25 22:06:17.000000000,39.713218,-86.368996,39.710855,-86.375744,0.39407652551,Stationary traffic on US-40 from S Raceway Rd (W Washington St/US-40) to IN-267/Avon Ave (E Main St/US-40) due to roadwork.,2344.0,E Main St,R,Plainfield,Hendricks,IN,46168-2733,US,US/Eastern,KIND,2020-08-25 13:54:00,90.0,90.0,55.0,29.21,10.0,W,9.0,0.0,Partly Cloudy,False,False,False,False,False,False,False,False,False,False,False,False,False,Day,Day,Day,Day
C-4591882,2,2018-07-23 21:06:44.000000000,2018-07-24 02:07:13.000000000,39.94968,-75.14213000000002,39.947601,-75.142338,0.144067112153,At I-95/Delaware Expy - Exit ramp closed. Roadwork.,2.0,S Front St,R,Philadelphia,Philadelphia,PA,19106-3001,US,US/Eastern,KPHL,2018-07-23 20:54:00,77.0,,84.0,30.1,10.0,SE,9.2,,Mostly Cloudy,True,False,True,False,False,False,False,False,True,False,False,True,False,Night,Night,Day,Day
C-4591883,2,2021-08-05 03:23:00.000000000,2021-08-05 04:13:00.000000000,32.819011,-96.636763,32.823112,-96.629865,0.490620314189,Slow traffic on I-30 E - R L Thornton Fwy E - US-67 N from I-30 W to Belt Line Rd exit [59] due to roadwork.,,I-30 E,R,Mesquite,Dallas,TX,75150,US,US/Central,KHQZ,2021-08-05 03:15:00,72.0,72.0,93.0,29.59,7.0,CALM,0.0,0.0,Fair,False,False,False,False,False,False,False,False,False,False,False,False,False,Night,Night,Night,Night
C-4591884,2,2020-09-01 13:27:30.000000000,2020-09-02 08:26:17.000000000,26.317692,-80.090085,26.31651,-80.091065,0.101751833822,Slow traffic on FL-810 - US-1 S - FL-5 from SE 12th Ave to US-1 due to roadwork.,1021.0,E Hillsboro Blvd,L,Deerfield Beach,Broward,FL,33441-3613,US,US/Eastern,KPMP,2020-09-01 13:53:00,90.0,90.0,68.0,30.0,10.0,E,12.0,0.0,Fair,False,False,False,False,False,False,False,False,False,False,False,False,False,Day,Day,Day,Day
