ID,Severity,Start_Time,End_Time,Start_Lat,Start_Lng,End_Lat,End_Lng,Distance(mi),Description,Number,Street,Side,City,County,State,Zipcode,Country,Timezone,Airport_Code,Weather_Timestamp,Temperature(F),Wind_Chill(F),Humidity(%),Pressure(in),Visibility(mi),Wind_Direction,Wind_Speed(mph),Precipitation(in),Weather_Condition,Amenity,Bump,Crossing,Give_Way,Junction,No_Exit,Railway,Roundabout,Station,Stop,Traffic_Calming,Traffic_Signal,Turning_Loop,Sunrise_Sunset,Civil_Twilight,Nautical_Twilight,Astronomical_Twilight
C-4384549,2,2020-04-06 13:22:00,2020-04-12 04:44:14,41.36012,-75.71805,41.34584,-75.70846999999998,1.10470121509,Between Keyser Avenue Toll Plaza and PA-315/Exit 115 - Construction work. Left lane blocked.,,I-476 S,R,Moosic,Lackawanna,PA,18507,US,US/Eastern,KAVP,2020-04-06 12:54:00,57.0,57.0,39.0,29.03,10.0,N,10.0,0.0,Fair,False,False,False,False,False,False,False,False,False,False,False,False,False,Day,Day,Day,Day
C-4384550,2,2019-10-07 20:00:00,2019-10-08 05:00:00,33.104073,-96.788277,,,0.0,Right lane closed due to construction during the night on Highway 121 both ways at Hillcrest Rd.,,Hillcrest Rd,R,Frisco,Collin,TX,75034,US,US/Central,KADS,2019-10-07 19:47:00,73.0,73.0,33.0,29.43,13.0,NNE,7.0,0.0,Fair,False,False,False,False,False,False,False,False,False,False,False,False,False,Night,Night,Night,Day
C-4384551,2,2020-05-08 05:25:09,2020-05-09 07:30:00,42.79413,-74.01657,42.83044,-74.01113000000002,2.52388886403,At I-890/Exit 26 - Roadwork. Left lane closed.,,New York Trwy W,R,Schenectady,Schenectady,NY,12306,US,US/Eastern,KSCH,2020-05-08 07:48:00,43.0,38.0,66.0,29.43,15.0,SW,8.0,0.0,Fair,False,False,False,False,True,False,False,False,False,False,False,False,False,Night,Day,Day,Day
C-4384552,3,2020-06-12 10:50:46,2020-06-16 10:49:22,38.75411,-90.45436,38.76723,-90.49008,2.12729341149,Between Earth City Expy/Exit 231 and Fifth St/Exit 229 - Construction work.,,I-70 W,R,Earth City,St. Louis County,MO,63045,US,US/Central,KSTL,2020-06-12 10:51:00,84.0,84.0,41.0,29.61,10.0,VAR,3.0,0.0,Fair,False,False,False,False,True,False,False,False,False,False,False,False,False,Day,Day,Day,Day
C-4384553,2,2020-08-28 14:12:15,2020-08-28 17:38:05,42.678971,-78.943942,42.673895,-78.947847,0.4029279073269999,Road maintenance operations right lane closed on I-90 - NYS Thruway westbound from after Exit 57 (I-90) - Hamburg (Rte 75) to before Exit 57A (I-90) - Eden - Angola until 12:30 PM 08/28/2020. [CARS CAD-202410055],,I-90 W,R,Derby,Erie,NY,14047,US,US/Eastern,KDKK,2020-08-28 14:12:00,75.0,75.0,79.0,29.1,10.0,N,8.0,0.0,Light Rain,False,False,False,False,False,False,False,False,False,False,False,False,False,Day,Day,Day,Day
C-4384554,2,2021-12-15 15:30:00,2021-12-15 17:32:10,41.929224,-87.848783,41.92978,-87.845177,0.189299173154,Slow traffic from 25th Ave (W Grand Ave) to IL-171/N Thatcher Ave (W Grand Ave) due to roadwork.,8921.0,Grand Ave,R,River Grove,Cook,IL,60171-1322,US,US/Central,KORD,2021-12-15 15:51:00,65.0,65.0,81.0,29.04,10.0,S,18.0,0.0,Cloudy,False,False,False,False,False,False,False,False,False,False,False,False,False,Day,Day,Day,Day
C-4384555,2,2020-08-22 07:00:00,2020-09-01 07:43:59,40.770372,-73.964203,40.77104600000001,-73.96370999999998,0.0532367410411999,Construction on E 71ST ST near PARK AVE Allow extra time.,737.0,Park Ave,R,New York,New York,NY,10021-4243,US,US/Eastern,KNYC,2020-08-22 06:51:00,74.0,74.0,82.0,29.83,10.0,WSW,5.0,0.0,Fair,False,False,True,False,False,False,False,False,False,False,False,True,False,Day,Day,Day,Day
C-4384556,2,2021-01-19 05:00:00,2021-01-19 12:30:00,33.986746000000004,-84.544101,33.9912,-84.551273,0.513343718182,Lane closed on GA-5 N - I-75 N - GA-401 N from GA-120 Alt/N Marietta Pkwy NE (I-75 Toll) to I-575 (I-75 Toll) due to roadwork.,,GA-401 N,R,Marietta,Cobb,GA,30066,US,US/Eastern,KRYY,2021-01-19 04:50:00,30.0,30.0,88.0,29.13,10.0,CALM,0.0,0.0,Fair,False,False,False,False,False,False,False,False,False,False,False,False,False,Night,Night,Night,Night
C-4384557,2,2021-11-17 08:23:00,2021-11-17 08:46:00,33.509313,-111.981781,33.509597,-111.986648,0.281072342838,Stationary traffic from Arcadia Dr (E Camelback Rd) to 44th St (E Camelback Rd) due to roadwork.,4527.0,E Camelback Rd,R,Phoenix,Maricopa,AZ,85018-2825,US,US/Mountain,KPHX,2021-11-17 08:51:00,62.0,62.0,30.0,28.81,10.0,ESE,5.0,0.0,Mostly Cloudy,False,False,True,False,False,False,False,False,False,True,False,True,False,Day,Day,Day,Day
C-4384558,2,2021-08-28 11:38:30,2021-08-28 15:20:00,42.677856,-83.308683,42.676997,-83.300667,0.411485300243,Slow traffic from Telegraph Dr (W Walton Blvd) to Baldwin Ave (Walton Blvd) due to roadwork.,208.0,W Walton Blvd,R,Pontiac,Oakland,MI,48340-1166,US,US/Eastern,KPTK,2021-08-28 11:53:00,84.0,84.0,69.0,29.07,10.0,S,6.0,0.0,Fair,False,False,True,False,False,False,False,False,False,False,False,True,False,Day,Day,Day,Day
C-4384559,2,2021-10-21 05:13:29,2021-10-21 17:00:00,29.511209,-82.279488,,,0.0,Left lane closed due to construction work on US-441 Northbound near CR-234.,,NE 1st St,R,Micanopy,Alachua,FL,32667,US,US/Eastern,KGNV,2021-10-21 04:53:00,62.0,62.0,93.0,30.0,10.0,CALM,0.0,0.0,Fair,False,False,False,False,False,False,False,False,False,True,False,True,False,Night,Night,Night,Night
C-4384560,2,2018-10-17 09:03:11,2018-10-21 09:03:03,41.96364000000001,-87.74629,41.89486,-87.65651,6.62435511598,Between I-90/I-94 Western Split and Ogden Ave/Exit 50A - Roadwork. Lane blocked.,,I-94 W,R,Chicago,Cook,IL,60630,US,US/Central,KORD,2018-10-17 08:51:00,42.1,34.5,62.0,30.25,10.0,NW,15.0,,Mostly Cloudy,False,False,False,False,False,False,False,False,False,False,False,False,False,Day,Day,Day,Day
C-4384561,2,2020-05-30 07:00:00,2020-05-31 18:00:00,40.09135,-102.34983,40.09135,-102.34983,0.0,At CR-35/Sunset Ln - Construction work.,23832.0,US Highway 34,L,Wray,Yuma,CO,80758-9721,US,US/Mountain,K2V5,2020-05-30 06:55:00,58.0,58.0,77.0,26.54,10.0,SE,13.0,0.0,Fair,False,False,False,False,False,False,False,False,False,False,False,False,False,Day,Day,Day,Day
C-4384562,2,2019-02-15 23:02:56,2019-02-19 23:02:18,25.88974,-80.198172,25.88926,-80.20881,0.662079170956,At I-95/SR-9a - Construction work.,20.0,NE 125th St,R,North Miami,Miami-Dade,FL,33161-4501,US,US/Eastern,KOPF,2019-02-15 22:53:00,70.0,,68.0,29.97,10.0,WNW,5.8,,Scattered Clouds,False,False,False,False,False,False,False,False,True,False,False,True,False,Night,Night,Night,Night
C-4384563,2,2021-12-01 05:01:00,2021-12-01 18:44:00,34.861046,-114.636701,34.872996,-114.654281,1.2941990949,Lane closure due to Roadway Excavation between River Rd and Water Rd,,I-40 W,R,Needles,San Bernardino,CA,92363,US,US/Pacific,KEED,2021-12-01 04:56:00,64.0,64.0,18.0,29.07,10.0,NW,8.0,0.0,Fair,False,False,False,False,False,False,False,False,False,False,False,False,False,Night,Night,Night,Day
C-4384564,2,2016-12-26 09:01:40,2016-12-26 15:01:40,39.389741,-76.529129,39.386354,-76.53201700000002,0.280265239718,Between Richmond Ave and California Ave - Construction work.,,Harford Rd,R,Parkville,Baltimore County,MD,21234,US,US/Eastern,KMTN,2016-12-26 09:45:00,39.2,,93.0,30.66,10.0,Calm,,,Overcast,False,False,False,False,False,False,False,False,False,False,False,True,False,Day,Day,Day,Day
C-4384565,4,2020-08-08 07:00:00,2020-08-15 07:45:00,34.165352,-118.524347,34.165371,-118.520273,0.232911400827,Construction on MAGNOLIA BLVD EB near NEWCASTLE AVE Road closed. Take alternate route.,5220.0,Newcastle Ave,R,Encino,Los Angeles,CA,91316-3011,US,US/Pacific,KVNY,2020-08-08 06:51:00,66.0,66.0,70.0,29.12,10.0,CALM,0.0,0.0,Fair,False,False,False,False,False,False,False,False,False,True,False,False,False,Day,Day,Day,Day
C-4384566,2,2020-09-09 12:06:00,2020-09-09 22:55:31,40.643186,-74.019245,40.644952,-74.017351,0.157315341115,Stationary traffic on I-278 W - I-278 E from 7 Ave exit [20] to exit [23] due to roadwork.,,58th St,R,Brooklyn,Kings,NY,11220,US,US/Eastern,KJRB,2020-09-09 11:51:00,77.0,77.0,66.0,30.21,10.0,NE,5.0,0.0,Fair,False,False,False,False,False,False,False,False,False,False,False,True,False,Day,Day,Day,Day
C-4384567,4,2018-07-11 11:03:05,2018-07-11 17:03:05,42.848492,-78.861491,42.88016,-78.87876,2.35635613848,Closed between Fuhrmann Blvd/Tifft St and I-190/New York State Thruway - Closed. Construction work.,,Buffalo Skwy N,R,Buffalo,Erie,NY,14203,US,US/Eastern,KBUF,2018-07-11 10:54:00,75.9,,42.0,30.12,10.0,North,12.7,,Partly Cloudy,False,False,False,False,False,False,False,False,False,False,False,False,False,Day,Day,Day,Day
C-4384568,2,2021-09-25 12:08:30,2021-09-28 18:58:31,42.015367,-87.711448,42.011863,-87.710528,0.2466669180669999,Slow traffic from Howard St to N Kedzie Ave due to roadwork.,7398.0,McCormick Blvd,R,Skokie,Cook,IL,60076-4039,US,US/Central,KORD,2021-09-28 16:51:00,71.0,71.0,42.0,29.25,10.0,ENE,9.0,0.0,Fair,False,False,False,False,False,False,False,False,False,False,False,False,False,Day,Day,Day,Day
C-4384569,2,2021-12-08 16:45:30,2021-12-08 18:54:06,47.13826,-122.523656,47.138061,-122.526062,0.1139139096859999,Stationary traffic from exit [124] to Pacific Hwy SW due to roadwork.,,I-5 S,R,Lakewood,Pierce,WA,98499,US,US/Pacific,KTCM,2021-12-08 15:58:00,42.0,36.0,69.0,29.63,10.0,SSW,10.0,0.0,Partly Cloudy,False,False,False,False,False,False,False,False,False,False,False,False,False,Night,Day,Day,Day
C-4384570,2,2021-11-12 17:17:19,2021-11-12 19:43:28,27.819285,-82.679462,27.821041,-82.678738,0.129142658755,Slow traffic on US-19 N from 52nd Ave N to 33rd St N due to roadwork.,5201.0,34th St N,R,Saint Petersburg,Pinellas,FL,33714-2400,US,US/Eastern,KSPG,2021-11-12 17:29:00,78.0,78.0,76.0,30.0,10.0,E,6.0,0.0,Mostly Cloudy,False,False,True,False,False,False,False,False,False,False,False,False,False,Day,Day,Day,Day
C-4384571,2,2017-10-14 20:05:36,2017-10-15 02:06:22,40.07623,-76.33716,40.078997,-76.338639,0.2065536569469999,Between US-30/Lincoln Hwy and Miller Rd - Roadwork. Lane blocked.,,Manheim Pike,R,Lancaster,Lancaster,PA,17601,US,US/Eastern,KLNS,2017-10-14 19:53:00,64.0,,90.0,30.19,10.0,Calm,,,Overcast,False,False,False,False,False,False,False,False,False,False,False,False,False,Night,Night,Night,Night
C-4384572,2,2021-11-18 16:41:00,2021-11-18 17:19:00,33.49375,-112.117067,33.495007,-112.117664,0.0934146030301,Slow traffic from W Weldon Ave to N 28th Ave due to roadwork.,3972.0,N 27th Ave,L,Phoenix,Maricopa,AZ,85017,US,US/Mountain,KPHX,2021-11-18 16:51:00,81.0,81.0,12.0,28.83,10.0,NE,8.0,0.0,Mostly Cloudy,True,False,False,False,False,False,False,False,True,False,False,False,False,Day,Day,Day,Day
C-4384573,2,2016-08-23 09:48:00,2016-08-23 15:00:00,37.55121,-122.31305,37.54936,-122.311,0.170144282853,At CA-92 - Roadwork.,,S El Camino Real,R,San Mateo,San Mateo,CA,94402,US,US/Pacific,KSQL,2016-08-23 09:49:00,64.4,,77.0,30.09,10.0,Variable,4.6,,Mostly Cloudy,False,False,False,False,False,False,False,False,False,False,False,False,False,Day,Day,Day,Day
C-4384574,2,2020-09-18 11:49:00,2020-09-19 18:32:16,39.95882,-83.347688,39.960667,-83.330732,0.907009316376,Roadwork on I-70 from US-42/Exit 79 (I-70) to OH-142/Exit 85 (I-70).,,I-70 E,R,London,Madison,OH,43140,US,US/Eastern,KTZR,2020-09-18 11:50:00,61.0,61.0,55.0,29.19,10.0,NNE,15.0,0.0,Fair,False,False,False,False,True,False,False,False,False,False,False,False,False,Day,Day,Day,Day
C-4384575,4,2020-05-22 12:33:31,2020-05-22 17:33:23,31.55105,-103.57901,31.55158,-103.5794,0.0432236938958,Closed at CR-427 - Closed due to roadwork.,893.0,US Highway 285,L,Pecos,Reeves,TX,79772,US,US/Central,KPEQ,2020-05-22 12:35:00,91.0,91.0,5.0,27.17,10.0,W,10.0,0.0,Fair,False,False,False,False,False,False,False,False,False,False,False,False,False,Day,Day,Day,Day
C-4384576,2,2021-03-01 05:35:00,2021-12-27 12:58:30,25.732828,-80.349738,25.732755,-80.352673,0.182747933163,Stationary traffic on FL-976 from FL-973/Galloway Rd/SW 87th Ave (SW 40th St/Bird Rd/FL-976) to FL-985/SW 107th Ave (SW 40th St/Bird Rd/FL-976) due to roadwork.,,SW 95th Ave,R,Miami,Miami-Dade,FL,33165,US,US/Eastern,KMIA,2021-03-01 05:53:00,75.0,75.0,84.0,30.06,10.0,SE,8.0,0.0,Fair,False,False,False,False,False,False,False,False,False,False,False,False,False,Night,Night,Night,Day
C-4384577,2,2021-10-07 19:36:30,2021-10-07 19:50:30,45.385672,-118.314858,45.39896,-118.333846,1.3006721424299998,Slow traffic on I-84 W - Old Oregon Trail Hwy No 6 - US-30 W - Old Oregon Trl from Spring Cr. Rd./Exit 248 (I-84) to Summit Rd/Exit 243 (I-84) due to roadwork.,,I-84 W,R,La Grande,Union,OR,97850,US,US/Pacific,KLGD,2021-10-07 19:56:00,50.0,50.0,48.0,27.14,10.0,SW,3.0,0.0,Cloudy,False,False,False,False,False,False,False,False,False,False,False,False,False,Night,Night,Night,Day
C-4384578,2,2021-08-12 12:14:00,2021-08-12 17:23:47,41.227031,-75.915814,41.228206,-75.914937,0.0931015074214999,Roadwork on E KIRMAR AV / MIDDLE RD / MAIN ST both directions between COUNTRYWOOD DR and DIVISION ST MAIN ST. There is a lane restriction.,1272.0,S Main St,L,Wilkes Barre,Luzerne,PA,18706,US,US/Eastern,KAVP,2021-08-12 11:54:00,87.0,87.0,61.0,29.01,10.0,WSW,15.0,0.0,Fair,True,False,False,False,False,False,False,False,False,False,False,False,False,Day,Day,Day,Day
C-4384579,2,2016-09-27 09:21:29,2016-09-27 16:00:00,41.703316,-72.569878,,,0.0,Right hand shoulder closed due to construction work on CT-2 Eastbound between Exits 5D 6 CT-3 and Exit 9 Neipsic Rd.,411.0,Neipsic Rd,L,Glastonbury,Hartford,CT,06033-3034,US,US/Eastern,KHFD,2016-09-27 09:09:00,64.0,,96.0,29.91,10.0,Calm,,,Mostly Cloudy,False,False,False,False,False,False,False,False,False,False,False,False,False,Day,Day,Day,Day
C-4384580,2,2020-06-18 01:51:41,2020-06-19 01:51:41,39.08666,-104.86144,39.08666,-104.86144,0.0,At CO-105/Exit 161 - Major roadwork.,,I-25 S,R,Monument,El Paso,CO,80132,US,US/Mountain,KAFF,2020-06-18 01:58:00,60.0,60.0,36.0,23.59,10.0,NNW,9.0,0.0,Fair,False,False,False,False,False,False,False,False,False,False,False,False,False,Night,Night,Night,Night
C-4384581,2,2021-04-27 12:18:00,2021-06-11 05:28:09,41.943311,-80.463121,41.936852,-80.520503,2.98270767338,Roadwork on I-90 westbound between .2 miles west of Exit 3: US 6N - CHERRY HILL/WEST SPRINGFIELD and 0 miles west of Exit : Ohio State Line. There is a lane restriction.,,Route 6N,R,West Springfield,Erie,PA,16443,US,US/Eastern,KHZY,2021-04-27 12:21:00,75.0,75.0,41.0,28.94,10.0,WSW,12.0,0.0,Fair,False,False,False,False,False,False,False,False,False,False,False,False,False,Day,Day,Day,Day
C-4384582,2,2021-11-04 17:34:22,2021-11-13 02:58:22,27.256133,-82.398204,27.26218,-82.408222,0.743751686285,Roadwork on Myakka Valley Trl (FL-72) from FL-72/Dove St/Proctor Rd (FL-72) to FL-72.,8696.0,State Road 72,R,Sarasota,Sarasota,FL,34241,US,US/Eastern,KSRQ,2021-11-04 17:53:00,77.0,77.0,66.0,29.93,10.0,ENE,6.0,0.0,Fair,False,False,False,False,False,False,False,False,False,False,False,False,False,Day,Day,Day,Day
C-4384583,2,2020-09-18 20:10:00,2020-09-19 09:52:24,40.967706,-86.251419,40.982396,-86.244089,1.08461820286,Roadwork on IN-25 from E 600 S (IN-25) to US-31 (IN-25).,5999.0,S State Road 25,R,Rochester,Fulton,IN,46975-8054,US,US/Eastern,KRCR,2020-09-18 20:15:00,55.0,55.0,44.0,29.45,10.0,CALM,0.0,0.0,Fair,False,False,False,False,False,False,False,False,False,False,False,False,False,Night,Day,Day,Day
C-4384584,2,2021-05-19 07:44:30,2021-05-19 10:39:30,44.313043,-85.559967,44.338523,-85.595147,2.47447913262,Slow traffic on M-115 from Boon Rd/E 34 Rd (MI-115) to N 21 1/2 Rd/Elm Flats Rd (MI-115) due to roadwork.,900.0,E M 115,L,Cadillac,Wexford,MI,49601,US,US/Eastern,KCAD,2021-05-19 07:35:00,59.0,59.0,91.0,28.85,10.0,E,5.0,0.0,Cloudy,False,False,False,False,False,False,False,False,False,False,False,False,False,Day,Day,Day,Day
C-4384585,2,2020-06-24 08:01:00,2020-06-24 17:01:00,40.45232,-123.65465,40.48862,-123.62718,2.89401422439,Roadwork. Lane blocked.,37944.0,State Highway 36,R,Bridgeville,Humboldt,CA,95526-9670,US,US/Pacific,KFOT,2020-06-24 07:55:00,54.0,54.0,100.0,29.56,0.0,WNW,10.0,0.0,Cloudy,False,False,False,False,False,False,False,False,False,False,False,False,False,Day,Day,Day,Day
C-4384587,2,2020-12-03 13:08:30,2020-12-04 05:43:36,25.739256,-80.239538,25.740763,-80.23781,0.149693054682,Stationary traffic on US-1 N - FL-9 - FL-5 from SW 28th Ter to SW 28th Ln due to roadwork.,2716.0,S Dixie Hwy,L,Miami,Miami-Dade,FL,33133-3728,US,US/Eastern,KMIA,2020-12-03 12:53:00,75.0,75.0,51.0,30.16,10.0,E,14.0,0.0,Mostly Cloudy,False,False,True,False,False,False,False,False,False,False,False,True,False,Day,Day,Day,Day
C-4384588,2,2021-04-06 04:36:30,2021-04-06 18:15:06,25.890664,-80.176586,25.891171,-80.18645500000002,0.614439711821,Stationary traffic on FL-915 - FL-922 from NE 11th Ct to NE 126th St due to roadwork.,1078.0,NE 125th St,R,Miami,Miami-Dade,FL,33161,US,US/Eastern,KOPF,2021-04-06 04:53:00,60.0,60.0,78.0,30.08,10.0,CALM,0.0,0.0,Fair,False,False,False,False,False,False,False,False,True,False,False,False,False,Night,Night,Night,Night
C-4384590,2,2020-09-07 17:05:00,2020-09-08 03:48:00,31.569109,-97.116439,31.598938,-97.108344,2.115345385,Slow traffic on I-35 N - US-77 N from exit [337A] to Lake Shore Dr (TX-340 Loop) exit [339] due to roadwork.,,Forrest St,R,Waco,McLennan,TX,76704,US,US/Central,KCNW,2020-09-07 16:55:00,93.0,93.0,44.0,29.3,10.0,SE,12.0,,Partly Cloudy,False,False,False,False,False,False,False,False,False,False,False,False,False,Day,Day,Day,Day
C-4384591,2,2021-12-06 16:45:00,2021-12-06 17:08:00,45.149956,-122.868679,45.149486,-122.859609,0.443159734191,Slow traffic on OR-214 from I-5 (OR-214) to OR-99E/Molalla Rd (OR-214) due to roadwork.,1904.0,Newberg Hwy,R,Woodburn,Marion,OR,97071-3129,US,US/Pacific,KUAO,2021-12-06 16:53:00,49.0,45.0,93.0,29.79,10.0,SSW,8.0,0.0,Cloudy,False,False,True,False,False,False,False,False,False,False,False,False,False,Night,Day,Day,Day
C-4384593,2,2021-06-17 20:01:00,2021-06-18 06:46:00,38.363211,-120.725101,38.360983,-120.741455,0.899275388845,Construction on CA-88 WB near DALTON RD Expect long delays.,16160.0,State Highway 88,R,Jackson,Amador,CA,95642-9727,US,US/Pacific,KPVF,2021-06-17 19:55:00,93.0,93.0,10.0,27.2,10.0,NW,3.0,0.0,Fair,False,False,False,False,False,False,False,False,False,False,False,False,False,Day,Day,Day,Day
C-4384594,2,2020-11-21 20:42:30,2020-11-22 04:51:39,34.193115,-117.422078,34.187388,-117.430276,0.613272012558,Roadwork on Glen Helen Pkwy (I-15) from Sierra Ave (I-15) to I-15 S - Ontario Fwy S.,,I-15 S,R,San Bernardino,San Bernardino,CA,92407,US,US/Pacific,KSBD,2020-11-21 20:47:00,63.0,63.0,30.0,28.81,7.0,CALM,0.0,0.0,Fair,False,False,False,False,False,False,False,False,False,False,False,False,False,Night,Night,Night,Night
C-4384595,2,2017-03-02 07:01:51,2017-03-02 13:01:51,40.1602,-105.05528,40.16059,-104.978716,4.04298231914,Between County Line Rd and I-25/US-87/I-25 Frontage Rd - Roadwork.,,State Highway 119,R,Longmont,Weld,CO,80504,US,US/Mountain,KLMO,2017-03-02 06:53:00,21.6,14.0,67.0,30.36,10.0,NE,5.8,,Clear,False,False,True,False,False,False,False,False,False,False,False,True,False,Day,Day,Day,Day
C-4384596,2,2020-11-12 04:00:00,2020-11-12 14:45:00,40.805786,-74.183861,40.798786,-74.189871,0.576824090741,Construction on GARDEN STATE PKWY SB near ESSEX TOLL PLAZA Expect delays.,,Garden State Pkwy S,R,Bloomfield,Essex,NJ,07003,US,US/Eastern,KTEB,2020-11-12 03:51:00,66.0,66.0,93.0,29.86,8.0,CALM,0.0,0.0,Cloudy,False,False,False,False,False,False,False,False,False,False,False,False,False,Night,Night,Night,Night
C-4384597,2,2021-09-11 16:49:00,2021-09-11 18:58:49,40.766267,-73.981789,40.764845,-73.980522,0.118529672411,Slow traffic from 8th Ave to W 56th St due to roadwork.,,Broadway,R,New York,New York,NY,10019,US,US/Eastern,KNYC,2021-09-11 16:51:00,75.0,75.0,43.0,30.02,10.0,CALM,0.0,0.0,Fair,True,False,True,False,False,False,True,False,True,False,False,True,False,Day,Day,Day,Day
C-4384598,2,2020-12-17 13:31:30,2020-12-17 23:00:30,26.682565000000004,-80.247107,26.681544,-80.245138,0.140544684458,Slow traffic on FL-80 - FL-700 - US-98 E - FL-882 - US-441 S from Folsom Rd to Cypress Head Ave due to roadwork.,11.0,Crestwood Blvd N,L,Loxahatchee,Palm Beach,FL,33470,US,US/Eastern,KPBI,2020-12-17 13:53:00,78.0,78.0,71.0,29.99,10.0,W,13.0,0.0,Partly Cloudy,False,False,False,False,False,False,False,False,False,False,False,False,False,Day,Day,Day,Day
C-4384599,2,2021-06-07 09:01:42,2021-06-08 13:00:14,39.25217,-76.52552800000002,39.243015,-76.513009,0.921319138939,Construction on MD-695 SB near DUNHILL RD Expect long delays.,,Broening Hwy,R,Dundalk,Baltimore County,MD,21222,US,US/Eastern,KDMH,,,,,,,,,,,False,False,False,False,False,False,False,False,True,False,False,True,False,Day,Day,Day,Day
C-4384600,2,2020-10-20 13:50:30,2020-10-21 01:02:28,33.712297,-112.20186,33.711438,-112.20314,0.0945237980941999,Stationary traffic from 66th Ave to W West Wind Dr due to roadwork.,,W Happy Valley Rd,R,Phoenix,Maricopa,AZ,85083,US,US/Mountain,KDVT,2020-10-20 13:53:00,89.0,89.0,13.0,28.21,10.0,S,7.0,0.0,Fair,False,False,False,False,False,False,False,False,False,True,False,False,False,Day,Day,Day,Day
C-4384601,4,2019-06-30 18:20:35,2019-06-30 23:19:50,41.52412,-76.4008,41.47661,-76.42007,3.43074482095,Closed between PA-87/Main St/Mill St and PA-1006/PA-564 - Closed due to roadwork.,199.0,W Main St,L,Dushore,Sullivan,PA,18629,US,US/Eastern,KAVP,2019-06-30 17:54:00,76.0,76.0,43.0,28.85,10.0,NNW,17.0,0.0,Fair,False,False,False,False,False,False,False,False,False,False,False,True,False,Day,Day,Day,Day
C-4384602,2,2018-07-05 09:02:27,2018-07-05 15:02:27,39.91981,-75.03529,39.91892,-75.03331,0.1216145727759999,At CR-644/Haddonfield Rd - Construction work. Hard shoulder blocked.,2007.0,Marlton Pike W,L,Cherry Hill,Camden,NJ,08002-2728,US,US/Eastern,KVAY,2018-07-05 09:07:00,81.0,,85.0,30.32,10.0,Variable,3.5,,Overcast,False,False,False,False,False,False,False,False,False,False,False,False,False,Day,Day,Day,Day
C-4384603,2,2016-07-01 10:00:00,2016-07-01 16:00:00,42.009052,-87.903221,,,0.0,Right lane closed due to maintenance work on IL-72 Touhy Ave at Westview Dr.,837.0,E Touhy Ave,R,Des Plaines,Cook,IL,60018-2701,US,US/Central,KORD,2016-07-01 09:51:00,66.9,,59.0,30.05,10.0,North,15.0,,Mostly Cloudy,False,False,False,False,False,False,False,False,False,False,False,False,False,Day,Day,Day,Day
C-4384604,4,2018-09-05 21:00:00,2018-09-06 05:00:00,39.99981,-82.92761,39.99958,-82.92896999999998,0.073716543885,Ramp closed to Johnstown Rd/Exit 9 - Closed due to roadwork.,,I-670 W,R,Columbus,Franklin,OH,43219,US,US/Eastern,KCMH,2018-09-05 20:51:00,82.9,,60.0,30.14,10.0,Calm,,,Mostly Cloudy,False,False,False,False,False,False,False,False,False,False,False,False,False,Night,Night,Night,Day
C-4384605,2,2021-11-04 11:30:30,2021-11-04 14:01:10,39.740095,-104.850219,39.740098,-104.846407,0.202529939636,Slow traffic on US-40 E - I-70 Bus E - US-287 S from Havana St (Colfax Ave) to I-225 (Colfax Ave) due to roadwork.,11808.0,E Colfax Ave,R,Aurora,Arapahoe,CO,80010-5109,US,US/Mountain,KBKF,2021-11-04 11:58:00,62.0,62.0,21.0,24.46,10.0,ESE,6.0,0.0,Partly Cloudy,False,False,False,False,False,False,False,False,False,False,False,False,False,Day,Day,Day,Day
C-4384606,2,2021-10-05 00:00:00,2021-10-07 23:59:59,41.163942,-73.8618,41.162741,-73.861602,0.0836178928608,Installation of sign structure on US 9 northbound between Croton Avenue; Ramp (Ossining) and Albany Post Road (Ossining) D264514 - 29378709 Tuesday October 5th 2021 thru Thursday October 7th 2021 Tuesday/ Wednesday/ Thursday 12:00 AM thru 11:59 PM right shoulder closures,27.0,N Highland Ave,R,Ossining,Westchester,NY,10562-3416,US,US/Eastern,KHPN,2021-10-05 00:56:00,58.0,58.0,90.0,29.62,10.0,NNE,6.0,0.0,Mostly Cloudy,False,False,False,False,False,False,False,False,False,False,False,True,False,Night,Night,Night,Night
C-4384607,2,2021-11-05 09:03:00,2021-11-05 09:24:30,33.444964,-111.770845,33.437255,-111.770912,0.532655178655,Slow traffic from E McKellips Rd (N Lindsay Rd) to E Brown Rd (N Lindsay Rd) due to roadwork.,1613.0,N Lindsay Rd,R,Mesa,Maricopa,AZ,85213-3007,US,US/Mountain,KFFZ,2021-11-05 08:51:00,65.0,65.0,32.0,28.81,10.0,E,9.0,0.0,Fair,False,False,True,False,False,False,False,False,False,False,False,True,False,Day,Day,Day,Day
C-4384608,2,2021-03-15 09:00:00,2021-03-15 16:15:00,38.800658,-77.532689,38.797943,-77.573021,2.17987000964,Construction on I-66 WB near MM 49 Expect delays.,,I-66 W,R,Manassas,Prince William,VA,20109,US,US/Eastern,KHEF,2021-03-15 08:56:00,34.0,23.0,34.0,30.19,10.0,N,18.0,0.0,Fair,False,False,False,False,False,False,False,False,False,False,False,False,False,Day,Day,Day,Day
C-4384609,2,2021-10-13 20:09:00,2021-10-13 20:38:00,31.962279,-81.33288,31.957834,-81.32533199999997,0.538606894302,Stationary traffic on GA-144 from Fort Stewart Rd (GA-144) to US-17/GA-25 (GA-144) due to roadwork.,4470.0,GA Highway 144 E,L,Fort Stewart,Bryan,GA,31314,US,US/Eastern,KLHW,2021-10-13 19:56:00,71.0,71.0,85.0,29.94,10.0,CALM,0.0,0.0,Partly Cloudy,False,False,False,False,False,False,False,False,False,False,False,False,False,Night,Night,Night,Day
C-4384610,2,2021-09-01 07:01:00,2021-09-01 16:15:00,37.674319,-120.34126299999998,37.690378,-120.330557,1.25453704767,Construction on CA-132 EB near JOSEPHINA WAY Expect delays.,3073.0,State Highway 132,L,La Grange,Tuolumne,CA,95329,US,US/Pacific,KMER,2021-09-01 06:45:00,54.0,54.0,82.0,29.54,7.0,CALM,0.0,0.0,Fair,False,False,False,False,False,False,False,False,False,False,False,False,False,Day,Day,Day,Day
C-4384611,2,2021-05-31 15:03:41,2021-05-31 16:03:25,40.685669,-73.978711,40.68027100000001,-73.974705,0.427972317256,Slow traffic from Nevins St (Flatbush Ave) to Grand Army Plz (Grand Army Plz/Flatbush Ave) due to roadwork.,102.0,Flatbush Ave,L,Brooklyn,Kings,NY,11217-1412,US,US/Eastern,KJRB,2021-05-31 14:51:00,62.0,62.0,60.0,30.09,10.0,WNW,9.0,0.0,Cloudy,True,False,False,False,False,False,True,False,True,False,False,True,False,Day,Day,Day,Day
C-4384612,2,2021-02-18 06:48:00,2021-02-18 07:08:30,40.383251,-104.993266,40.399954,-104.993268,1.15406739153,Slow traffic on US-87 N - I-25 N from CO-402/Exit 255 (I-25) to US-34/Eisenhower Blvd (I-25) due to roadwork.,,I-25 N,R,Johnstown,Larimer,CO,80534,US,US/Mountain,KFNL,2021-02-18 06:48:00,18.0,18.0,93.0,25.09,0.75,CALM,0.0,0.0,Light Snow,False,False,False,False,False,False,False,False,False,False,False,False,False,Day,Day,Day,Day
C-4384613,2,2020-09-28 11:59:30,2020-09-28 23:36:00,48.227592,-122.087018,48.230998,-122.077843,0.483439778019,Stationary traffic on WA-530 from WA-9 (WA-530) to Hillis Rd (Arlington-Darrington Rd/WA-530) due to roadwork.,10597.0,State Route 530 NE,L,Arlington,Snohomish,WA,98223-8172,US,US/Pacific,KAWO,2020-09-28 11:56:00,64.0,64.0,67.0,30.19,10.0,VAR,3.0,0.0,Fair,False,False,False,False,False,False,False,False,False,False,False,False,False,Day,Day,Day,Day
C-4384614,2,2020-02-27 09:31:39,2020-02-27 17:20:00,44.08674,-117.02174,44.0071,-116.94153,6.79309878061,Between Moores Hollow Rd/Exit 362 and Oregon/Idaho State Line - Maintenance work.,,I-84 E,R,Ontario,Malheur,OR,97914,US,US/Mountain,KONO,2020-02-27 09:53:00,36.0,36.0,59.0,28.17,10.0,CALM,0.0,0.0,Fair,False,False,False,False,False,False,False,False,False,False,False,False,False,Day,Day,Day,Day
C-4384615,4,2020-11-04 17:01:00,2020-11-04 23:44:00,38.770467,-122.997521,38.765648,-122.992204,0.439212108504,Construction on US-101 SB near THERESA DR Use alternate exit ramp.,,CA-128 E,R,Cloverdale,Sonoma,CA,95425,US,US/Pacific,KSTS,2020-11-04 16:53:00,73.0,73.0,57.0,30.01,10.0,S,7.0,0.0,Fair,False,False,False,False,True,False,False,False,False,False,False,False,False,Day,Day,Day,Day
C-4384616,2,2019-09-03 10:00:00,2019-09-03 14:30:00,41.354286,-74.28400400000002,,,5.36999988556,Intermittent lane closures due to construction work on NY-17 Eastbound between Exit 125 NY-17M and Exit 126 NY-94.,,NY-17 W,R,Chester,Orange,NY,10918,US,US/Eastern,KMGJ,2019-09-03 09:54:00,70.0,70.0,78.0,29.68,10.0,NE,3.0,0.0,Fair,False,False,False,False,False,False,False,False,False,False,False,False,False,Day,Day,Day,Day
C-4384617,2,2021-07-27 15:55:30,2021-12-30 10:28:00,31.87355800000001,-104.28964,31.881788,-104.31091,1.37141121567,Stationary traffic on RM-652 at Van Horn Rural due to roadwork.,,RM 652,R,Salt Flat,Culberson,TX,79847,US,US/Mountain,KGDP,,,,,,,,,,,False,False,False,False,False,False,False,False,False,False,False,False,False,Day,Day,Day,Day
C-4384618,2,2021-09-25 13:15:00,2021-09-25 13:41:30,33.596844,-112.01784,33.596657,-112.01326,0.263902554788,Slow traffic from N 29th St to E Altadena Ave due to roadwork.,,E Cactus Rd,R,Phoenix,Maricopa,AZ,85032,US,US/Mountain,KSDL,2021-09-25 12:53:00,89.0,89.0,28.0,28.35,10.0,NNW,6.0,0.0,Fair,False,False,True,False,False,False,False,False,False,False,False,True,False,Day,Day,Day,Day
C-4384619,4,2021-08-13 21:00:00,2021-08-16 21:09:12,40.501801,-80.131304,40.53148,-80.126692,2.06488309364,Roadwork on I-79 northbound between Exit 64: PA 51 - CORAOPOLIS/MCKEES ROCKS and 1 miles NORTH of Exit 66: PA 65 - EMSWORTH/SEWICKLEY/GLENFIELD. All lanes closed.,,I-79 N,R,Coraopolis,Allegheny,PA,15108,US,US/Eastern,KPIT,2021-08-13 20:51:00,71.0,71.0,96.0,28.79,10.0,S,5.0,0.03,Light Rain,False,False,False,False,True,False,False,False,False,False,False,False,False,Night,Night,Day,Day
C-4384620,4,2018-02-23 08:53:04,2018-02-23 14:53:04,42.37904,-83.20772,42.37937,-83.21279,0.259771882741,Ramp closed to Exit 183 - Closed. Maintenance work.,,Rosa Parks Memorial Hwy,R,Detroit,Wayne,MI,48227,US,US/Eastern,KDET,2018-02-23 08:53:00,37.0,31.6,96.0,30.18,1.8,SSE,6.9,0.0,Overcast,False,False,False,False,True,False,False,False,False,False,False,False,False,Day,Day,Day,Day
C-4384621,2,2021-01-29 06:55:30,2021-01-29 09:42:00,38.7881,-119.946423,38.78515,-119.919673,1.45502794412,Stationary traffic on CA-89 from US-50 (CA-89) to CA-88/Burnside Lake Rd (CA-89) due to roadwork.,5257.0,Luther Pass Rd,L,South Lake Tahoe,El Dorado,CA,96150,US,US/Pacific,KTVL,2021-01-29 06:53:00,21.0,21.0,88.0,23.54,7.0,CALM,0.0,0.0,Cloudy,False,False,False,False,False,False,False,False,False,False,False,False,False,Night,Day,Day,Day
C-4384622,2,2021-08-18 10:59:01,2021-08-18 12:07:33,45.045641,-91.976456,45.042197,-91.933593,2.1060136701900003,Slow traffic on WI-170 from 370th St to 470th St due to roadwork.,,E3699 State Road 170,R,Boyceville,Dunn,WI,54725-5109,US,US/Central,KLUM,2021-08-18 10:55:00,76.0,76.0,65.0,29.12,10.0,SSE,6.0,0.0,Fair,False,False,False,False,False,False,False,False,False,False,False,False,False,Day,Day,Day,Day
C-4384623,2,2020-04-29 07:00:00,2020-08-01 06:59:00,42.54799600000001,-73.671175,42.548455,-73.671192,0.0317256828419,Construction on US 9 northbound between US 20 (Schodack) and Amazon Distribution Center (Schodack) Wednesday July 8th 2020 thru Friday July 10th 2020 Wednesday/Thursday/Friday 07:00 AM thru 06:00 PM right lane closed,1970.0,Route 9,L,Castleton On Hudson,Rensselaer,NY,12033-9620,US,US/Eastern,KALB,2020-04-29 06:51:00,40.0,40.0,77.0,29.9,10.0,N,3.0,0.0,Fair,False,False,False,False,False,False,False,False,False,False,False,True,False,Day,Day,Day,Day
C-4384624,2,2020-12-09 13:38:30,2020-12-09 19:32:00,30.533297,-87.279397,30.533166,-87.275437,0.235843470323,Slow traffic on US-90 Alt E - FL-10 from CR-297/Pine Forest Rd (US-90 Alt/FL-10) to FL-291/N Davis Hwy (US-90 Alt/FL-10) due to roadwork.,9398.0,Untreiner Ave,R,Pensacola,Escambia,FL,32534-1889,US,US/Central,KPNS,2020-12-09 13:53:00,70.0,70.0,38.0,29.96,10.0,WSW,14.0,0.0,Fair,False,False,False,False,False,False,False,False,False,False,False,False,False,Day,Day,Day,Day
C-4384625,4,2021-03-05 08:00:00,2021-10-25 11:45:00,39.755187,-75.55250600000002,39.758545,-75.557851,0.36665408448,Construction on N PARK DR NB near N VAN BUREN ST Road closed. Take alternate route.,1301.0,N Park Dr,L,Wilmington,New Castle,DE,19806,US,US/Eastern,KILG,2021-03-05 07:51:00,27.0,14.0,45.0,29.96,10.0,NW,18.0,0.0,Fair,False,False,False,False,False,False,False,False,False,False,False,False,False,Day,Day,Day,Day
C-4384626,2,2020-11-24 14:49:30,2020-11-24 23:56:08,30.318234000000004,-81.727577,30.31771,-81.73065799999998,0.1872957940179999,Stationary traffic from Cassat Ave (FL-111) exit [358] to Cassat Ave due to roadwork.,,FL-8 W,R,Jacksonville,Duval,FL,32254,US,US/Eastern,KNIP,2020-11-24 14:53:00,72.0,72.0,66.0,30.19,10.0,NE,14.0,0.0,Partly Cloudy,False,False,True,False,False,False,False,False,False,False,False,True,False,Day,Day,Day,Day
C-4384627,2,2016-07-05 19:01:43,2016-07-06 01:01:43,30.13688,-81.511451,30.142763,-81.517403,0.540098632404,Between Gran Bay Pky and Old St Augustine Rd - Construction work.,,Philips Hwy,R,Jacksonville,Duval,FL,32256,US,US/Eastern,KNIP,2016-07-05 18:53:00,95.0,,44.0,30.07,10.0,WSW,13.8,,Mostly Cloudy,False,False,False,False,True,False,False,False,False,False,False,False,False,Day,Day,Day,Day
C-4384628,2,2020-09-24 13:03:30,2020-09-25 02:39:42,25.844379,-80.184489,25.848459,-80.184662,0.282106330705,Queuing traffic on US-1 from 62nd St (US-1) to FL-934/82nd St (US-1) due to roadwork.,7535.0,Biscayne Blvd,L,Miami,Miami-Dade,FL,33138-5123,US,US/Eastern,KOPF,2020-09-24 12:53:00,80.0,80.0,85.0,29.97,4.0,ESE,10.0,0.0,Rain,True,False,False,False,False,False,False,False,True,True,False,False,False,Day,Day,Day,Day
C-4384629,2,2018-12-28 05:02:47,2018-12-31 23:59:00,42.442402,-71.228142,,,0.0,Intermittent lane closures due to paving repairs on John Poulter Rd both ways between Worthen Rd and Winthrop Rd.,43.0,Winthrop Rd,R,Lexington,Middlesex,MA,02421-5528,US,US/Eastern,KBED,2018-12-28 04:56:00,34.0,28.8,75.0,30.42,10.0,ESE,5.8,0.0,Light Rain,False,False,False,False,False,False,False,False,False,False,False,False,False,Night,Night,Night,Night
C-4384630,2,2021-02-18 11:21:00,2021-02-18 11:43:30,40.666292,-73.982067,40.667496,-73.98106800000002,0.0982926403558,Stationary traffic from NY-27/19th St/Prospect Expy/18th St (7th Ave) to Union St (7th Ave) due to roadwork.,349.0,7th Ave,L,Brooklyn,Kings,NY,11215-4320,US,US/Eastern,KJRB,2021-02-18 10:51:00,26.0,26.0,84.0,30.31,0.25,VAR,3.0,0.08,Snow,True,False,False,False,False,False,False,False,False,False,False,True,False,Day,Day,Day,Day
C-4384631,2,2021-07-26 19:40:30,2021-07-27 14:42:07,40.517788,-86.45861,40.517198,-86.45861,0.0407651175344,Roadwork from E 200 S to E 250 S.,3501.0,E 200 S,R,Bringhurst,Carroll,IN,46913-9600,US,US/Eastern,KGGP,2021-07-26 19:35:00,81.0,81.0,61.0,29.24,10.0,N,3.0,0.0,Fair,False,False,False,False,False,False,False,False,False,False,False,False,False,Day,Day,Day,Day
C-4384632,2,2020-10-19 21:28:30,2020-10-19 22:36:30,34.606708000000005,-109.321979,34.61662800000001,-109.317699,0.727336185334,Stationary traffic on US-191 from CR-6350 (AZ-61/US-191) to CR-6268 (AZ-61/US-191) due to roadwork.,25689.0,US Highway 191,R,Saint Johns,Apache,AZ,85936,US,US/Mountain,KSJN,2020-10-19 21:54:00,57.0,57.0,18.0,24.37,10.0,SW,3.0,0.0,Fair,False,False,False,False,False,False,False,False,False,False,False,False,False,Night,Night,Night,Night
C-4384633,4,2021-11-10 09:09:00,2021-11-18 02:00:09,32.235126,-92.913949,32.25391,-92.993194,4.8093293498400005,Bridge Maintenance Operations on LA-4 near Parish Road 876 . All Lanes Closed. Starting 11/10/2021 9:09 AM,16050.0,Highway 4,R,Saline,Bienville,LA,71070,US,US/Central,KIER,2021-11-10 09:15:00,58.0,58.0,83.0,29.96,10.0,SSE,6.0,0.0,Mostly Cloudy,False,False,False,False,False,False,False,False,False,False,False,False,False,Day,Day,Day,Day
C-4384634,2,2019-06-20 18:03:00,2019-06-24 18:02:28,41.91882,-72.2633,41.96146,-72.1935,4.64207217638,Between Ruby Rd/Exit 71 and CT-89/Exit 72 - Construction work.,,I-84 E,R,Willington,Tolland,CT,06279,US,US/Eastern,KIJD,2019-06-20 17:52:00,70.0,70.0,97.0,29.24,4.0,SSE,6.0,0.0,Cloudy,False,False,False,False,False,False,False,False,False,False,False,False,False,Day,Day,Day,Day
C-4384635,4,2016-06-17 21:01:04,2016-06-18 03:01:04,41.75742,-72.70615,41.75724,-72.70624000000002,0.0132737510582,At Sisson Ave/Exit 46 - Entry ramp closed. Construction work.,3.0,Sisson Ave,L,Hartford,Hartford,CT,06106-1131,US,US/Eastern,KHFD,2016-06-17 20:53:00,70.0,,44.0,30.05,10.0,South,9.2,,Partly Cloudy,False,False,False,False,False,False,False,False,False,False,False,False,False,Night,Day,Day,Day
C-4384636,2,2017-07-10 22:00:59,2017-07-11 04:00:59,40.763912,-73.758402,40.76071,-73.754533,0.299904401023,At RT-25/Northern Blvd/Exit 31 - Construction work.,,Cross Island Pkwy S,R,Bayside,Queens,NY,11361,US,US/Eastern,KLGA,2017-07-10 21:51:00,78.1,,76.0,29.97,10.0,South,10.4,,Mostly Cloudy,False,False,False,False,False,False,False,False,False,False,False,False,False,Night,Night,Night,Day
C-4384637,2,2021-02-15 18:50:30,2021-02-16 01:43:12,30.786042,-97.982205,30.776139,-97.998046,1.16292006269,Roadwork on County Road 282 from County Road 274 to FM-243.,5749.0,E FM 243,R,Bertram,Burnet,TX,78605-3817,US,US/Central,KBMQ,2021-02-15 18:53:00,15.0,5.0,70.0,28.84,10.0,NW,7.0,0.0,Fair,False,False,False,False,False,False,False,False,False,False,False,False,False,Night,Night,Day,Day
C-4384638,2,2021-07-23 12:59:04,2021-07-23 13:36:02,44.517939,-103.44748,44.528048,-103.447429,0.698469896563,Stationary traffic on SD-79 from SD-34 (SD-79) to CR-MC-20A/Cottonwood Creek Rd (SD-79) due to roadwork.,12901.0,199th St,L,Whitewood,Meade,SD,57793-6402,US,US/Central,KSPF,2021-07-23 12:55:00,75.0,75.0,73.0,26.05,10.0,CALM,0.0,0.0,Fair,False,False,False,False,False,False,False,False,False,False,False,False,False,Day,Day,Day,Day
C-4384639,2,2020-10-01 14:03:00,2020-10-01 17:04:00,46.181749,-111.444979,46.167209,-111.450989,1.04495990521,Queuing traffic on US-287 from Shelly Rd (US-287) to MT-437 (US-287) due to roadwork.,8779.0,US Highway 287 N,L,Toston,Broadwater,MT,59643,US,US/Mountain,KBZN,2020-10-01 13:56:00,64.0,64.0,35.0,25.74,10.0,NNE,3.0,0.0,Fair,False,False,False,False,False,False,False,False,False,False,False,False,False,Day,Day,Day,Day
C-4384640,2,2021-03-10 08:43:30,2021-03-10 11:19:30,40.867799,-100.014671,40.881839,-100.052791,2.21525005663,Stationary traffic on US-30 E - US-30 W from NE-21/E St (US-30) to NE-47/Avenue E/Lake Ave (US-30) due to roadwork.,76150.0,Road 419,R,Cozad,Dawson,NE,69130-4602,US,US/Central,KLXN,2021-03-10 08:35:00,42.0,33.0,79.0,27.06,10.0,N,22.0,0.0,Cloudy / Windy,False,False,False,False,False,False,False,False,False,False,False,False,False,Day,Day,Day,Day
C-4384641,2,2019-12-15 04:12:19,2019-12-19 04:10:24,36.02419000000001,-120.93362,36.08818,-121.01346,6.27986120816,At Lockwood San Lucas Rd - Construction work. Lane blocked.,,El Camino Real N,R,San Ardo,Monterey,CA,93450,US,US/Pacific,KPRB,2019-12-15 03:53:00,39.0,39.0,93.0,29.22,10.0,CALM,0.0,0.0,Fair,False,False,False,False,False,False,False,False,False,False,False,False,False,Night,Night,Night,Night
C-4384642,2,2020-10-06 13:28:50,2020-10-10 06:36:03,30.289429,-81.982798,30.296082,-81.982867,0.459696951835,Roadwork on US-301 from FL-228/Main St/Maxville Macclenny Hwy (US-301) to US-90/FL-10/W Beaver St (Jacksonville) (South) (US-301).,,US Highway 301 S,R,Jacksonville,Duval,FL,32234,US,US/Eastern,KVQQ,2020-10-06 13:50:00,90.0,90.0,62.0,29.93,10.0,NE,12.0,0.0,Mostly Cloudy,False,False,False,False,False,False,False,False,False,False,False,False,False,Day,Day,Day,Day
C-4384643,2,2021-11-09 15:01:30,2021-11-09 17:22:07,28.593131,-81.364094,28.593159000000004,-81.365527,0.0869570516156,Slow traffic on FL-424A - FL-426 from FL-527/Orange Ave (FL-426) to I-4 (FL-426) due to roadwork.,592.0,Harper St,R,Winter Park,Orange,FL,32789,US,US/Eastern,KORL,2021-11-09 14:53:00,77.0,77.0,54.0,30.04,10.0,NE,14.0,0.0,Partly Cloudy,False,False,True,False,False,False,False,False,False,False,False,False,False,Day,Day,Day,Day
C-4384644,2,2020-10-07 14:26:30,2020-10-07 15:19:30,40.758286,-73.82702900000002,40.759029,-73.82355799999998,0.188772543326,Slow traffic from Kissena Blvd to Bowne St due to resurfacing work.,13846.0,Barclay Ave,R,Flushing,Queens,NY,11355-2554,US,US/Eastern,KLGA,2020-10-07 14:51:00,75.0,75.0,37.0,29.58,10.0,WSW,17.0,0.0,Mostly Cloudy,True,False,True,False,False,False,False,False,False,False,False,True,False,Day,Day,Day,Day
C-4384645,1,2021-12-29 08:00:00,2021-12-29 23:59:00,41.445782,-85.231773,,,1.4199999570800002,Road closed intermittently due to construction work on Allen Chapel Rd both ways from Kammerer Rd to US-6 North St.,300.0,N Allen Chapel Rd,R,Kendallville,Noble,IN,46755-3033,US,US/Eastern,KGWB,2021-12-29 07:55:00,32.0,32.0,100.0,28.9,1.0,CALM,0.0,0.0,Fog,False,False,False,False,False,False,False,False,False,False,False,True,False,Night,Day,Day,Day
C-4384646,2,2021-07-19 13:35:14,2021-07-19 13:55:52,34.793510999999995,-87.672516,34.796597,-87.673637,0.222506914006,Stationary traffic on AL-13 - US-72 W - US-43 S - US-72 E - US-43 N - AL-2 - AL-17 from AL-20/Coffee Rd (AL-13) to N Wood Ave (AL-13) due to roadwork.,731.0,O'Neal Brg,L,Florence,Lauderdale,AL,35630,US,US/Central,KMSL,2021-07-19 13:53:00,77.0,77.0,84.0,29.41,2.0,N,3.0,0.09,Heavy Rain,False,False,True,False,False,False,False,False,False,False,False,True,False,Day,Day,Day,Day
C-4384647,2,2021-07-09 13:53:00,2021-07-09 16:20:59,33.511887,-112.116976,33.508649,-112.11699,0.223725946267,Slow traffic from W Bethany Home Rd (N 27th Ave) to W Indian School Rd (N 27th Ave) due to roadwork.,5103.0,N 27th Ave,R,Phoenix,Maricopa,AZ,85017-3203,US,US/Mountain,KPHX,2021-07-09 13:51:00,106.0,106.0,25.0,28.62,10.0,W,8.0,0.0,Fair,True,False,False,False,False,False,False,False,True,True,False,False,False,Day,Day,Day,Day
C-4384648,2,2016-10-21 04:46:14,2017-02-06 23:59:00,42.33844000000001,-83.05594599999998,,,0.63,Partially blocked due to construction on Fisher Fwy both ways from M-1 Woodward Ave to Clifford St.,,Fisher Fwy N,R,Detroit,Wayne,MI,48201,US,US/Eastern,KDET,2016-10-21 04:53:00,48.0,,86.0,29.98,10.0,North,10.4,0.03,Light Rain,False,False,False,False,True,False,False,False,False,False,False,True,False,Night,Night,Night,Night
C-4384649,2,2021-11-26 16:50:00,2021-12-01 17:28:32,25.925341,-80.153943,25.926209,-80.154884,0.0837612259085,Slow traffic on US-1 N - FL-826 - FL-5 from US-1 to W Dixie Hwy due to roadwork.,16239.0,Biscayne Blvd,L,Aventura,Miami-Dade,FL,33160-4305,US,US/Eastern,KHWO,2021-11-26 16:53:00,76.0,76.0,50.0,29.98,10.0,W,8.0,0.0,Fair,False,False,False,False,False,False,False,False,True,False,False,False,False,Day,Day,Day,Day
C-4384650,2,2021-11-10 09:11:30,2021-11-10 09:33:00,40.262737,-76.873573,40.267123,-76.875491,0.319470181163,Slow traffic on PA-230 from Paxton St (S Cameron St/PA-230) to State St (N Cameron St/PA-230) due to roadwork.,1099.0,Mather Aly,R,Harrisburg,Dauphin,PA,17101,US,US/Eastern,KCXY,2021-11-10 08:56:00,62.0,62.0,53.0,29.76,10.0,NNW,9.0,0.0,Fair,False,False,False,False,False,False,False,False,False,False,False,False,False,Day,Day,Day,Day
C-4384651,4,2021-04-30 07:00:00,2021-04-30 20:00:00,32.833821,-83.540971,32.835791,-83.54292,0.177002020782,US-80 E - US-80 W - GA-19 is closed from Old Gordon Rd (US-80) to GA-57/Hitchcock Rd (US-80) due to roadwork.,3732.0,Donnan Rd,L,Macon,Bibb,GA,31217,US,US/Eastern,KMCN,2021-04-30 06:53:00,67.0,67.0,87.0,29.61,10.0,WNW,7.0,0.0,Fair,False,False,False,False,False,False,False,False,False,False,False,False,False,Day,Day,Day,Day
C-4384652,2,2021-06-21 17:56:00,2021-12-09 14:14:11,45.066372,-93.326209,45.072546,-93.329899,0.463028092742,Stationary traffic on County Hwy-152 from CR-10/58th Ave/Bass Lake Rd (Brooklyn Blvd/MN-152) to I-94/I-694/US-52 (Brooklyn Blvd/MN-152) due to roadwork.,6131.0,Brooklyn Blvd,L,Minneapolis,Hennepin,MN,55429-4033,US,US/Central,KMIC,2021-10-29 12:53:00,54.0,54.0,62.0,29.01,10.0,NNW,10.0,0.0,Fair,False,False,False,False,False,False,False,False,False,False,False,True,False,Day,Day,Day,Day
C-4384653,4,2020-06-04 15:07:35,2020-06-04 20:06:53,42.86065,-85.82709,42.88492,-85.77715,3.03425084176,Closed between M-6/Paul B Henry Fwy/Exit 64 and 44th St/Exit 67 - Closed due to roadwork.,,I-196 E,R,Hudsonville,Ottawa,MI,49426,US,US/Eastern,KBIV,2020-06-04 14:53:00,77.0,77.0,66.0,29.07,10.0,W,7.0,0.0,Fair,False,False,False,False,False,False,False,False,False,False,False,False,False,Day,Day,Day,Day
C-4384654,4,2020-12-01 19:00:00,2020-12-02 05:00:00,42.52644,-88.976784,,,3.78999996185,Main roadway closed due to construction work on I-39 Southbound from CR-S to WI-81.,,Milwaukee Rd E,R,Beloit,Rock,WI,53511,US,US/Central,KJVL,2020-12-01 18:45:00,27.0,21.0,74.0,29.28,10.0,NNW,5.0,0.0,Fair,False,False,False,False,False,False,False,False,False,False,False,False,False,Night,Night,Night,Night
C-4384655,2,2021-08-04 16:33:36,2021-08-04 19:52:30,39.763124,-105.025293,39.758851,-105.025297,0.295236258175,Stationary traffic on US-287 S from 33rd Ave/W Highland Park Pl (Federal Blvd/US-287) to N Speer Blvd (Federal Blvd/US-287) due to roadwork.,3291.0,N Federal Blvd,R,Denver,Denver,CO,80211-3211,US,US/Mountain,KBJC,2021-08-04 16:55:00,82.0,82.0,28.0,24.55,10.0,N,6.0,0.0,Fair,True,False,True,False,False,False,False,False,True,False,False,True,False,Day,Day,Day,Day
C-4384656,2,2021-02-07 01:22:00,2021-02-07 04:10:08,42.34818,-111.479128,42.352451,-111.483646,0.374574540305,Roadwork on US-89 (ID-36) from Pole Canyon Rd (ID-36) to ID-36.,6601.0,Highway 36,L,Montpelier,Bear Lake,ID,83254,US,US/Mountain,KU78,2021-02-07 01:15:00,28.0,17.0,37.0,23.65,10.0,WNW,16.0,,Fair,False,False,False,False,False,False,False,False,False,False,False,False,False,Night,Night,Night,Night
C-4384657,4,2021-06-03 21:01:00,2021-06-04 04:59:00,33.847514000000004,-117.875865,33.850344,-117.876895,0.2042718743169999,Full closure due to Electrical Work between Orange Frwy Rte 57 and Riverside Frwy Rte 91,,CA-57 N,R,Anaheim,Orange,CA,92806,US,US/Pacific,KFUL,2021-06-03 20:53:00,63.0,63.0,87.0,29.84,10.0,S,6.0,0.0,Cloudy,False,False,False,False,False,False,False,False,False,False,False,False,False,Night,Night,Day,Day
C-4384658,2,2021-01-29 14:38:30,2021-01-29 18:15:35,30.229502,-92.087059,30.232298,-92.086215,0.199647419299,Slow traffic on US-90 E - US-90 W - LA-93 from Olive Vista Dr to Offord St due to roadwork.,311.0,Westgate Rd,R,Lafayette,Lafayette,LA,70506-2714,US,US/Central,KLFT,2021-01-29 14:53:00,61.0,61.0,44.0,30.21,10.0,CALM,0.0,0.0,Fair,False,False,False,False,False,False,False,False,False,False,False,False,False,Day,Day,Day,Day
C-4384660,2,2021-01-12 23:13:30,2021-01-12 23:58:00,35.226534,-102.332614,35.238094,-102.394264,3.5698331704400004,Stationary traffic on I-40 W from Everett Rd/Exit 42 (I-40) to I-40/Exit 37 (I-40) due to roadwork.,,I-40 W,R,Vega,Oldham,TX,79092,US,US/Central,KHRX,2021-01-12 23:15:00,31.0,24.0,89.0,26.26,7.0,SW,7.0,0.0,Fair,False,False,False,False,True,False,False,False,False,False,False,False,False,Night,Night,Night,Night
C-4384661,2,2020-09-10 12:50:30,2020-09-11 03:31:27,41.868314,-87.624201,41.86752,-87.624881,0.0650676193147,Stationary traffic from E 11th St to S Wabash Ave due to roadwork.,1154.0,S Michigan Ave,R,Chicago,Cook,IL,60605-2301,US,US/Central,KMDW,2020-09-10 12:53:00,66.0,66.0,63.0,29.67,10.0,NE,13.0,0.0,Cloudy,False,False,False,False,False,False,False,False,True,False,False,False,False,Day,Day,Day,Day
C-4384662,2,2021-04-25 05:52:00,2021-04-25 16:17:18,33.668354,-112.066508,33.668846,-112.065454,0.0694910772858,Slow traffic from W Beardsley Rd / N Central Ave to AZ-101 Loop E due to roadwork.,551.0,E Beardsley Rd,L,Phoenix,Maricopa,AZ,85024,US,US/Mountain,KDVT,2021-04-25 05:53:00,58.0,58.0,28.0,28.2,10.0,E,7.0,0.0,Fair,False,False,False,False,False,False,False,False,False,False,False,False,False,Day,Day,Day,Day
C-4384663,2,2021-10-15 15:23:30,2021-10-15 17:40:56,33.483888,-112.073909,33.480159,-112.07242,0.2715625495129999,Slow traffic from Park Central to N 3rd St due to roadwork.,3100.0,N Central Ave,L,Phoenix,Maricopa,AZ,85012,US,US/Mountain,KPHX,2021-10-15 15:51:00,83.0,83.0,11.0,28.83,10.0,NE,9.0,0.0,Fair,False,False,True,False,False,False,True,False,False,False,False,True,False,Day,Day,Day,Day
C-4384664,2,2021-08-24 15:51:33,2021-08-24 17:53:31,33.612428,-112.099651,33.611021,-112.098947,0.105316888987,Slow traffic from W Evans Dr to N 18th Ave due to roadwork.,13867.0,N 19th Ave,L,Phoenix,Maricopa,AZ,85023,US,US/Mountain,KDVT,2021-08-24 15:53:00,100.0,100.0,21.0,28.25,10.0,S,7.0,0.0,Fair,True,False,False,False,False,True,False,False,True,True,False,False,False,Day,Day,Day,Day
C-4384665,4,2018-10-10 11:16:27,2018-10-10 16:16:15,39.12164,-94.588,39.10733,-94.58822,0.988797172371,Closed between MO-9 and I-35/I-70/US-24/US-40 - Closed. Bridge maintenance work.,,N Broadway Fwy S,R,Kansas City,Clay,MO,64116,US,US/Central,KMKC,2018-10-10 10:54:00,53.1,,74.0,29.81,10.0,West,10.4,,Overcast,False,False,False,False,True,True,False,False,False,True,False,True,False,Day,Day,Day,Day
C-4384666,2,2020-10-20 19:03:30,2020-10-22 09:57:25,42.484078,-86.246528,42.481223,-86.246875,0.198052559924,Roadwork on CR-2 from 109th Ave/Adams Rd (Blue Star Memorial Hwy/CR-2) to N Shore Dr (Blue Star Memorial Hwy/CR-2).,7199.0,109th Ave,R,South Haven,Allegan,MI,49090-9699,US,US/Eastern,KLWA,2020-10-20 18:55:00,51.0,51.0,66.0,29.37,10.0,E,7.0,0.0,Mostly Cloudy,False,False,False,False,False,False,False,False,False,False,False,False,False,Night,Day,Day,Day
C-4384667,2,2019-09-20 21:00:00,2019-09-21 05:00:00,36.229691,-86.835014,,,7.480000019069999,Intermittent lane closures due to gas main work on US-41A Clarksville Pike both ways between TN-12 Ashland City Hwy and TN-155 Briley Pkwy Exits 21 21A 21B.,,Briley Pkwy W,R,Nashville,Davidson,TN,37218,US,US/Central,KBNA,2019-09-20 20:53:00,78.0,78.0,54.0,29.56,10.0,S,3.0,0.0,Partly Cloudy,False,False,False,False,False,False,False,False,False,False,False,False,False,Night,Night,Night,Night
C-4384668,4,2021-10-25 15:26:00,2021-10-28 02:00:32,43.825696,-89.90872900000002,43.813506,-89.891869,1.18989323062,County Hwy-Z is closed from County Road H to Fawn Ave due to roadwork.,2948.0,County Road Z,R,Adams,Adams,WI,53910-9771,US,US/Central,KVOK,2021-10-25 15:56:00,54.0,54.0,41.0,29.1,10.0,ENE,9.0,0.0,Fair,False,False,False,False,False,False,False,False,False,False,False,False,False,Day,Day,Day,Day
C-4384669,2,2021-02-22 05:42:30,2021-02-22 17:47:43,27.820976,-82.729519,27.82149,-82.72842,0.0759685508792,Slow traffic on FL-693 from 67th St N to 55th Ave N due to roadwork.,5441.0,66th Way N,R,Saint Petersburg,Pinellas,FL,33709-2821,US,US/Eastern,KPIE,2021-02-22 05:53:00,62.0,62.0,90.0,30.16,10.0,ESE,6.0,0.0,Fair,False,False,False,False,False,False,False,False,True,False,False,False,False,Night,Night,Night,Night
C-4384670,4,2021-03-26 00:00:00,2021-04-02 23:59:59,27.9871,-82.754664,27.987097,-82.753609,0.064369229118,Closed road from N Hercules Ave to N Belcher Rd due to roadwork.,1849.0,N Hercules Ave,R,Clearwater,Pinellas,FL,33765-1119,US,US/Eastern,KPIE,2021-03-26 00:53:00,74.0,74.0,91.0,30.07,10.0,SSW,7.0,0.0,Fair,False,False,False,False,False,False,False,False,True,False,False,False,False,Night,Night,Night,Night
C-4384671,4,2021-10-12 16:01:59,2021-10-16 02:58:12,35.103727,-81.618954,35.100681,-81.627027,0.502536539894,SC-18 is closed from I-85 (Shelby Hwy/SC-18) to SC-18/N Logan St (N Limestone St/SC-18) due to roadwork.,194.0,Shelby Hwy,R,Gaffney,Cherokee,SC,29340-2320,US,US/Eastern,KEHO,2021-10-12 15:55:00,77.0,77.0,58.0,29.14,10.0,NNW,3.0,0.0,Fair,False,False,False,False,False,False,False,False,False,False,False,False,False,Day,Day,Day,Day
C-4384672,2,2021-08-16 18:07:00,2021-08-16 19:08:00,41.726226,-87.702011,41.7208,-87.701926,0.374926518809,Slow traffic from W 87th St (S Kedzie Ave) to US-12/US-20/W 95th St (S Kedzie Ave) due to roadwork.,9201.0,S Kedzie Ave,L,Evergreen Park,Cook,IL,60805-1610,US,US/Central,KMDW,2021-08-16 17:53:00,78.0,78.0,42.0,29.36,10.0,E,10.0,0.0,Fair,False,False,False,False,False,False,False,False,True,False,False,True,False,Day,Day,Day,Day
C-4384673,2,2020-10-07 12:07:00,2020-10-07 15:29:00,40.678023,-73.982549,40.68056,-73.980825,0.197197773252,Queuing traffic from Union St (4th Ave) to Atlantic Ave (4th Ave) due to roadwork.,193.0,4th Ave,L,Brooklyn,Kings,NY,11217-3124,US,US/Eastern,KJRB,2020-10-07 11:51:00,71.0,71.0,49.0,29.6,10.0,WSW,9.0,0.0,Fair,True,False,True,False,False,False,True,False,True,False,False,True,False,Day,Day,Day,Day
C-4384674,2,2020-08-26 13:30:00,2020-08-27 01:45:00,34.483443,-87.27396999999998,34.48284,-87.273625,0.0460642032107,Construction on AL-157 SB near MM 39 Allow extra time.,,AL Highway 157,R,Moulton,Lawrence,AL,35650,US,US/Central,K9A4,2020-08-26 13:53:00,85.0,85.0,67.0,29.48,10.0,E,12.0,0.0,Fair,False,False,False,False,False,False,False,False,False,False,False,False,False,Day,Day,Day,Day
C-4384675,4,2021-09-13 07:00:00,2021-09-24 17:45:00,41.102516,-82.503408,41.102434,-82.495148,0.430088515954,Construction on OH-162 EB near ROME GREENWICH RD Road closed. Take alternate route.,2311.0,State Route 162 E,L,North Fairfield,Huron,OH,44855-9420,US,US/Eastern,KMFD,2021-09-13 06:52:00,71.0,71.0,78.0,28.75,10.0,WSW,13.0,0.0,Fair,False,False,False,False,False,False,False,False,False,False,False,False,False,Night,Day,Day,Day
C-4384676,2,2020-07-08 16:15:02,2020-07-09 17:02:53,39.211002,-77.041797,39.210321,-77.040194,0.0978701134078,Construction on MD-650 SB near RIDGECROFT DR Expect long delays.,21650.0,New Hampshire Ave,R,Brookeville,Montgomery,MD,20833,US,US/Eastern,KGAI,2020-07-08 15:56:00,88.0,88.0,53.0,29.39,10.0,SE,9.0,0.0,Partly Cloudy,False,False,False,False,False,False,False,False,False,False,False,False,False,Day,Day,Day,Day
C-4384677,3,2016-10-21 10:00:00,2016-10-21 13:00:00,42.233833,-88.818489,,,1.3,Left lane closed due to maintenance work on I-90 Westbound between Belvedere Oasis and County Hwy-4 Genoa Rd.,,Genoa Rd,R,Belvidere,Boone,IL,61008,US,US/Central,KRFD,2016-10-21 09:54:00,48.0,,54.0,30.27,10.0,North,16.1,,Clear,False,False,False,False,False,False,False,False,False,False,False,False,False,Day,Day,Day,Day
C-4384678,4,2021-12-20 13:44:03,2021-12-27 23:59:00,42.329026,-71.075014,42.331178,-71.074821,0.149015489431,Closed road from Norfolk Ave / Keegan St to Melnea Cass Blvd due to roadwork.,119.0,Hampden St,R,Roxbury,Suffolk,MA,02119-2947,US,US/Eastern,KBOS,2021-12-20 13:54:00,32.0,26.0,42.0,30.26,10.0,SW,6.0,0.0,Partly Cloudy,False,False,True,False,False,False,False,False,False,False,False,True,False,Day,Day,Day,Day
C-4384679,4,2020-09-22 16:00:00,2020-09-22 23:00:00,25.997,-80.13459,26.001619,-80.13473499999998,0.319269513695,Closed road from NE 14th Ave / Moffett St to Rodman St due to roadwork.,1399.0,Moffett St,R,Hollywood,Broward,FL,33019,US,US/Eastern,KFLL,2020-09-22 15:53:00,87.0,87.0,57.0,29.95,10.0,NE,15.0,0.0,Partly Cloudy,False,False,False,False,False,False,False,False,False,False,False,False,False,Day,Day,Day,Day
C-4384680,2,2021-11-23 15:27:00,2021-11-23 17:29:16,42.026247,-87.74918000000002,42.02624,-87.74616999999998,0.154489716504,Slow traffic from Lincoln Ave/Niles Center Rd (Oakton St) to Crawford Ave (Oakton St) due to roadwork.,4873.0,Oakton St,L,Skokie,Cook,IL,60077-2955,US,US/Central,KORD,2021-11-23 15:51:00,42.0,35.0,32.0,29.36,10.0,S,13.0,0.0,Partly Cloudy,False,False,False,False,False,False,False,False,True,False,False,True,False,Day,Day,Day,Day
C-4384681,2,2021-03-04 03:58:45,2021-06-18 12:23:30,36.988922,-120.091721,37.000757,-120.106193,1.14300925543,Slow traffic on CA-99 N from Avenue 16 (CA-99) to Road 23/Exit 159 (CA-99) due to roadwork.,,CA-99 N,R,Madera,Madera,CA,93638,US,US/Pacific,KMAE,2021-06-18 10:53:00,99.0,99.0,28.0,29.43,10.0,W,9.0,0.0,Fair,False,False,False,False,False,False,False,False,False,False,False,False,False,Night,Night,Night,Night
C-4384682,2,2021-03-23 05:21:30,2021-03-23 18:00:06,32.802266,-96.626423,32.822732,-96.62903,1.4221464350400002,Stationary traffic on I-635 N - LBJ Fwy N from Town East Blvd exit [7] to exit [8B] due to roadwork.,,I-635 N,R,Mesquite,Dallas,TX,75150,US,US/Central,KHQZ,2021-03-23 05:15:00,54.0,54.0,66.0,29.22,10.0,W,13.0,0.0,Fair,False,False,False,False,False,False,False,False,False,False,False,False,False,Night,Night,Night,Night
C-4384683,2,2020-09-08 13:57:28,2020-09-08 23:55:37,40.75776,-73.99310600000003,40.75467800000001,-73.995368,0.243642646967,Stationary traffic from W 41st St (9th Ave) to 34th St (9th Ave) due to resurfacing work.,,9th Ave,R,New York,New York,NY,10018,US,US/Eastern,KNYC,2020-09-08 13:51:00,83.0,83.0,51.0,30.06,10.0,VAR,3.0,0.0,Fair,True,False,True,False,False,False,False,False,False,False,False,True,False,Day,Day,Day,Day
C-4384684,4,2016-10-04 23:00:47,2016-10-05 05:00:47,39.95802,-75.16329,39.961346,-75.182285,1.0318872399,Closed between Broad St and I-76/Exit 344 - Closed due to roadwork.,,Vine Street Expy E,R,Philadelphia,Philadelphia,PA,19102,US,US/Eastern,KPHL,2016-10-04 23:01:00,60.1,,83.0,30.31,10.0,ENE,4.6,,Mostly Cloudy,False,False,True,False,True,False,False,False,False,False,False,False,False,Night,Night,Night,Night
C-4384685,2,2020-06-27 07:00:48,2020-06-28 07:00:48,29.99598,-90.21753,29.99598,-90.21753,0.0,At David Dr - Roadwork. Left lane closed.,2174.0,David Dr,L,Metairie,Jefferson,LA,70003-5032,US,US/Central,KMSY,2020-06-27 06:53:00,83.0,83.0,85.0,30.09,10.0,CALM,0.0,0.0,Mostly Cloudy,False,False,False,False,False,False,False,False,False,False,False,True,False,Day,Day,Day,Day
C-4384686,2,2020-10-30 13:30:00,2020-10-30 18:59:00,47.203155,-122.244282,47.199015,-122.248132,0.338360191256,Stationary traffic from Pacific Ave/Main St (Traffic Ave) to WA-410/Thompson St (Traffic Ave) due to roadwork.,933.0,Traffic Ave,R,Sumner,Pierce,WA,98390,US,US/Pacific,KPLU,2020-10-30 13:58:00,58.0,58.0,46.0,29.74,10.0,SW,17.0,0.0,Fair,False,False,True,False,False,False,False,False,False,False,False,True,False,Day,Day,Day,Day
C-4384687,2,2021-08-01 15:48:30,2021-08-01 18:04:57,42.011898,-87.708454,42.012556,-87.71146999999998,0.161367829522,Stationary traffic from N Albany Ave to Howard St due to roadwork.,3135.0,W Touhy Ave,L,Chicago,Cook,IL,60645-2835,US,US/Central,KORD,2021-08-01 15:51:00,74.0,74.0,53.0,29.34,9.0,NE,14.0,0.0,Partly Cloudy,False,False,False,False,False,False,False,False,True,False,False,False,False,Day,Day,Day,Day
C-4384688,1,2020-01-20 04:52:02,2020-12-31 12:00:00,41.39608,-89.87625899999998,,,0.0,Road closed due to construction work on 2900th St both ways from Hennepin Canal Pkwy Trl to Patriot Way.,4.0,Patriot Way,R,Annawan,Henry,IL,61234,US,US/Central,KSQI,2020-01-20 04:56:00,3.0,-6.0,87.0,29.83,10.0,W,5.0,0.0,Fair,False,False,False,False,False,False,False,False,False,False,False,False,False,Night,Night,Night,Night
C-4384689,2,2020-12-10 18:25:00,2020-12-10 18:45:30,40.736668,-73.997334,40.737234,-74.000668,0.178872302018,Slow traffic from Avenue of the Americas to W 12th St due to roadwork.,506.0,Avenue of the Americas,R,New York,New York,NY,10011-8404,US,US/Eastern,KNYC,2020-12-10 18:51:00,44.0,44.0,55.0,30.1,10.0,CALM,0.0,0.0,Fair,True,False,True,False,False,False,True,False,True,False,False,True,False,Night,Night,Night,Night
C-4384690,2,2020-08-05 14:42:00,2020-08-06 00:45:00,37.186671,-80.40165,37.199151,-80.41116,1.00872084598,Construction on US-460 WB near N MAIN RAMP L Construction. Shoulder closed.,,US-460 W,R,Blacksburg,Montgomery,VA,24060,US,US/Eastern,KBCB,2020-08-05 14:35:00,79.0,79.0,70.0,27.9,10.0,ESE,10.0,0.0,Mostly Cloudy,False,False,False,False,False,False,False,False,False,False,False,False,False,Day,Day,Day,Day
C-4384691,2,2020-10-15 22:10:00,2020-10-16 00:08:29,43.177576,-72.44160500000002,43.151039,-72.44966099999998,1.87794313793,Slow traffic on NH-12 from NH-12A (NH-12) to Arch Bridge/Church St (Killeen St/NH-12) due to roadwork.,1989.0,Bellows Falls Rd,R,Charlestown,Sullivan,NH,03603,US,US/Eastern,KVSF,2020-10-15 21:54:00,60.0,60.0,64.0,29.34,10.0,SSE,5.0,0.0,Fair,False,False,False,False,False,False,False,False,False,False,False,False,False,Night,Night,Night,Night
C-4384692,2,2021-04-08 07:00:15,2021-04-08 17:32:20,34.624071,-92.500526,34.62355,-92.499149,0.0861712416696,Slow traffic on AR-183 - AR-5 from Office Park Dr to I-30 W due to roadwork.,5608.0,Highway 5 N,R,Bryant,Saline,AR,72022,US,US/Central,KLIT,2021-04-08 06:53:00,47.0,47.0,90.0,29.48,10.0,W,3.0,0.0,Fair,False,False,False,False,False,False,False,False,False,False,False,False,False,Day,Day,Day,Day
C-4384693,4,2020-06-17 12:27:19,2020-06-17 17:26:20,32.74044,-97.06303,32.73702,-97.06262,0.23749786397,At Abram St - Entry ramp closed. Construction work.,104.0,S Watson Rd,L,Arlington,Tarrant,TX,76010-1369,US,US/Central,KGPM,2020-06-17 12:50:00,90.0,90.0,29.0,29.4,10.0,S,12.0,0.0,Fair,False,False,False,False,False,False,False,False,False,False,False,False,False,Day,Day,Day,Day
C-4384694,2,2020-12-03 15:37:30,2020-12-03 23:27:59,25.945992,-80.148599,25.94753,-80.149316,0.1152248949159999,Slow traffic on FL-860 from NE 183rd St to NE 25th Pl due to roadwork.,18344.0,W Dixie Hwy,L,North Miami Beach,Miami-Dade,FL,33160-2048,US,US/Eastern,KHWO,2020-12-03 15:53:00,74.0,74.0,57.0,30.14,10.0,E,12.0,0.0,Mostly Cloudy,False,False,True,False,False,True,False,False,True,False,False,False,False,Day,Day,Day,Day
C-4384695,2,2019-09-08 20:02:45,2019-09-14 20:00:53,36.92111,-120.0184,36.95183,-120.05338,2.8700455842,Between Ave 12 and CA-145/Madera Ave - Construction work. Roadway reduced to 1 lane.,,Highway 99,R,Madera,Madera,CA,93636,US,US/Pacific,KFAT,2019-09-09 19:53:00,80.0,80.0,30.0,29.47,10.0,NW,10.0,0.0,Partly Cloudy,False,False,False,False,True,False,False,False,False,False,False,False,False,Night,Night,Day,Day
C-4384696,2,2020-10-12 07:00:00,2020-10-13 07:45:00,39.719429,-104.952189,39.7194,-104.951009,0.0627436784329,Construction on E 2ND AVE EB near N MILWAUKEE ST Expect delays.,2998.0,E 2nd Ave,R,Denver,Denver,CO,80206-4904,US,US/Mountain,KBKF,2020-10-12 06:58:00,38.0,33.0,35.0,24.43,10.0,SSE,7.0,0.0,Fair,True,False,True,False,False,True,False,False,False,True,False,False,False,Night,Day,Day,Day
C-4384697,2,2021-12-27 14:24:00,2021-12-28 01:59:30,30.942236,-97.526742,30.940645,-97.52787,0.128656597653,Roadwork from Smith Branch Rd to Rose Way Cir.,932.0,Royal St,L,Salado,Bell,TX,76571,US,US/Central,KILE,2021-12-27 14:38:00,75.0,75.0,61.0,28.92,10.0,S,15.0,0.0,Mostly Cloudy,False,False,False,False,False,False,False,False,False,False,False,False,False,Day,Day,Day,Day
C-4384698,2,2021-03-20 05:16:30,2021-12-23 14:39:00,42.069961,-122.603613,42.060434,-122.607421,0.6866218325040001,Slow traffic on OR-99 S - Pacific Highway 1 S - I-5 S from Old Siskiyou Hwy/Exit 6 (I-5) to OR-99/Exit 1 (I-5) due to roadwork.,,I-5 S,R,Ashland,Jackson,OR,97520,US,US/Pacific,KMFR,2021-07-30 21:53:00,81.0,81.0,45.0,28.55,10.0,SW,6.0,0.0,Fair,False,False,False,False,False,False,False,False,False,False,False,False,False,Night,Night,Night,Night
C-4384699,3,2016-08-15 11:34:22,2016-08-15 17:34:22,41.102183,-80.83145999999998,41.11326,-80.84043,0.89656408677,At I-76/I-80 - Roadwork.,,Ohio Tpke W,R,North Jackson,Mahoning,OH,44451,US,US/Eastern,KYNG,2016-08-15 11:38:00,75.0,,87.0,30.24,10.0,South,3.5,,Overcast,False,False,False,False,False,False,False,False,False,False,False,False,False,Day,Day,Day,Day
C-4384700,2,2021-05-24 19:00:00,2021-05-26 07:00:00,35.259961,-83.307147,35.276361,-83.289163,1.5209282182,South West of Dillsboro / Both Directions. The road will be reduced to one lane nightly from Pumpkintown Road to the Macon/Jackson County line for emergency road work. Motorists are advised to use caution and to expect delays as traffic will alternate lanes through the work zone.,10803.0,US Highway 441 S,R,Sylva,Jackson,NC,28779-7211,US,US/Eastern,K1A5,2021-05-24 18:55:00,81.0,81.0,45.0,28.08,10.0,NW,3.0,0.0,Cloudy,False,False,False,False,False,False,False,False,False,False,False,False,False,Day,Day,Day,Day
C-4384701,2,2021-11-25 10:59:00,2021-11-25 13:00:20,33.426885,-112.065133,33.429004,-112.065089,0.146430938859,Slow traffic from E Broadway Rd (S 7th St) to I-17/US-60/Maricopa Fwy (S 7th St) due to roadwork.,2228.0,S 7th St,R,Phoenix,Maricopa,AZ,85034-5511,US,US/Mountain,KPHX,2021-11-25 10:51:00,69.0,69.0,13.0,29.05,10.0,NE,15.0,0.0,Fair,False,False,True,False,False,False,True,False,False,False,False,True,False,Day,Day,Day,Day
C-4384702,2,2021-02-25 05:37:00,2021-02-25 18:52:27,33.451564000000005,-112.201624,33.45158,-112.204164,0.146430690816,Slow traffic from N 59th Ave (W Van Buren St) to N 75th Ave (W Van Buren St) due to roadwork.,6612.0,W Van Buren St,L,Phoenix,Maricopa,AZ,85043-5052,US,US/Mountain,KGEU,2021-02-25 05:58:00,55.0,55.0,20.0,28.82,10.0,NNW,10.0,0.0,Fair,False,False,False,False,False,True,False,False,True,False,False,False,False,Night,Night,Night,Day
C-4384703,2,2019-04-17 18:30:00,2019-04-18 05:00:00,47.43605,-122.247818,,,0.829999983311,Intermittent lane closures due to construction on WA-181 Valley Hwy both ways from 190th St to Todd Blvd.,6898.0,Todd Blvd,L,Kent,King,WA,98032,US,US/Pacific,KSEA,2019-04-17 18:53:00,61.0,61.0,54.0,29.83,10.0,WSW,8.0,0.0,Partly Cloudy,False,False,False,False,False,False,False,False,False,False,False,False,False,Day,Day,Day,Day
C-4384704,2,2021-08-25 08:38:30,2021-08-25 10:41:00,37.631484,-122.084465,37.584625,-122.051032,3.71903686371,Slow traffic on Nimitz Fwy S - I-880 S from CA-92/Jackson St (I-880) to Alvarado Blvd/Fremont Blvd (I-880) due to roadwork.,,W Tennyson Rd,R,Hayward,Alameda,CA,94544,US,US/Pacific,KHWD,2021-08-25 08:54:00,59.0,59.0,83.0,29.96,10.0,VAR,3.0,0.0,Cloudy,False,False,False,False,True,False,False,False,False,False,False,False,False,Day,Day,Day,Day
C-4384705,2,2021-05-16 20:00:00,2021-05-29 05:00:00,36.777538,-76.248389,36.769308,-76.260299,0.870535575899,On I-64 in the City of Chesapeake from mile marker 291.5 to mile marker 291.2 motorists can expect potential delays in this area from 05/16/21 at 8:00 PM until 05/29/21 at 5:00 AM due to guardrail repairs. The west exit ramp is closed.,,I-64 E,R,Chesapeake,Chesapeake,VA,23320,US,US/Eastern,KCPK,2021-05-16 19:55:00,64.0,64.0,64.0,30.22,7.0,E,5.0,0.0,Cloudy,False,False,False,False,False,False,False,False,False,False,False,False,False,Day,Day,Day,Day
C-4384706,2,2021-07-24 16:21:41,2021-07-24 23:59:00,40.75724,-73.989799,40.755525,-73.983614,0.344715165587,Slow traffic from 8th Ave to W 43rd St due to roadwork.,301.0,W 42nd St,R,New York,New York,NY,10036-6907,US,US/Eastern,KNYC,2021-07-24 16:51:00,77.0,77.0,54.0,29.97,10.0,VAR,3.0,0.0,Fair,True,False,True,False,False,False,True,False,True,False,False,True,False,Day,Day,Day,Day
C-4384707,2,2021-06-23 02:38:00,2021-06-23 03:12:30,40.452136,-76.41506899999997,40.452131,-76.433254,0.95610403849,Stationary traffic on I-78 W from US-22/Exit 8 (I-78) to I-81/Exit 1 (I-78) due to roadwork.,,I-78 W,R,Fredericksburg,Lebanon,PA,17026,US,US/Eastern,KMUI,2021-06-23 02:56:00,53.0,53.0,73.0,29.54,10.0,WNW,5.0,0.0,Fair,False,False,False,False,False,False,False,False,False,False,False,False,False,Night,Night,Night,Night
C-4384708,2,2021-08-04 06:01:00,2021-08-04 19:46:00,37.643016,-119.924475,37.583124,-119.960702,4.58864723302,Construction on CA-140 WB near FORESTA RD Expect long delays.,6742.0,Yosemite All Year 140 Hwy,R,Mariposa,Mariposa,CA,95338,US,US/Pacific,KMCE,2021-08-04 05:53:00,63.0,63.0,67.0,29.69,10.0,CALM,0.0,0.0,Fair,False,False,False,False,False,False,False,False,False,False,False,False,False,Night,Day,Day,Day
C-4384709,2,2021-05-26 17:16:26,2021-05-26 17:44:33,30.470312,-90.040719,30.478249,-90.037828,0.574781594149,Slow traffic on LA-59 from Harrison Ave (LA-59) to LA-36/Level St (LA-59) due to roadwork.,71370.0,Highway 59,R,Abita Springs,St. Tammany,LA,70420-3707,US,US/Central,KASD,2021-05-26 16:53:00,87.0,87.0,39.0,30.07,10.0,S,8.0,0.0,Fair,False,False,False,False,False,False,False,False,False,False,False,False,False,Day,Day,Day,Day
C-4384710,2,2021-01-11 13:53:00,2021-01-12 00:35:26,39.749994,-105.025293,39.743091,-105.02523899999998,0.4769605023520001,Stationary traffic on US-287 S - US-287 N from N Speer Blvd (Federal Blvd/US-287) to US-40/W Colfax Ave (CO-88/Federal Blvd/US-287) due to roadwork.,2199.0,Federal Blvd,L,Denver,Denver,CO,80211-4639,US,US/Mountain,KBJC,2021-01-11 13:45:00,45.0,40.0,18.0,24.48,10.0,S,8.0,0.0,Fair,False,False,True,False,False,False,False,False,False,True,False,False,False,Day,Day,Day,Day
C-4384711,3,2018-12-06 04:11:33,2018-12-06 07:00:00,33.427284,-84.181671,,,4.80999994278,Lane closed due to construction work on I-75 Southbound from Exit 221 Jonesboro Rd to Exit 218 GA-20 Hampton-Mcdonough Rd.,,GA-401 S,R,McDonough,Henry,GA,30253,US,US/Eastern,K6A2,2018-12-06 04:15:00,28.4,,74.0,30.33,10.0,Calm,,,Clear,False,False,False,False,False,False,False,False,False,False,False,False,False,Night,Night,Night,Night
C-4384712,4,2021-06-14 21:00:00,2021-06-15 03:45:00,29.825295,-95.563641,29.828595,-95.563391,0.228500182676,Construction on W SAM HOUSTON TOLLWAY NB near CLAY DR Use alternate exit ramp.,,W Sam Houston Tollway N,R,Houston,Harris,TX,77043,US,US/Central,KMCJ,2021-06-14 20:53:00,87.0,87.0,67.0,29.86,10.0,S,7.0,0.0,Mostly Cloudy,False,False,False,False,False,False,False,False,False,False,False,False,False,Night,Night,Day,Day
C-4384713,2,2020-05-01 13:10:27,2020-05-01 15:10:27,32.91795,-117.23465,32.91795,-117.23465,0.0,At I-5 - Roadwork. Two lanes closed.,,I-805 N,R,San Diego,San Diego,CA,92130,US,US/Pacific,KNKX,2020-05-01 12:55:00,77.0,77.0,54.0,29.44,10.0,S,5.0,0.0,Fair,False,False,False,False,False,False,False,False,False,False,False,False,False,Day,Day,Day,Day
C-4384714,2,2019-12-06 00:53:24,2019-12-09 15:53:46,40.89099,-75.6445,40.91253,-75.64605999999998,1.49050037058,At Hatchery Rd - Construction work.,,I-476 N,R,Lehighton,Carbon,PA,18235,US,US/Eastern,KABE,2019-12-06 00:51:00,35.0,31.0,57.0,29.7,10.0,WSW,5.0,0.0,Mostly Cloudy,False,False,False,False,False,False,False,False,False,False,False,False,False,Night,Night,Night,Night
C-4384715,2,2021-07-12 12:20:31,2021-07-12 12:42:30,42.656696,-82.96276800000003,42.656817,-82.95693399999998,0.296561563081,Stationary traffic from Hayes Rd (22 Mile Rd) to Romeo Plank Rd (22 Mile Rd) due to roadwork.,16174.0,22 Mile Rd,L,Macomb,Macomb,MI,48044-1507,US,US/Eastern,KMTC,2021-07-12 11:56:00,68.0,68.0,100.0,29.48,10.0,ENE,8.0,0.0,Cloudy,False,False,False,False,False,False,False,False,False,False,False,True,False,Day,Day,Day,Day
C-4384716,4,2020-09-03 06:00:00,2020-09-03 12:00:00,47.703164,-122.328526,47.708615,-122.328648,0.376670944302,Closed road from NE 103rd St (1st Ave NE) to N Northgate Way (1st Ave NE) due to roadwork.,10272.0,1st Ave NE,R,Seattle,King,WA,98125,US,US/Pacific,KBFI,2020-09-03 05:53:00,58.0,58.0,87.0,30.1,10.0,WNW,3.0,0.0,Fair,False,False,True,False,False,False,True,False,True,False,False,True,False,Night,Day,Day,Day
C-4384717,2,2021-10-07 07:40:30,2021-10-07 09:41:56,40.537711,-80.186657,40.536061,-80.183314,0.209312536265,Slow traffic on PA-65 from Ferry St (Ohio River Blvd/PA-65) to Beaver St (Ohio River Blvd/PA-65) due to roadwork.,370.0,Ohio River Blvd,R,Sewickley,Allegheny,PA,15143-1344,US,US/Eastern,KPIT,2021-10-07 07:51:00,63.0,63.0,97.0,28.96,10.0,CALM,0.0,0.0,Mostly Cloudy,False,False,False,False,False,False,False,False,True,False,False,True,False,Day,Day,Day,Day
C-4384718,3,2016-12-14 02:00:00,2016-12-14 07:00:00,47.231899,-122.439369,,,0.01,Exit ramp closed due to construction work on I-5 Collector/Distributor Northbound at I-5 Exit 133 / Pacific Ave / I-705 City Center.,,I-5 N,R,Tacoma,Pierce,WA,98402,US,US/Pacific,KTIW,2016-12-14 01:53:00,34.0,25.0,82.0,30.23,10.0,North,12.7,,Clear,False,False,False,False,False,False,False,False,False,False,False,False,False,Night,Night,Night,Night
C-4384719,2,2021-06-07 16:24:49,2021-06-07 16:47:12,43.407054,-97.122538,43.41637,-97.12221,0.643884793788,Stationary traffic on SD-19 from SD-44 (SD-19) to SD-42/265th St (SD-19) due to roadwork.,27421.0,SD Highway 19,L,Parker,Turner,SD,57053,US,US/Central,KFSD,2021-06-07 15:56:00,96.0,96.0,31.0,28.26,10.0,SSW,14.0,0.0,Partly Cloudy,False,False,False,False,False,False,False,False,False,False,False,False,False,Day,Day,Day,Day
C-4384720,2,2021-02-01 13:32:00,2021-02-01 23:09:00,33.567604,-112.098009,33.56756,-112.112506,0.834612342373,Slow traffic from N 7th Ave (W Dunlap Ave) to I-17/N Black Canyon Hwy (W Dunlap Ave) due to roadwork.,1824.0,W Dunlap Ave,R,Phoenix,Maricopa,AZ,85021-2943,US,US/Mountain,KDVT,2021-02-01 13:53:00,70.0,70.0,23.0,28.44,10.0,E,9.0,0.0,Partly Cloudy,False,False,True,False,False,True,False,False,False,True,False,True,False,Day,Day,Day,Day
C-4384721,2,2017-09-12 07:00:00,2017-10-30 18:01:00,39.81641,-105.053215,,,0.0,Intermittent lane closures due to construction on 66th Ave both ways from Oak St to CO-95 Sheridan Blvd.,6600.0,Sheridan Blvd,R,Westminster,Adams,CO,80030,US,US/Mountain,KBJC,2017-09-12 06:47:00,64.4,,40.0,30.21,12.0,Calm,,,Scattered Clouds,False,False,False,False,False,False,False,False,False,False,False,False,False,Day,Day,Day,Day
C-4384722,2,2018-12-03 11:57:49,2018-12-07 11:57:41,42.497073,-83.35855699999998,42.497073,-83.35855699999998,0.0,At I-696/Walter P Reuther Fwy - Roadwork.,,Orchard Lake Rd,R,Farmington,Oakland,MI,48334,US,US/Eastern,KVLL,2018-12-03 11:55:00,34.7,28.1,84.0,29.87,10.0,NNW,8.1,,Overcast,False,False,False,False,False,False,False,False,False,False,False,False,False,Day,Day,Day,Day
C-4384723,2,2017-08-21 08:57:46,2017-08-21 15:02:25,40.1433,-75.54836999999998,40.141148,-75.547449,0.156444313055,At Township Line Rd - Roadwork. Traffic problem.,455.0,Schuylkill Rd,L,Phoenixville,Chester,PA,19460-5200,US,US/Eastern,KPTW,2017-08-21 08:54:00,72.0,,87.0,30.22,6.0,Calm,,,Scattered Clouds,False,False,False,False,False,False,False,False,False,True,False,False,False,Day,Day,Day,Day
C-4384724,4,2021-12-12 10:58:53,2021-12-13 23:59:00,40.707576,-75.272563,40.706409,-75.272417,0.0809938213361,Closed road from Kingston Rd / Northwood Ave to Nightingale Dr due to roadwork.,1108.0,Van Buren Rd,L,Easton,Northampton,PA,18045-2030,US,US/Eastern,KABE,2021-12-12 10:51:00,43.0,36.0,47.0,29.75,10.0,W,15.0,0.0,Fair,False,False,False,False,False,False,False,False,False,False,False,False,False,Day,Day,Day,Day
C-4384725,2,2021-01-10 22:39:00,2021-01-11 05:13:39,45.788773,-111.321518,45.787154,-111.320026,0.1329681773179999,Roadwork from White Rd to Stagecoach Trail Rd.,4618.0,Churchill Rd,R,Manhattan,Gallatin,MT,59741-8139,US,US/Mountain,KBZN,2021-01-10 22:56:00,5.0,5.0,92.0,25.7,9.0,CALM,0.0,0.0,Fair,False,False,False,False,False,False,False,False,False,False,False,False,False,Night,Night,Night,Night
C-4384726,2,2020-09-25 13:36:00,2020-09-26 01:39:06,26.320622,-80.090828,26.317508,-80.090069,0.220231771569,Queuing traffic on US-1 S - FL-810 - FL-5 from NE Eller St to SE 12th Ave due to roadwork.,998.0,NE Eller St,R,Deerfield Beach,Broward,FL,33441-2143,US,US/Eastern,KPMP,2020-09-25 13:34:00,80.0,80.0,85.0,29.98,0.5,S,25.0,0.34,Heavy T-Storm / Windy,False,False,False,False,False,False,False,False,False,False,False,True,False,Day,Day,Day,Day
C-4384727,2,2021-09-14 09:03:00,2021-09-14 09:28:30,37.61842100000001,-114.510551,37.654421,-114.497591,2.5864668133200004,Slow traffic on US-93 S - US-93 N from NV-317 (Front St/US-93) to Beaver Dam Rd (US-93) due to roadwork.,44.0,Lincoln St,L,Caliente,Lincoln,NV,89008,US,US/Pacific,KP38,2021-09-14 08:56:00,78.0,78.0,22.0,27.01,10.0,CALM,0.0,0.0,Fair,False,False,False,False,False,False,False,False,False,False,False,False,False,Day,Day,Day,Day
C-4384728,2,2020-08-19 11:04:37,2020-08-20 11:04:37,42.10521,-80.13093,42.07979,-80.18804,3.4144855156,Between Pittsburgh Ave and PA-5-Alt/W Lake Rd/Asbury Rd - Roadwork.,2200.0,W 12th St,R,Erie,Erie,PA,16505-4502,US,US/Eastern,KERI,2020-08-19 10:51:00,71.0,71.0,51.0,29.28,10.0,NW,9.0,0.0,Fair,False,False,True,False,False,False,False,False,False,False,False,True,False,Day,Day,Day,Day
C-4384729,2,2017-10-19 07:15:01,2017-10-19 19:00:00,40.754402,-74.02574200000002,,,4.28999996185,Intermittent lane closures due to construction work on Washington St both ways between County Hwy-681 Observer Hwy and 15th St.,1499.0,Washington St,R,Hoboken,Hudson,NJ,07030-9400,US,US/Eastern,KJRB,2017-10-19 07:15:00,57.2,,77.0,,10.0,West,5.8,,Clear,False,False,True,False,False,False,False,False,False,True,False,False,False,Day,Day,Day,Day
C-4384730,4,2021-04-22 00:00:00,2021-05-03 00:00:00,39.657779,-75.784581,39.657469,-75.784301,0.0260884053285999,Weekend closure of roadway for reconstruction of concrete roadway. Detour signage will be posted for motorists. Ott s Chapel Road Southbound between Elkton Road and Sandy Boulevard (T201504401) (Newark) (Group 1),,Otts Chapel Rd,R,Newark,New Castle,DE,19711,US,US/Eastern,KILG,2021-04-22 00:51:00,36.0,30.0,55.0,29.81,10.0,WNW,8.0,0.0,Fair,False,False,False,False,False,False,False,False,False,False,False,True,False,Night,Night,Night,Night
C-4384731,2,2021-09-10 09:07:30,2021-09-10 09:27:30,33.598049,-112.013261,33.596905,-112.012383,0.0938138552141,Slow traffic from E Wethersfield Rd to Piestewa Fwy S due to roadwork.,12298.0,N 32nd St,L,Phoenix,Maricopa,AZ,85032-7141,US,US/Mountain,KSDL,2021-09-10 08:53:00,86.0,86.0,35.0,28.31,10.0,CALM,0.0,0.0,Fair,True,False,False,False,False,False,False,False,True,True,False,False,False,Day,Day,Day,Day
C-4384732,4,2019-09-25 05:24:43,2019-09-25 10:13:05,40.38419,-111.83064,40.414319,-111.869798,2.9289641537,Between UT-145/Main Street/Exit 278 and US-89/1200/Exit 282 - Roadwork.,,I-15 N,R,Lehi,Utah,UT,84043,US,US/Mountain,KPVU,2019-09-25 04:56:00,48.0,46.0,83.0,25.55,10.0,NNE,5.0,0.0,Partly Cloudy,False,False,False,False,True,False,False,False,False,False,False,False,False,Night,Night,Night,Night
C-4384733,2,2021-07-21 07:48:00,2021-07-21 08:11:30,36.975644,-85.911107,36.970303,-85.910208,0.372349643987,Stationary traffic on KY-249 from Hilltopper Way to Elliot Rush Rd due to roadwork.,999.0,Roseville Rd,L,Glasgow,Barren,KY,42141-8402,US,US/Central,KGLW,2021-07-21 07:55:00,73.0,73.0,91.0,29.31,5.0,CALM,0.0,0.0,Fair,False,False,False,False,False,False,False,False,False,False,False,False,False,Day,Day,Day,Day
C-4384734,2,2021-06-24 10:14:08,2021-06-24 10:47:08,36.601712,-95.18943,36.606576,-95.184514,0.4327745877109999,Slow traffic on Will Rogers Tpke E - I-44 E from US-69 exit [283] to OK-66 exit [289] due to roadwork.,,I-44 E,R,Vinita,Craig,OK,74301,US,US/Central,KGMJ,2021-06-24 10:15:00,82.0,82.0,74.0,29.08,10.0,S,18.0,0.0,Partly Cloudy,False,False,False,False,False,False,False,False,False,False,False,False,False,Day,Day,Day,Day
C-4384735,3,2017-09-29 06:00:00,2017-09-29 08:00:00,41.097534,-74.040215,,,6.61000013351,Left lane closed due to bridge maintenance work on I-87 I-287 Southbound between Exit 14B County Hwy-89 Airmont Rd and Exit 14A Gov Thomas E Dewey Trwy.,,I-87 S,R,Spring Valley,Rockland,NY,10977,US,US/Eastern,KHPN,2017-09-29 05:56:00,48.9,,80.0,30.01,10.0,NW,3.5,,Clear,False,False,False,False,False,False,False,False,False,False,False,False,False,Night,Night,Day,Day
C-4384736,2,2021-06-11 13:55:35,2021-06-11 14:32:05,44.96987100000001,-93.308972,44.974192,-93.292047,0.879520650121,Slow traffic on US-12 E - I-394 E from MN-100/Exit 5 (I-394) to US-12/Exit 8B (I-394) due to roadwork.,,I-394 E,R,Minneapolis,Hennepin,MN,55405,US,US/Central,KMIC,2021-06-11 13:53:00,86.0,86.0,43.0,28.84,10.0,SSE,8.0,0.0,Fair,False,False,False,False,False,False,False,False,False,False,False,False,False,Day,Day,Day,Day
C-4384737,2,2019-02-28 22:02:40,2019-03-04 22:02:04,41.82172,-71.42016,41.84611,-71.41102,1.7496451040099998,Between Atwells Ave/Exit 21 and Branch Ave/Exit 24 - Roadwork. Lane blocked.,,I-95 N,R,Providence,Providence,RI,02903,US,US/Eastern,KPVD,2019-02-28 21:51:00,19.9,14.9,71.0,30.3,10.0,SW,3.5,,Scattered Clouds,False,False,False,False,False,False,False,False,False,False,False,False,False,Night,Night,Night,Night
C-4384738,2,2019-02-12 21:00:00,2019-02-13 06:00:00,32.836941,-96.905571,,,0.0,Right lane closed due to construction during the night on TX-183 Eastbound at Spur-482.,,Airport Fwy E,R,Irving,Dallas,TX,75062,US,US/Central,KDFW,2019-02-12 20:53:00,45.0,42.6,56.0,30.28,10.0,SSW,4.6,,Clear,False,False,False,False,False,False,False,False,False,False,False,False,False,Night,Night,Night,Night
C-4384739,2,2020-10-14 12:44:00,2020-10-14 22:35:33,27.83878300000001,-82.786957,27.839668,-82.787625,0.0735166885336,Queuing traffic on US-19 Alt N - FL-595 - County Hwy-694 from US-19 Alt to 110th Ln due to resurfacing work.,7331.0,Seminole Blvd,R,Seminole,Pinellas,FL,33772-5939,US,US/Eastern,KPIE,2020-10-14 12:53:00,86.0,86.0,63.0,29.98,10.0,VAR,3.0,0.0,Fair,False,False,False,False,False,False,False,False,False,False,False,False,False,Day,Day,Day,Day
C-4384740,2,2020-11-05 19:53:30,2020-11-05 23:07:30,39.202845,-81.535358,39.207054,-81.537915,0.3214262783379999,Stationary traffic on WV-14 from Mineral Wells Hts to Blair Ave due to roadwork.,,WV-14,R,Mineral Wells,Wood,WV,26150,US,US/Eastern,KPKB,2020-11-05 19:53:00,57.0,57.0,53.0,29.37,10.0,S,5.0,0.0,Fair,False,False,False,False,False,False,False,False,False,False,False,False,False,Night,Night,Night,Night
C-4384741,2,2021-05-22 05:42:30,2021-05-22 11:13:02,28.32447100000001,-82.51984200000003,28.32158,-82.506141,0.856928311216,Stationary traffic on FL-52 from FL-589/Suncoast Pkwy (FL-52) to US-41/FL-45/Land O Lakes Blvd (FL-52) due to roadwork.,17900.0,State Road 52,R,Land O Lakes,Pasco,FL,34638-6820,US,US/Eastern,KBKV,2021-05-22 05:53:00,62.0,62.0,86.0,30.19,10.0,NE,6.0,0.0,Fair,False,False,False,False,False,False,False,False,False,False,False,False,False,Night,Night,Day,Day
C-4384742,2,2021-11-05 00:00:00,2021-12-31 14:58:27,44.975941,-93.273081,44.975357,-93.271698,0.0787244674388999,Construction on 8TH ST EB near NICOLLET MALL Allow extra time.,800.0,Nicollet Mall,R,Minneapolis,Hennepin,MN,55402-2017,US,US/Central,KMIC,2021-11-05 00:53:00,40.0,34.0,79.0,29.14,10.0,SSE,8.0,0.0,Fair,True,False,True,False,False,False,False,False,True,False,False,True,False,Night,Night,Night,Night
C-4384743,2,2021-06-13 09:10:30,2021-06-13 09:36:00,38.615461,-102.785943,38.612413,-102.785949,0.210596991904,Stationary traffic on US-287 S - US-287 N from US-40 (US-287) to CO-96/W 15th St/S Wansted St (US-287) due to roadwork.,23960.0,US Highway 287,R,Kit Carson,Cheyenne,CO,80825,US,US/Mountain,KITR,2021-06-13 08:53:00,74.0,74.0,71.0,25.88,10.0,SSE,13.0,0.0,Fair,False,False,False,False,False,False,False,False,False,False,False,False,False,Day,Day,Day,Day
C-4384744,2,2021-10-22 16:25:21,2021-10-22 18:42:43,28.998885,-81.304039,28.998909,-81.301778,0.136644804554,Stationary traffic on FL-15A from S Florida Ave to Taylor Rd E / S State Road 15A due to roadwork.,108.0,Taylor Rd W,R,Deland,Volusia,FL,32720,US,US/Eastern,KDED,2021-10-22 16:30:00,83.0,83.0,61.0,29.91,10.0,E,10.0,0.0,Mostly Cloudy,False,False,False,False,False,False,False,False,False,False,False,False,False,Day,Day,Day,Day
C-4384745,2,2019-11-11 08:00:00,2019-11-12 16:30:00,40.24259,-104.05582,40.24259,-104.05582,0.0,At I-76/US-6 - Maintenance work.,4999.0,US Highway 6,L,Wiggins,Morgan,CO,80654-8912,US,US/Mountain,KFMM,2019-11-11 07:55:00,11.0,2.0,76.0,25.87,10.0,N,6.0,,Cloudy,False,False,False,False,False,False,False,False,False,True,False,False,False,Day,Day,Day,Day
C-4384746,2,2020-12-15 17:01:00,2020-12-15 22:46:00,34.08198400000001,-117.698483,34.08208,-117.697999,0.0284803856921,Construction on I-10 EB near MONTE VISTA AVE Expect delays.,,I-10 E,R,Montclair,San Bernardino,CA,91763,US,US/Pacific,KPOC,,,,,,,,,,,False,False,False,False,False,False,False,False,False,False,False,False,False,Night,Day,Day,Day
C-4384747,2,2021-08-11 15:02:00,2021-08-11 17:31:05,40.454375,-75.887148,40.447081,-75.900677,0.871758546375,Slow traffic on US-222 S from PA-662/Moselem Springs Rd (Kutztown Rd/US-222) to US-222 Bus (Reading) (North)/Allentown Pike (US-222) due to roadwork.,8651.0,Allentown Pike,L,Blandon,Berks,PA,19510-9463,US,US/Eastern,KRDG,2021-08-11 14:54:00,94.0,94.0,56.0,29.61,10.0,SW,9.0,0.0,Fair,False,False,False,False,False,False,False,False,False,False,False,False,False,Day,Day,Day,Day
C-4384748,2,2021-12-22 16:56:00,2021-12-22 18:59:49,29.697581,-95.427364,29.697288,-95.425727,0.100313877435,Stationary traffic from Merrick St to Aberdeen Way due to roadwork.,,Merrick St,R,Houston,Harris,TX,77025,US,US/Central,KMCJ,2021-12-22 16:53:00,69.0,69.0,54.0,30.02,10.0,SSE,13.0,0.0,Fair,False,False,False,False,False,False,False,False,False,True,False,False,False,Day,Day,Day,Day
C-4384749,2,2021-11-10 00:00:00,2021-11-11 00:45:00,42.32744,-72.616869,42.313169,-72.618588,0.989935162886,Construction on I-91 SB near MM 24 Expect delays.,,I-91 S,R,Northampton,Hampshire,MA,01060,US,US/Eastern,KCEF,2021-11-10 00:56:00,52.0,52.0,81.0,29.73,10.0,CALM,0.0,0.0,Cloudy,False,False,False,False,False,False,False,False,False,False,False,False,False,Night,Night,Night,Night
C-4384750,2,2021-12-16 16:02:00,2021-12-16 18:13:18,33.448442,-112.358175,33.449813,-112.35732,0.106783826482,Stationary traffic from W La Mar Blvd to N 137th Ave / N La Jolla Blvd due to roadwork.,219.0,N Litchfield Rd,R,Goodyear,Maricopa,AZ,85338-1290,US,US/Mountain,KGYR,2021-12-16 15:47:00,61.0,61.0,34.0,28.96,10.0,SW,10.0,,Fair,False,False,False,False,False,False,False,False,True,False,False,False,False,Day,Day,Day,Day
C-4384751,2,2021-02-01 13:49:00,2021-02-01 20:03:00,33.494785,-112.071004,33.496191,-112.073697,0.183069217077,Slow traffic from N 3rd St to W Glenrosa Ave / Steele Indian School Park due to roadwork.,196.0,E Indian School Rd,L,Phoenix,Maricopa,AZ,85012-1819,US,US/Mountain,KPHX,2021-02-01 13:51:00,69.0,69.0,25.0,28.87,10.0,E,3.0,0.0,Cloudy,True,False,False,False,False,False,True,False,True,False,False,True,False,Day,Day,Day,Day
C-4384752,2,2021-11-11 07:00:00,2021-12-30 04:45:00,33.406695,-112.073273,33.407767,-112.073282,0.0740699647623,Construction on CENTRAL AVE near BROADWAY Allow extra time.,4301.0,S Central Ave,L,Phoenix,Maricopa,AZ,85040,US,US/Mountain,KPHX,2021-11-11 06:51:00,57.0,57.0,53.0,28.87,10.0,CALM,0.0,0.0,Fair,True,False,True,False,False,False,False,False,False,False,False,True,False,Day,Day,Day,Day
C-4384753,2,2021-03-19 09:00:00,2021-03-19 14:45:00,40.946914,-73.923073,40.946396,-73.923077,0.0357910000994,Construction on US-9W SB near CLOSTER DOCK RD Construction. Right lane closed.,,US Highway 9W,R,Alpine,Bergen,NJ,07620,US,US/Eastern,KTEB,2021-03-19 08:51:00,31.0,19.0,32.0,30.11,10.0,NNE,17.0,0.0,Fair,False,False,False,False,False,False,False,False,False,False,False,True,False,Day,Day,Day,Day
C-4384754,2,2021-04-06 07:32:00,2021-05-22 13:07:22,36.237741,-91.255896,36.233322,-91.235643,1.16927359237,Stationary traffic on US-62 W - US-62 E - US-63 S - US-412 W - US-412 E - US-63 N from AR-58 (Hardy) (East) (US-412) to US-62 (Imboden) (US-412) due to roadwork.,250.0,Highway 63 W,R,Ravenden,Lawrence,AR,72459,US,US/Central,KARG,2021-05-22 10:56:00,81.0,81.0,54.0,30.06,10.0,CALM,0.0,0.0,Fair,False,False,False,False,False,False,False,False,False,False,False,False,False,Day,Day,Day,Day
C-4384755,2,2021-06-08 21:57:00,2021-11-10 15:27:12,41.44338,-105.960227,41.43948,-105.937427,1.21127218605,Slow traffic on I-80 E from Copper Cove Rd/Exit 279 (I-80) to Quealy Dome Rd/Exit 290 (I-80) due to roadwork.,,I-80 E,R,Laramie,Albany,WY,82070,US,US/Mountain,KLAR,2021-06-08 21:53:00,57.0,57.0,21.0,22.99,10.0,W,9.0,0.0,Fair,False,False,False,False,False,False,False,False,False,False,False,False,False,Night,Night,Night,Day
C-4384756,2,2020-10-23 15:46:00,2020-10-24 02:39:30,33.816556,-89.344487,33.808766,-89.35221800000002,0.6976179017120001,Stationary traffic on MS-8 from MS-9/Main St/Russell Ave (MS-8) to CR-355 (MS-8) due to roadwork.,333.0,Highway 8 W,R,Calhoun City,Calhoun,MS,38916-7077,US,US/Central,KUOX,2020-10-23 15:55:00,79.0,79.0,65.0,29.51,9.0,WNW,6.0,0.0,Fair,False,False,False,False,False,False,False,False,False,False,False,False,False,Day,Day,Day,Day
C-4384757,4,2019-08-12 22:02:26,2019-08-13 03:01:59,47.56247000000001,-122.09749,47.56064,-122.09137,0.312099153606,Ramp closed to Lakemont Blvd/Exit 13 - Closed due to roadwork.,,SE Newport Way,R,Issaquah,King,WA,98027,US,US/Pacific,KRNT,2019-08-12 21:53:00,68.0,68.0,59.0,30.04,10.0,CALM,0.0,0.0,Fair,False,False,True,False,False,False,False,False,False,False,False,True,False,Night,Night,Night,Day
C-4384758,3,2019-03-15 21:00:00,2019-03-18 06:00:00,35.104172,-89.870491,,,1.30999994278,Exit ramp from I-240 Westbound to Poplar Ave Eastbound closed due to construction work.,,Poplar Ave,R,Memphis,Shelby,TN,38119,US,US/Central,KOLV,2019-03-15 20:55:00,48.2,,43.0,30.31,10.0,WNW,3.5,,,False,False,False,False,False,False,False,False,False,False,False,False,False,Night,Night,Night,Night
C-4384759,2,2021-03-18 14:01:00,2021-12-31 16:45:00,40.819301,-73.93020200000002,40.817977,-73.92519899999998,0.277133995708,Slow traffic from I-87/Major Deegan Expy (E 149th St) to Melrose Ave (E 149th St) due to roadwork.,,E 149th St,R,Bronx,Bronx,NY,10451,US,US/Eastern,KLGA,2021-09-22 07:51:00,74.0,74.0,85.0,30.11,10.0,SSE,12.0,0.0,Cloudy,False,False,False,False,False,False,True,False,False,False,False,True,False,Day,Day,Day,Day
C-4384760,2,2021-07-26 01:00:00,2021-11-09 01:00:36,39.708441,-91.053217,39.715711,-91.075207,1.27216077593,Roadwork on CR-4/Exit 20 (I-72) from IL-96/Exit 10 (I-72) to I-72 W - US-36 W.,,I-72 W,R,Barry,Pike,IL,62312,US,US/Central,KPPQ,2021-07-26 00:55:00,73.0,73.0,100.0,29.27,10.0,CALM,0.0,0.0,Fair,False,False,False,False,False,False,False,False,False,False,False,False,False,Night,Night,Night,Night
C-4384761,2,2020-05-24 14:45:23,2020-05-25 14:45:23,27.87908,-82.67555,27.87908,-82.67555,0.0,At 118th Ave N - Construction work.,3126.0,118th Ave N,L,Saint Petersburg,Pinellas,FL,33716,US,US/Eastern,KPIE,2020-05-24 14:53:00,87.0,87.0,59.0,29.96,10.0,E,10.0,0.0,Partly Cloudy,False,False,False,False,False,False,False,False,False,False,False,True,False,Day,Day,Day,Day
C-4384762,2,2021-02-06 22:21:30,2021-02-07 01:19:25,47.064575,-109.201834,47.062619,-109.193167,0.4297214524029999,Roadwork on US-191/MT-238/1st Ave (US-87) from MT-19/MT-200 (US-87) to US-87 N - MT-200 - US-87 S.,93839.0,US Highway 87,R,Lewistown,Fergus,MT,59457,US,US/Mountain,KLWT,2021-02-06 21:54:00,-4.0,-18.0,83.0,25.56,4.0,W,7.0,0.0,Light Snow,False,False,False,False,False,False,False,False,False,False,False,False,False,Night,Night,Night,Night
C-4384763,2,2019-01-28 07:00:00,2019-01-28 17:00:00,39.77993,-104.972689,39.77993,-104.97269,5.30988244036e-05,At Washington St/Exit 275A - Construction work.,,E 46th Ave,R,Denver,Denver,CO,80216,US,US/Mountain,KBJC,2019-01-28 06:49:00,24.8,14.0,100.0,30.07,0.5,NNE,11.5,,Snow,False,False,True,False,True,False,False,False,False,False,False,False,False,Night,Day,Day,Day
C-4384764,2,2021-06-12 07:00:00,2021-06-12 19:45:00,36.894846,-78.156948,36.866866,-78.16070400000002,1.94434656534,Construction on VA-637 SB near VA-40 Drive with caution.,8706.0,Craig Mill Rd,R,Kenbridge,Lunenburg,VA,23944,US,US/Eastern,KAVC,2021-06-12 06:55:00,67.0,67.0,93.0,29.35,10.0,N,7.0,0.0,Cloudy,False,False,False,False,False,False,False,False,False,False,False,False,False,Day,Day,Day,Day
C-4384765,4,2021-01-30 15:34:19,2021-02-07 07:59:00,35.917804,-86.828491,35.917387,-86.83246199999998,0.224061858416,Closed road from Royal Oaks Blvd to Murfreesboro Rd due to roadwork.,131.0,Royal Oaks Blvd,L,Franklin,Williamson,TN,37067-3089,US,US/Central,KBNA,2021-01-30 15:53:00,48.0,43.0,48.0,29.34,10.0,ESE,10.0,0.0,Light Rain,False,False,False,False,False,False,False,False,False,False,False,False,False,Day,Day,Day,Day
C-4384766,4,2020-09-24 07:45:08,2020-10-02 06:59:00,29.663507,-95.260532,29.66355,-95.259103,0.0858464436993999,Closed road from Houston to Gulf Fwy due to roadwork.,8800.0,Bryam St,L,Houston,Harris,TX,77061,US,US/Central,KHOU,2020-09-24 07:53:00,70.0,70.0,87.0,29.85,9.0,NW,3.0,0.0,Cloudy,False,False,False,False,False,False,False,False,False,False,False,False,False,Day,Day,Day,Day
C-4384767,2,2020-05-11 09:55:17,2020-05-11 10:55:17,38.7126,-76.98982,38.72552,-76.98992,0.892703257675,Between Farmington Rd and Livingston Rd/Swan Creek Rd - Construction work.,,Old Fort Rd,R,Fort Washington,Prince George's,MD,20744,US,US/Eastern,KDCA,2020-05-11 09:52:00,57.0,57.0,44.0,29.94,10.0,W,15.0,0.0,Mostly Cloudy,False,False,False,False,False,False,False,False,False,False,False,True,False,Day,Day,Day,Day
C-4384768,2,2020-10-20 19:04:30,2020-10-20 20:37:30,40.01094000000001,-105.326396,40.015299,-105.324053,0.325701288603,Queuing traffic on CO-119 from CO-72/Peak to Peak Hwy/W 2nd St (CO-72/Peak to Peak Hwy/S Bridge St/CO-119) to CO-93/CO-7/Broadway St (CO-7/Canyon Blvd/CO-119) due to maintenance work.,38411.0,Boulder Canyon Dr,R,Boulder,Boulder,CO,80302-9654,US,US/Mountain,KBDU,2020-10-20 19:12:00,52.0,52.0,50.0,24.76,10.0,CALM,0.0,0.0,Fair,False,False,True,False,False,False,False,False,False,False,False,False,False,Night,Night,Day,Day
C-4384769,2,2021-06-22 11:25:00,2021-07-05 07:23:40,41.047718,-78.00289699999998,41.117593,-78.10989599999998,7.373024807939999,Roadwork on PA 879 both directions between KARTHAUS TO PIPER HW and (End of PA - 879). There is a lane restriction.,698.0,Spruce Rd,R,Moshannon,Centre,PA,16859,US,US/Eastern,KUNV,2021-06-22 11:53:00,61.0,61.0,77.0,28.51,8.0,WNW,9.0,0.0,Mostly Cloudy,False,False,True,False,False,False,True,False,False,False,False,False,False,Day,Day,Day,Day
C-4384770,2,2021-09-02 16:28:30,2021-09-02 17:46:00,41.20258,-79.96102900000002,41.202892,-79.999388,1.9941993616,Slow traffic on I-80 W from PA-308/Exit 35 (I-80) to PA-173/Exit 24 (I-80) due to roadwork.,,I-80 W,R,Harrisville,Venango,PA,16038,US,US/Eastern,KFKL,2021-09-02 16:56:00,69.0,69.0,39.0,28.44,10.0,VAR,7.0,0.0,Fair,False,False,False,False,False,False,False,False,False,False,False,False,False,Day,Day,Day,Day
C-4384771,2,2021-02-02 09:00:00,2021-02-02 15:00:00,42.993111,-73.923691,,,3.21000003815,Intermittent lane closures due to construction work on NY-67 Amsterdam Rd Eastbound between Peaceable St and CR-56 Hop City Rd.,1773.0,Amsterdam Rd,R,Ballston Spa,Saratoga,NY,12020-3322,US,US/Eastern,KSCH,2021-02-02 08:46:00,27.0,20.0,100.0,29.25,0.75,N,6.0,0.0,Light Snow,False,False,False,False,False,False,False,False,False,False,False,False,False,Day,Day,Day,Day
C-4384772,2,2021-11-01 04:00:00,2021-12-18 12:43:30,33.497574,-112.083492,33.494869,-112.082553,0.194571252104,Slow traffic from W Heatherbrae Dr to N 6th Ave due to roadwork.,4223.0,N 7th Ave,R,Phoenix,Maricopa,AZ,85013-3068,US,US/Mountain,KPHX,2021-12-18 11:51:00,59.0,59.0,21.0,28.95,10.0,SSW,3.0,0.0,Fair,True,False,False,False,False,False,False,False,True,True,False,False,False,Night,Night,Night,Night
C-4384773,2,2019-10-06 07:00:00,2019-10-18 17:01:00,39.770302,-104.978912,,,0.300000011921,Parking restrictions in force due to construction on Brighton Blvd both ways from 36th St to 35th St.,1784.0,35th St,L,Denver,Denver,CO,80216-3665,US,US/Mountain,KBJC,2019-10-06 06:47:00,46.0,43.0,37.0,24.62,10.0,NNW,7.0,0.0,Mostly Cloudy,True,False,True,False,False,False,False,False,False,False,False,True,False,Day,Day,Day,Day
C-4384774,2,2021-06-29 09:00:00,2021-06-29 15:45:00,39.90282,-75.395836,39.904683,-75.394793,0.140090109323,Construction on BORTONDALE RD near KNOWLTON RD Drive with caution.,210.0,Bortondale Rd,R,Media,Delaware,PA,19063-4808,US,US/Eastern,KPHL,2021-06-29 08:54:00,82.0,82.0,76.0,30.24,10.0,SSW,9.0,0.0,Fair,False,False,False,False,False,False,False,False,False,False,False,False,False,Day,Day,Day,Day
C-4384775,2,2021-02-22 05:50:30,2021-02-22 19:27:19,43.634198,-116.352842,43.634826,-116.354189,0.0801249429112,Stationary traffic on ID-55 from N Records Ave to W Baldcypress St due to roadwork.,3242.0,E Ustick Rd,L,Meridian,Ada,ID,83646,US,US/Mountain,KMAN,2021-02-22 05:55:00,30.0,30.0,100.0,27.75,10.0,CALM,0.0,0.0,Fair,False,False,True,False,False,False,False,False,False,False,False,False,False,Night,Night,Night,Night
C-4384776,2,2021-12-28 15:01:00,2021-12-28 17:52:45,35.163509999999995,-101.88639,35.164151000000004,-101.883906,0.147131490816,Stationary traffic from Teckla Blvd / Cherokee Trl to Paramount Blvd due to roadwork.,4498.0,Teckla Blvd,R,Amarillo,Randall,TX,79109-5424,US,US/Central,KAMA,2021-12-28 14:53:00,59.0,59.0,20.0,25.95,10.0,W,28.0,0.0,Fair / Windy,False,False,False,False,False,False,False,False,False,False,False,True,False,Day,Day,Day,Day
C-4384777,2,2020-12-12 16:41:30,2020-12-12 21:40:59,35.821192,-90.67414,35.821626,-90.677836,0.209224966745,Stationary traffic on AR-18 from Fair Park Blvd / Bittle St to S Caraway Rd due to roadwork.,2556.0,E Highland Dr,R,Jonesboro,Craighead,AR,72401-6215,US,US/Central,KJBR,2020-12-12 16:53:00,45.0,40.0,65.0,29.72,10.0,NW,9.0,0.0,Mostly Cloudy,False,False,False,False,False,False,False,False,False,False,False,False,False,Day,Day,Day,Day
C-4384778,2,2021-03-12 03:00:30,2021-03-13 21:06:41,25.928151,-80.200342,25.928253,-80.204391,0.251698120058,Stationary traffic on FL-826 from NE 167th St / N Miami Ave to NW 2nd Ave due to roadwork.,16700.0,N Miami Ave,L,North Miami Beach,Miami-Dade,FL,33169-6033,US,US/Eastern,KHWO,2021-03-12 02:53:00,69.0,69.0,73.0,30.24,10.0,ENE,6.0,0.0,Cloudy,False,False,False,False,False,False,False,False,True,False,False,True,False,Night,Night,Night,Night
C-4384779,2,2018-05-08 09:02:48,2018-05-08 15:02:48,41.314003,-73.865606,41.31469,-73.863939,0.0986773483434999,At Regina Ave - Construction work. Right lane blocked.,,E Main St,R,Mohegan Lake,Westchester,NY,10547,US,US/Eastern,KSWF,2018-05-08 08:45:00,57.2,,88.0,30.29,10.0,Calm,,,Scattered Clouds,False,False,False,False,False,False,False,False,False,False,False,True,False,Day,Day,Day,Day
C-4384780,2,2017-08-25 19:01:36,2017-08-26 01:01:36,38.77547,-90.33496,38.76647,-90.18033,8.352949619,Between Graham Rd/Hanley Rd/Exit 26 and Riverview Dr/Exit 34 - Maintenance work.,,N Hanley Rd,R,Hazelwood,St. Louis County,MO,63042,US,US/Central,KSTL,2017-08-25 18:51:00,77.0,,52.0,30.14,10.0,East,9.2,,Scattered Clouds,False,False,False,False,True,False,False,False,False,False,False,True,False,Day,Day,Day,Day
C-4384781,2,2021-09-09 18:01:00,2021-09-10 10:01:00,41.927489,-124.142464,41.930078,-124.146005,0.255207221434,One-Way Traffic closure due to Bridge Work between Rowdy Creek and Rowdy Creek,10141.0,US Highway 101 N,R,Smith River,Del Norte,CA,95567-9473,US,US/Pacific,KBOK,2021-09-09 17:56:00,58.0,58.0,97.0,29.44,10.0,S,5.0,0.0,Cloudy,False,False,False,False,False,False,False,False,False,False,False,False,False,Day,Day,Day,Day
C-4384782,2,2019-07-28 19:04:06,2019-08-02 19:00:46,39.14163,-76.75846,39.142561,-76.762456,0.2235893535009999,At MD-175/Jessup Rd - Construction work. Lane blocked.,2827.0,Jessup Rd,L,Jessup,Anne Arundel,MD,20794-9726,US,US/Eastern,KFME,2019-07-29 19:03:00,82.0,82.0,66.0,29.83,10.0,SE,5.0,,Fair,False,False,False,False,False,False,False,False,False,False,False,False,False,Day,Day,Day,Day
C-4384783,4,2017-07-19 04:53:17,2017-07-19 10:53:17,40.2818,-76.81999,40.277888,-76.81865,0.279369920125,At Union Deposit Rd/Exit 48 - Roadwork.,,I-83 S,R,Harrisburg,Dauphin,PA,17109,US,US/Eastern,KCXY,2017-07-19 04:56:00,73.0,,81.0,30.06,10.0,Calm,,,Partly Cloudy,False,False,False,False,False,False,False,False,False,False,False,False,False,Night,Night,Day,Day
C-4384784,2,2021-03-23 09:34:00,2021-12-26 17:05:00,32.895398,-97.301084,32.896103000000004,-97.306737,0.331556458865,Stationary traffic from Rainy Lake Dr (N Tarrant Pkwy) to I-35W (N Tarrant Pkwy) due to roadwork.,3987.0,N Tarrant Pkwy,R,Fort Worth,Tarrant,TX,76244-5410,US,US/Central,KAFW,2021-11-15 10:53:00,67.0,67.0,54.0,29.33,10.0,S,10.0,0.0,Fair,False,False,False,False,False,False,False,False,False,False,False,True,False,Day,Day,Day,Day
C-4384785,3,2019-07-16 21:00:00,2019-07-17 05:00:00,33.881691,-117.547409,,,1.7200000286099997,Entry ramp to I-15 Southbound from CA-91 Westbound closed due to construction work.,,Corona Fwy S,R,Corona,Riverside,CA,92879,US,US/Pacific,KAJO,2019-07-16 20:56:00,71.0,71.0,75.0,29.27,10.0,W,8.0,0.0,Fair,False,False,False,False,False,False,False,False,False,False,False,False,False,Night,Night,Day,Day
C-4384786,2,2020-06-26 18:25:26,2020-06-30 18:25:26,40.31207,-74.66149,40.29586,-74.68115999999998,1.52599236319,At CR-533/Quakerbridge Rd - Roadwork. Right lane closed.,,US Highway 1,R,Princeton,Mercer,NJ,08540,US,US/Eastern,KTTN,2020-06-26 18:53:00,80.0,80.0,45.0,29.69,10.0,W,3.0,0.0,Fair,False,False,False,False,True,False,False,False,False,False,False,False,False,Day,Day,Day,Day
