ID,Severity,Start_Time,End_Time,Start_Lat,Start_Lng,End_Lat,End_Lng,Distance(mi),Description,Number,Street,Side,City,County,State,Zipcode,Country,Timezone,Airport_Code,Weather_Timestamp,Temperature(F),Wind_Chill(F),Humidity(%),Pressure(in),Visibility(mi),Wind_Direction,Wind_Speed(mph),Precipitation(in),Weather_Condition,Amenity,Bump,Crossing,Give_Way,Junction,No_Exit,Railway,Roundabout,Station,Stop,Traffic_Calming,Traffic_Signal,Turning_Loop,Sunrise_Sunset,Civil_Twilight,Nautical_Twilight,Astronomical_Twilight
C-4586556,4,2021-05-04 22:27:52,2021-05-05 05:00:00,28.477125,-81.446449,,,2.13000011444,Road closed due to construction work on I-4 Eastbound from Exits 75A 75B 75B-A FL-435 Kirkman Rd to Exit 77 Florida's Tpke Exit 259.,,Florida's Tpke N,R,Orlando,Orange,FL,32819,US,US/Eastern,KMCO,2021-05-04 22:53:00,77.0,77.0,84.0,29.91,10.0,CALM,0.0,0.0,Mostly Cloudy,False,False,False,False,False,False,False,False,False,False,False,False,False,Night,Night,Night,Night
C-4586557,4,2021-11-09 07:00:00,2021-11-09 16:00:00,35.914625,-79.054891,35.91428900000001,-79.055756,0.0536832986544,Closed road from Henderson St to N Columbia St / W Rosemary St due to roadwork.,140.0,E Rosemary St,R,Chapel Hill,Orange,NC,27514-3532,US,US/Eastern,KIGX,,,,,,,,,,,True,False,False,False,False,True,False,False,False,False,False,False,False,Day,Day,Day,Day
C-4586558,2,2020-11-25 11:34:30,2020-11-26 01:38:30,33.419168,-111.926285,33.422038,-111.926299,0.198299757674,Stationary traffic from E Apache Blvd (S Rural Rd) to E University Dr (S Rural Rd) due to roadwork.,1009.0,E Terrace Rd,R,Tempe,Maricopa,AZ,85281,US,US/Mountain,KPHX,2020-11-25 11:51:00,64.0,64.0,21.0,28.9,10.0,CALM,0.0,0.0,Fair,False,False,True,False,False,False,False,False,False,False,False,True,False,Day,Day,Day,Day
C-4586559,4,2019-07-02 22:02:58,2019-07-03 03:02:15,32.43379,-96.85694,32.36806,-96.85893,4.54299398076,Closed between US-287/Exit 403 and FM-66/Exit 399 - Closed due to roadwork.,,I-35E S,R,Waxahachie,Ellis,TX,75165,US,US/Central,KJWY,2019-07-02 21:55:00,76.0,76.0,80.0,29.18,10.0,SE,6.0,0.0,Fair,False,False,False,False,True,False,False,False,False,False,False,False,False,Night,Night,Night,Day
C-4586560,2,2020-09-28 18:42:00,2020-09-29 02:19:00,30.426076,-91.166209,30.422546,-91.136201,1.80441175242,Slow traffic on I-10 from Dalrymple Dr/Exit 156 (I-10) to College Dr/Exit 158 (I-10) due to roadwork.,,I-10 E,R,Baton Rouge,East Baton Rouge,LA,70808,US,US/Central,KBTR,2020-09-28 18:40:00,65.0,65.0,87.0,29.87,10.0,N,7.0,0.0,Partly Cloudy,False,False,False,False,False,False,False,False,False,False,False,False,False,Day,Day,Day,Day
C-4586561,2,2021-05-06 04:42:30,2021-11-23 16:36:30,25.899528,-80.184815,25.899768,-80.1788,0.374222134438,Slow traffic on FL-916 from FL-915/NE 6th Ave (NE 135th St/FL-916) to FL-909/NE 10th Ave/W Dixie Hwy (NE 135th St/FL-916) due to roadwork.,698.0,NE 135th St,R,North Miami,Miami-Dade,FL,33161-7519,US,US/Eastern,KOPF,2021-10-23 18:53:00,81.0,81.0,74.0,29.93,10.0,NE,9.0,0.0,Fair,False,False,False,False,False,False,False,False,False,False,False,True,False,Night,Night,Night,Night
C-4586562,3,2019-03-13 05:10:41,2019-03-17 05:10:34,39.76373,-84.19293,39.766937,-84.193849,0.226894434483,Between US-35/Zeigler St/Washington St and I-75/Grand Ave - Roadwork. Roadway reduced to 1 lane.,,E Monument Ave,R,Dayton,Montgomery,OH,45402,US,US/Eastern,KFFO,2019-03-13 04:56:00,39.2,35.9,52.0,30.14,10.0,ESE,4.6,,Overcast,False,False,True,False,False,False,False,False,False,False,False,True,False,Night,Night,Night,Night
C-4586563,3,2021-04-15 22:00:00,2021-04-16 05:30:00,25.785887,-80.192924,,,0.930000007153,Lane closed due to construction work on I-395 Eastbound from I-95 Exits 2D 3A 3B to US-1.,,I-395 W,R,Miami,Miami-Dade,FL,33132,US,US/Eastern,KMIA,2021-04-15 21:53:00,77.0,77.0,69.0,29.92,10.0,SSW,9.0,0.0,Mostly Cloudy,False,False,False,False,False,False,False,False,False,False,False,False,False,Night,Night,Night,Night
C-4586564,2,2020-05-12 07:21:39,2020-05-16 07:25:48,42.12003,-75.96876999999998,42.12003,-75.96876999999998,0.0,At RT-201/Exit 70 - Roadwork. Ramp restrictions.,,NY-17 W,R,Johnson City,Broome,NY,13790,US,US/Eastern,KBGM,2020-05-12 06:53:00,31.0,23.0,69.0,28.28,10.0,WNW,9.0,0.0,Fair,False,False,False,False,True,False,False,False,False,False,False,False,False,Day,Day,Day,Day
C-4586565,2,2021-12-23 12:22:00,2021-12-23 15:21:30,39.763438,-86.35678100000001,39.763698,-86.336876,1.05733597798,Stationary traffic on US-36 E - US-36 W from IN-267 (US-36) to Ronald Reagan Pkwy (US-36) due to roadwork.,9277.0,E US Highway 36,R,Avon,Hendricks,IN,46123-7412,US,US/Eastern,KIND,2021-12-23 11:54:00,44.0,36.0,45.0,29.12,10.0,SSW,20.0,0.0,Mostly Cloudy,False,False,True,False,False,False,False,False,False,False,False,True,False,Day,Day,Day,Day
C-4586566,3,2020-10-27 19:00:00,2020-10-28 05:00:00,38.265133,-85.743843,,,0.0,Lane closed due to maintenance work on I-65 Southbound on Kennedy Brg.,,I-65 S,R,Louisville,Jefferson,KY,40202,US,US/Eastern,KLOU,2020-10-27 18:53:00,54.0,54.0,80.0,29.56,9.0,N,6.0,0.0,Cloudy,False,False,False,False,False,False,False,False,False,False,False,False,False,Night,Day,Day,Day
C-4586567,4,2019-07-04 21:16:06,2019-07-05 02:13:51,34.06433,-117.81208,34.06433,-117.81208,0.0,At I-10/San Bernardino Fwy - Entry ramp closed. Construction work.,,Kellogg Dr,R,San Dimas,Los Angeles,CA,91773,US,US/Pacific,KPOC,2019-07-04 20:47:00,68.0,68.0,68.0,28.89,6.0,W,12.0,,Fair,False,False,False,False,False,False,False,False,False,False,False,False,False,Night,Night,Night,Day
C-4586569,2,2021-09-16 14:00:18,2021-09-16 14:20:18,40.68542,-73.978376,40.693581,-73.983171,0.617299184231,Slow traffic from Atlantic Ave (Flatbush Ave) to Tillary St (Flatbush Ave) due to roadwork.,,Flatbush Ave,R,Brooklyn,Kings,NY,11217,US,US/Eastern,KJRB,2021-09-16 13:51:00,75.0,,69.0,30.13,10.0,,,0.0,Cloudy,True,False,True,False,False,False,True,False,True,False,False,True,False,Day,Day,Day,Day
C-4586570,2,2018-11-14 07:38:53,2018-11-14 11:38:53,43.510692,-123.507378,43.502867,-123.493448,0.882958506188,At CR-33/Tyee Rd - Maintenance work.,15092.0,State Highway 138 W,L,Oakland,Douglas,OR,97462,US,US/Pacific,KRBG,2018-11-14 07:53:00,33.1,,92.0,30.45,6.0,Calm,,,Clear,False,False,False,False,False,False,False,False,False,False,False,False,False,Day,Day,Day,Day
C-4586571,2,2019-04-09 09:41:30,2019-04-13 09:44:25,40.08634,-75.40049,40.08519,-75.39823,0.143478793784,At US-202/Exit 328 - Roadwork. Hard shoulder closed.,,I-76 E,R,King of Prussia,Montgomery,PA,19406,US,US/Eastern,KLOM,2019-04-09 09:35:00,55.0,55.0,82.0,29.4,10.0,E,6.0,0.0,Fair,False,False,False,False,True,False,False,False,False,False,False,False,False,Day,Day,Day,Day
C-4586572,2,2019-04-30 07:39:57,2019-04-30 08:09:30,36.363949,-77.67286700000002,,,0.0,Lane closed due to maintenance work on NC-903 Eastbound at I-95.,,I-95 N,R,Roanoke Rapids,Halifax,NC,27870,US,US/Eastern,KRZZ,2019-04-30 07:40:00,61.0,61.0,100.0,30.11,7.0,SSW,8.0,0.0,Partly Cloudy,False,False,False,False,False,False,False,False,False,False,False,False,False,Day,Day,Day,Day
C-4586573,2,2021-08-22 11:26:00,2021-08-22 12:35:39,29.698823,-95.291,29.725043,-95.33213,3.06169641533,Slow traffic on I-45 N - I-45 S from I-610/Exit 40 (I-45 HOV) to US-90 Alt/Wayside Dr (I-45 HOV) due to roadwork.,,I-45 N,R,Houston,Harris,TX,77087,US,US/Central,KHOU,2021-08-22 11:53:00,91.0,91.0,52.0,29.98,10.0,S,6.0,0.0,Partly Cloudy,False,False,False,False,False,False,False,False,False,False,False,False,False,Day,Day,Day,Day
C-4586574,2,2019-09-23 10:00:00,2019-09-23 15:00:00,40.827381,-72.995087,,,0.6399999856949999,One lane closed due to construction work on NY-112 Medford Ave both ways between Express Dr North and CR-16 Horse Block Rd.,,Route 112,R,Medford,Suffolk,NY,11763,US,US/Eastern,KISP,2019-09-23 09:56:00,75.0,75.0,82.0,29.81,10.0,SW,13.0,0.0,Cloudy,False,False,True,False,False,False,False,False,False,False,False,True,False,Day,Day,Day,Day
C-4586575,4,2019-08-27 00:05:30,2019-08-27 05:04:33,33.763231,-84.37196,33.761348,-84.37201,0.130134605542,Closed at Highland Ave NE - Closed due to roadwork.,501.0,East Ave NE,R,Atlanta,Fulton,GA,30312,US,US/Eastern,KATL,2019-08-27 00:38:00,72.0,72.0,93.0,28.93,4.0,E,12.0,0.36,Rain,False,False,True,False,False,False,False,False,False,False,False,True,False,Night,Night,Night,Night
C-4586576,2,2021-11-10 08:09:30,2021-11-10 08:48:39,28.597892,-81.36514,28.593046,-81.36449499999998,0.337105358237,Slow traffic on US-92 E - FL-424A - US-17 N - FL-426 - US-92 W - US-17 S from Symonds Ave to Ward Ave due to roadwork.,113.0,N Orlando Ave,L,Winter Park,Orange,FL,32789-3675,US,US/Eastern,KORL,2021-11-10 07:53:00,65.0,65.0,93.0,30.05,10.0,NNE,8.0,0.0,Fair,False,False,True,False,False,False,False,False,False,False,False,True,False,Day,Day,Day,Day
C-4586577,2,2021-03-25 04:16:30,2021-12-31 14:55:29,28.02246400000001,-81.67192299999998,28.022504,-81.67747299999998,0.33852317945,Stationary traffic on FL-542 from Country Club Rd (Dundee Rd/FL-542) to Buckeye Loop Rd (Dundee Rd/FL-542) due to roadwork.,3796.0,Executive Rd,R,Winter Haven,Polk,FL,33884-1195,US,US/Eastern,KGIF,2021-08-12 17:53:00,83.0,83.0,69.0,29.92,10.0,NNE,7.0,0.0,Thunder in the Vicinity,False,False,True,False,False,False,False,False,False,False,False,True,False,Night,Night,Night,Night
C-4586578,2,2021-11-15 06:51:13,2021-11-24 09:48:00,38.593291,-90.546093,38.592951,-90.546204,0.0242444853370999,Roadwork from Baxter Rd (Holloway Rd) to MO-100/Manchester Rd (Holloway Rd).,2.0,N Holloway Rd,R,Ballwin,St. Louis County,MO,63011,US,US/Central,KSUS,2021-11-15 06:54:00,38.0,38.0,73.0,29.59,10.0,CALM,0.0,0.0,Cloudy,False,False,True,False,False,False,False,False,False,False,False,True,False,Day,Day,Day,Day
C-4586579,2,2020-07-03 06:00:00,2020-07-03 07:31:23,43.36039,-73.393372,,,0.0,Lane closed due to construction work on NY-149 both ways at NY-40.,8048.0,State Route 40,R,Hartford,Washington,NY,12838-2105,US,US/Eastern,KGFL,2020-07-03 05:53:00,69.0,69.0,93.0,29.48,10.0,NE,3.0,0.0,Mostly Cloudy,False,False,False,False,False,False,False,False,False,False,False,False,False,Day,Day,Day,Day
C-4586580,2,2021-02-14 20:50:00,2021-02-16 10:21:19,31.163095,-102.047442,31.190595,-101.997402,3.51575828116,Roadwork on FM-2463 (US-67) from TX-349 (US-67) to US-67 S - US-67 N.,,US-67 N,R,Mc Camey,Upton,TX,79752,US,US/Central,KFST,2021-02-14 20:53:00,7.0,-3.0,84.0,27.12,10.0,N,6.0,0.0,Mostly Cloudy,False,False,False,False,False,False,False,False,False,False,False,False,False,Night,Night,Night,Night
C-4586581,2,2020-12-09 11:56:00,2020-12-09 15:43:27,39.72745,-86.335678,39.725765,-86.337124,0.139494153913,Slow traffic on US-40 W from N Ronald Reagan Pkwy to Wamsley Way due to roadwork.,3116.0,E Main St,R,Indianapolis,Hendricks,IN,46231,US,US/Eastern,KIND,2020-12-09 11:54:00,47.0,42.0,63.0,29.05,10.0,SW,10.0,0.0,Partly Cloudy,False,False,False,False,False,False,False,False,False,False,False,False,False,Day,Day,Day,Day
C-4586582,2,2021-04-15 05:13:30,2021-04-15 17:20:44,40.643048,-73.899987,40.646132,-73.903413,0.278683831499,Slow traffic from Seaview Ave (Rockaway Pkwy) to Rockaway Ave (Rockaway Pkwy) due to roadwork.,1540.0,Rockaway Pkwy,R,Brooklyn,Kings,NY,11236-4002,US,US/Eastern,KJFK,2021-04-15 05:34:00,52.0,52.0,93.0,29.78,10.0,S,5.0,0.0,Cloudy,True,False,False,False,False,False,False,False,True,False,False,False,False,Night,Night,Night,Day
C-4586583,2,2021-10-15 13:35:30,2021-10-15 14:01:30,42.070096,-87.980474,42.066568,-87.980711,0.244064497317,Slow traffic from E Maple St to W Kirchhoff Rd due to roadwork.,800.0,S Arlington Heights Rd,R,Arlington Heights,Cook,IL,60005,US,US/Central,KPWK,2021-10-15 13:52:00,59.0,59.0,62.0,29.21,10.0,NNW,8.0,0.0,Mostly Cloudy,False,False,False,False,False,False,False,False,False,False,False,False,False,Day,Day,Day,Day
C-4586584,2,2019-06-24 07:00:00,2020-12-01 08:45:00,38.654842,-121.450129,38.655067,-121.447728,0.1304791132,Construction on MAIN AVE near RIO LINDA BLVD Construction. Expect long delays.,648.0,Main Ave,R,Sacramento,Sacramento,CA,95838-2216,US,US/Pacific,KMCC,2019-06-24 06:50:00,66.0,66.0,60.0,29.73,10.0,S,5.0,,Fair,False,False,False,False,False,False,False,False,False,False,False,False,False,Day,Day,Day,Day
C-4586585,2,2021-02-05 14:32:30,2021-02-05 21:57:30,40.388859,-106.632234,40.387525,-106.678188,2.42015455062,Slow traffic on US-40 W - US-40 E from CR-19 (US-40) to CR-20/CR-201/McKinnes Creek Rd (US-40) due to roadwork.,980.0,US Highway 40,R,Kremmling,Grand,CO,80459,US,US/Mountain,K20V,2021-02-05 14:35:00,27.0,16.0,80.0,22.59,1.0,W,13.0,0.0,Light Snow,False,False,False,False,False,False,False,False,False,False,False,False,False,Day,Day,Day,Day
C-4586586,2,2021-06-22 11:15:49,2021-06-22 11:38:56,34.681092,-93.070812,34.679072,-93.072081,0.157092979538,Stationary traffic on AR-7 from Blakely Camp Rd (AR-7) to AR-298 (AR-7) due to roadwork.,6422.0,N Highway 7,R,Jessieville,Garland,AR,71949-8581,US,US/Central,KHOT,2021-06-22 10:53:00,77.0,77.0,37.0,29.48,10.0,E,12.0,0.0,Fair,False,False,False,False,False,False,False,False,False,False,False,False,False,Day,Day,Day,Day
C-4586587,2,2020-06-16 04:51:05,2020-06-23 23:59:00,42.36377,-78.655937,,,9.64999961853,Intermittent lane closures due to construction work on US-219 both ways between Lindberg Rd and CR-75 Plato Rd.,8369.0,Route 219,L,West Valley,Cattaraugus,NY,14171-9505,US,US/Eastern,KOLE,2020-06-16 04:55:00,48.0,48.0,82.0,28.13,10.0,E,3.0,0.0,Fair,False,False,False,False,False,False,False,False,False,False,False,False,False,Night,Night,Day,Day
C-4586588,2,2021-03-30 20:01:00,2021-03-31 06:46:00,34.015097,-118.485277,34.028690000000005,-118.227647,14.783369377,Construction on I-10 EB near CLOVERFIELD BLVD Expect delays.,,I-10 E,R,Santa Monica,Los Angeles,CA,90404,US,US/Pacific,KSMO,2021-03-30 19:51:00,58.0,58.0,81.0,29.78,10.0,SW,5.0,0.0,Fair,False,False,False,False,False,False,False,False,False,False,False,False,False,Night,Night,Day,Day
C-4586589,2,2019-09-16 06:00:00,2019-09-20 23:59:00,27.429140000000004,-81.41806,,,0.0,Intermittent lane closures due to construction on US-27 both ways near US-98.,,US Highway 98,R,Sebring,Highlands,FL,33876,US,US/Eastern,KOBE,2019-09-16 05:55:00,73.0,73.0,94.0,29.89,,WNW,3.0,0.0,,False,False,False,False,False,False,False,False,False,False,False,True,False,Night,Night,Night,Day
C-4586590,2,2017-03-28 21:46:09,2017-03-29 04:01:09,40.70647,-74.01601,40.743951,-74.008392,2.6202317552200003,Between South St and 11th Ave - Construction work.,19.0,West St,R,New York,New York,NY,10004,US,US/Eastern,KJRB,2017-03-28 21:55:00,42.8,38.0,100.0,30.42,5.0,East,8.1,9.99,Overcast,True,False,True,False,False,False,False,False,False,False,False,True,False,Night,Night,Night,Night
C-4586591,2,2019-08-13 13:08:40,2019-08-17 13:08:35,33.776184,-86.430973,33.778451000000004,-86.422648,0.5031150362960001,Between AL-174/Exit 154 and US-231/Exit 166 - Narrow lanes. Queuing traffic. Construction work.,,I-59 N,R,Springville,St. Clair,AL,35146,US,US/Central,KBHM,2019-08-13 12:53:00,97.0,97.0,40.0,29.24,10.0,W,7.0,0.0,Fair,False,False,False,False,False,False,False,False,False,False,False,False,False,Day,Day,Day,Day
C-4586592,2,2021-11-10 18:18:23,2021-11-10 20:47:14,25.747509,-80.338235,25.748123,-80.335622,0.168058679147,Stationary traffic on County Hwy-913 - FL-973 - FL-972 from SW 89th Ave to SW 21st St / SW 21st Ter due to roadwork.,8824.0,SW 24th St,L,Miami,Miami-Dade,FL,33165-2008,US,US/Eastern,KMIA,2021-11-10 17:53:00,76.0,76.0,76.0,30.05,10.0,E,13.0,0.0,Mostly Cloudy,True,False,True,False,False,False,False,False,False,False,False,False,False,Night,Night,Day,Day
C-4586593,2,2021-03-28 04:57:00,2021-10-20 18:01:23,43.54408,-70.41458,43.545981,-70.411477,0.2034740718479999,Stationary traffic on US-1 N - US-1 S - ME-98 from Willow Haven St to Waterfall Dr due to roadwork.,,Portland Rd,R,Saco,York,ME,04072,US,US/Eastern,KPWM,2021-10-20 15:51:00,60.0,60.0,57.0,29.82,10.0,S,7.0,0.0,Partly Cloudy,False,False,False,False,False,False,False,False,False,False,False,False,False,Night,Night,Night,Day
C-4586594,2,2020-10-28 16:00:00,2020-10-29 00:45:00,39.730987,-75.582259,39.73299,-75.578211,0.255769887603,Construction on MARYLAND AVE near S DUPONT RD Drive with caution.,299.0,N Maryland Ave,R,Wilmington,New Castle,DE,19804-1337,US,US/Eastern,KILG,2020-10-28 15:51:00,67.0,67.0,79.0,29.88,10.0,N,9.0,0.0,Cloudy,False,False,True,False,False,False,True,False,False,False,False,True,False,Day,Day,Day,Day
C-4586595,2,2021-06-16 13:49:03,2021-06-16 16:03:31,25.732854,-80.34859399999998,25.732755,-80.352673,0.253974504217,Stationary traffic on FL-976 from FL-973/Galloway Rd/SW 87th Ave (SW 40th St/Bird Rd/FL-976) to FL-985/SW 107th Ave (SW 40th St/Bird Rd/FL-976) due to roadwork.,9461.0,SW 40th St,R,Miami,Miami-Dade,FL,33165-4033,US,US/Eastern,KMIA,2021-06-16 13:53:00,84.0,84.0,74.0,29.99,10.0,ESE,13.0,0.0,Thunder in the Vicinity,False,False,False,False,False,False,False,False,False,False,False,False,False,Day,Day,Day,Day
C-4586596,2,2021-04-14 08:43:52,2021-04-14 23:59:00,39.651991,-74.181827,39.651338,-74.180488,0.0843183522414,NJ DOT - TOC South: emergency repairs and gas main repairs on NJ 72 eastbound at CR 4/Barnegat Av (Ship Bottom) Wednesday April 14th 2021 09:00 AM thru 05:00 PM 2 lanes of 3 lanes closed,339.0,W 9th St,R,Beach Haven,Ocean,NJ,08008,US,US/Eastern,KACY,2021-04-14 08:54:00,55.0,55.0,80.0,30.01,10.0,SW,5.0,0.0,Fair,False,False,False,False,False,False,False,False,False,False,False,True,False,Day,Day,Day,Day
C-4586597,4,2021-01-14 08:00:00,2021-05-09 23:59:00,37.984678,-87.553744,37.984674,-87.553012,0.0398640183638,Closed road from N Morton Ave to N Linwood Ave due to roadwork.,751.0,E Columbia St,R,Evansville,Vanderburgh,IN,47711-5123,US,US/Central,KEVV,2021-01-14 07:54:00,37.0,32.0,76.0,29.32,10.0,S,7.0,0.0,Fair,False,False,False,False,False,False,False,False,False,False,False,False,False,Day,Day,Day,Day
C-4586598,2,2021-02-20 12:00:00,2021-02-20 15:06:52,32.160619,-94.371045,32.157159,-94.371425,0.240094314151,Roadwork from S US Highway 79 / US-79 S to State Highway 149.,,S US Highway 79,R,Carthage,Panola,TX,75633,US,US/Central,KASL,2021-02-20 11:55:00,42.0,39.0,57.0,30.0,10.0,S,6.0,0.0,Fair,False,False,False,False,False,False,False,False,False,False,False,False,False,Day,Day,Day,Day
C-4586599,2,2021-04-04 19:50:30,2021-04-04 22:02:17,35.150613,-97.477247,35.150088000000004,-97.477239,0.0362768606567,Roadwork from Industrial Blvd to I-35 S.,100.0,Industrial Blvd,R,Washington,McClain,OK,73093-9117,US,US/Central,KOUN,2021-04-04 19:47:00,68.0,68.0,60.0,28.8,10.0,S,16.0,0.0,Partly Cloudy,False,False,False,False,False,False,False,False,False,True,False,False,False,Day,Day,Day,Day
C-4586600,2,2017-04-11 13:18:30,2019-01-11 23:16:44,39.85969,-75.47981,39.859721,-75.479867,0.0037049942225999,At US-1/US-322/Baltimore Pike - Roadwork. Traffic problem.,,Garnet Mine Rd,R,Garnet Valley,Delaware,PA,19060,US,US/Eastern,KOQN,2017-04-11 13:15:00,79.0,79.0,34.0,29.45,10.0,VAR,3.0,0.0,Fair,False,False,False,False,False,False,False,False,False,False,False,False,False,Day,Day,Day,Day
C-4586601,4,2019-09-20 17:47:48,2019-09-21 05:49:31,40.33055,-80.02205,40.324761,-80.02575999999998,0.445167746416,Closed between Yellow Belt/Bethel Church Rd and Clifton Rd/Orange Belt - Closed due to roadwork.,5296.0,Library Rd,R,Bethel Park,Allegheny,PA,15102-2715,US,US/Eastern,KAGC,2019-09-20 17:53:00,79.0,79.0,52.0,28.84,10.0,SSE,6.0,0.0,Mostly Cloudy,True,False,True,False,False,False,False,False,False,False,False,True,False,Day,Day,Day,Day
C-4586602,2,2021-10-04 09:30:00,2021-10-08 16:30:00,33.581976,-111.908503,33.581969,-111.907348,0.0664851812364,E SHEA BL / N HAYDEN RD - Construction - EB Shea Blvd curb lane restricted at Hayden Rd,8005.0,E Shea Blvd,L,Scottsdale,Maricopa,AZ,85258,US,US/Mountain,KSDL,2021-10-04 09:53:00,78.0,78.0,40.0,28.32,10.0,CALM,0.0,0.0,Fair,False,False,True,False,False,False,False,False,True,False,False,True,False,Day,Day,Day,Day
C-4586603,2,2021-04-06 09:00:00,2021-04-06 14:45:00,38.339999,-85.506821,38.399059,-85.373152,8.31163913962,Construction on I-71 near MM 22 Lane blocked. Expect delays.,,I-71 N,R,Crestwood,Oldham,KY,40014,US,US/Eastern,KLOU,2021-04-06 08:53:00,60.0,60.0,57.0,29.47,10.0,SSE,5.0,0.0,Fair,False,False,False,False,False,False,False,False,False,False,False,False,False,Day,Day,Day,Day
C-4586604,4,2017-11-10 21:00:00,2017-11-13 05:00:00,42.444527,-83.2198,42.379058,-83.21713100000002,4.525525673450001,Closed between 8 Mile Rd/Exit 15 and I-96/Exit 11 - Closed. Construction work.,18034.0,W 8 Mile Rd,L,Southfield,Oakland,MI,48075-4338,US,US/Eastern,KVLL,2017-11-10 21:54:00,23.7,,56.0,30.62,10.0,Calm,,,Clear,False,False,False,False,False,False,False,False,False,False,False,False,False,Night,Night,Night,Night
C-4586605,2,2018-07-21 17:43:53,2018-07-25 18:01:13,40.43393,-79.993414,40.43598,-79.972941,1.08595100426,Between Grant St/Exit 71A and Forbes Ave/Exit 72A - Roadwork. Lane blocked.,,Parkway East,R,Pittsburgh,Allegheny,PA,15219,US,US/Eastern,KAGC,2018-07-21 17:53:00,73.9,,68.0,29.82,10.0,ESE,10.4,,Mostly Cloudy,False,False,True,False,False,False,False,False,False,False,False,True,False,Day,Day,Day,Day
C-4586606,2,2021-11-09 10:11:00,2021-11-10 11:25:26,26.093741,-80.226427,26.093851,-80.226987,0.0355700718096,Construction on FL-84 WB near FL-84 Construction. Right lane closed.,,Davie Rd,R,Fort Lauderdale,Broward,FL,33314,US,US/Eastern,KFLL,2021-11-09 09:53:00,72.0,72.0,71.0,30.16,10.0,NW,7.0,0.0,Mostly Cloudy,False,False,False,False,False,False,False,False,False,False,False,True,False,Day,Day,Day,Day
C-4586607,2,2021-09-01 15:00:54,2021-09-01 17:28:46,40.665282,-73.735688,40.663979,-73.729619,0.330571174178,Slow traffic on NY-27 from 243rd St to 250th St due to roadwork.,24248.0,S Conduit Ave,R,Rosedale,Queens,NY,11422-2245,US,US/Eastern,KJFK,2021-09-01 14:51:00,73.0,73.0,87.0,29.74,10.0,NE,10.0,0.0,Cloudy,True,False,False,False,False,False,False,False,False,True,False,False,False,Day,Day,Day,Day
C-4586608,2,2020-10-30 18:40:00,2020-10-30 23:05:30,40.822233,-97.991718,40.82219600000001,-97.996967,0.274460431578,Stationary traffic on NE-14 from NE-14 exit [332] to I-80 W due to roadwork.,,I-80 W,R,Aurora,Hamilton,NE,68818,US,US/Central,KAUH,2020-10-30 18:35:00,57.0,57.0,46.0,28.14,10.0,SSE,7.0,0.0,Fair,False,False,False,False,False,False,False,False,False,False,False,False,False,Night,Day,Day,Day
C-4586609,3,2019-09-17 20:00:00,2019-09-18 06:00:00,36.028091,-87.175842,,,0.0,Lane closed due to paving repairs on I-40 Eastbound near Exit 182 TN-96.,,I-40 E,R,Fairview,Williamson,TN,37062,US,US/Central,KBNA,2019-09-17 19:53:00,85.0,85.0,46.0,29.34,10.0,NNE,6.0,0.0,Partly Cloudy,False,False,False,False,False,False,False,False,False,False,False,False,False,Night,Night,Night,Day
C-4586610,2,2020-12-03 14:27:30,2020-12-04 02:34:28,28.080497,-80.602001,28.079537,-80.603326,0.104517231034,Stationary traffic on US-192 E - US-192 W - US-1 N - US-1 S - FL-5 from Melbourne to E New Haven Ave due to roadwork.,1231.0,E Strawbridge Ave,L,Melbourne,Brevard,FL,32901-4713,US,US/Eastern,KMLB,2020-12-03 14:53:00,72.0,72.0,59.0,30.15,10.0,E,12.0,0.0,Cloudy,False,False,False,False,False,False,False,False,False,False,False,False,False,Day,Day,Day,Day
C-4586611,2,2020-08-17 21:27:38,2020-08-17 23:15:00,41.51861,-72.770873,41.52064,-72.771253,0.14163055368,Road Work on I-91 Northbound between Exits 16 and 21 (7.1 miles) in effect today until 3:30 pm. The left lane is closed. Reported Monday August 17 at 2:29 pm.,,I-91 N,R,Meriden,New Haven,CT,06450,US,US/Eastern,KMMK,2020-08-17 21:33:00,69.0,69.0,90.0,29.76,10.0,S,5.0,0.0,Partly Cloudy,False,False,False,False,True,False,False,False,False,False,False,False,False,Night,Night,Night,Day
C-4586612,2,2020-07-17 04:00:00,2020-07-17 12:45:00,29.784075,-95.808538,29.785235,-95.800938,0.462736099764,Construction on I-10 EB near KATY FORT BEND RD Left Lanes closed. Expect long delays.,,I-10 E,R,Katy,Harris,TX,77494,US,US/Central,KTME,2020-07-17 03:55:00,79.0,79.0,100.0,29.85,8.0,CALM,0.0,0.0,Mostly Cloudy,False,False,False,False,False,False,False,False,False,False,False,False,False,Night,Night,Night,Night
C-4586613,2,2020-10-01 18:44:00,2020-10-01 19:21:30,40.73278,-73.918877,40.735449,-73.918337,0.186564919542,Queuing traffic from I-495 W to Laurel Hill Blvd due to resurfacing work.,5598.0,47th St,R,Woodside,Queens,NY,11377-7341,US,US/Eastern,KLGA,2020-10-01 18:51:00,70.0,70.0,39.0,29.9,10.0,SW,8.0,0.0,Cloudy,False,False,False,False,False,False,False,False,True,False,False,True,False,Night,Day,Day,Day
C-4586614,2,2020-07-14 03:00:00,2020-07-15 13:00:00,35.694599,-78.57509399999998,35.69453499999999,-78.574751,0.0197483564014,Near Raleigh / Mile Marker 300.5 to 314 Both Directions. Periodic lane closures will be in place throughout the project limits between 8PM - 6AM for construction activities.,,I-40 E,R,Garner,Wake,NC,27529,US,US/Eastern,KRDU,2020-07-14 02:51:00,71.0,71.0,93.0,29.52,10.0,CALM,0.0,0.0,Fair,False,False,False,False,False,False,False,False,False,False,False,False,False,Night,Night,Night,Night
C-4586615,3,2019-01-17 02:41:11,2019-01-17 05:00:00,47.104675,-122.588074,,,0.0,Intermittent lane closures due to construction during the night on I-5 Northbound at 41st Division Dr.,,I-5 S,R,Tacoma,Pierce,WA,98433,US,US/Pacific,KGRF,2019-01-17 02:58:00,41.2,,100.0,29.48,10.0,Calm,,,Mostly Cloudy,False,False,False,False,False,False,False,False,False,False,False,False,False,Night,Night,Night,Night
C-4586616,2,2020-10-17 13:57:30,2020-10-18 06:08:25,26.27269,-80.18625300000002,26.273993,-80.187488,0.118151312461,Slow traffic on FL-834 from Cocoplum Cir to NW 47 Ave due to roadwork.,3536.0,Lyons Rd,L,Pompano Beach,Broward,FL,33066,US,US/Eastern,KFXE,2020-10-17 13:53:00,85.0,85.0,67.0,30.04,10.0,NE,16.0,0.0,Partly Cloudy,False,False,False,False,False,False,False,False,False,False,False,False,False,Day,Day,Day,Day
C-4586617,2,2021-06-29 21:01:00,2021-06-30 07:44:00,34.422606,-119.633762,34.403618,-119.528817,6.12414363671,Construction on US-101 SB near SHEFFIELD AVE Drive with caution.,,US-101 S,R,Santa Barbara,Santa Barbara,CA,93108,US,US/Pacific,KSBA,2021-06-29 20:53:00,63.0,63.0,87.0,29.81,10.0,W,6.0,0.0,Cloudy,False,False,False,False,False,False,False,False,False,False,False,False,False,Night,Night,Day,Day
C-4586618,2,2019-10-03 03:08:32,2020-10-24 01:00:00,40.811323,-95.805905,40.693359,-95.786164,8.21576949974,Construction on I-29 SB near MISSOURI STATE LINE Drive with caution.,,I-29 S,R,Percival,Fremont,IA,51648,US,US/Central,KAFK,2019-10-03 03:15:00,46.0,42.0,100.0,28.91,10.0,NW,8.0,0.0,Fair,False,False,False,False,False,False,False,False,False,False,False,False,False,Night,Night,Night,Night
C-4586619,3,2021-10-06 05:34:40,2021-10-06 06:23:00,39.818989,-85.915306,,,8.43000030518,Right lane closed due to construction work on I-70 Eastbound between Exit 91 Post Rd and Exit 96 County Road 600.,,I-70 E,R,Greenfield,Hancock,IN,46140,US,US/Eastern,KMQJ,2021-10-06 05:35:00,63.0,63.0,100.0,29.26,5.0,NNE,5.0,,Mostly Cloudy,False,False,False,False,False,False,False,False,False,False,False,False,False,Night,Night,Night,Night
C-4586620,2,2020-10-14 13:10:00,2020-10-14 18:08:00,28.534027,-81.383803,28.549395,-81.382271,1.06589144977,Slow traffic on I-4 from Gore St/Exit 37 (I-4) to Amelia St/Exit 41 (I-4) due to roadwork.,,I-4 E,R,Orlando,Orange,FL,32801,US,US/Eastern,KORL,2020-10-14 12:53:00,89.0,89.0,48.0,29.88,10.0,VAR,6.0,0.0,Fair,False,False,True,False,True,False,False,False,False,False,False,True,False,Day,Day,Day,Day
C-4586621,2,2021-08-29 12:07:49,2021-08-29 12:45:40,40.603271,-73.996065,40.601942,-73.993813,0.149626727762,Stationary traffic from 18th Ave (86th St) to Bay Pkwy (86th St) due to roadwork.,8554.0,21st Ave,R,Brooklyn,Kings,NY,11214-3208,US,US/Eastern,KJRB,2021-08-29 11:51:00,71.0,71.0,78.0,30.13,10.0,CALM,0.0,0.0,Cloudy,True,False,True,False,False,False,True,False,True,False,False,True,False,Day,Day,Day,Day
C-4586622,2,2021-11-12 17:06:30,2021-11-12 19:32:58,41.883214,-87.62625200000002,41.882571,-87.624481,0.101357180054,Slow traffic from N State St to S Michigan Ave / E Madison St due to roadwork.,45.0,E Washington St,R,Chicago,Cook,IL,60602-1707,US,US/Central,KMDW,2021-11-12 17:53:00,36.0,28.0,79.0,29.14,9.0,WSW,12.0,0.0,Light Snow,True,False,True,False,False,False,True,False,True,False,False,True,False,Night,Night,Day,Day
C-4586623,2,2020-07-14 16:00:00,2020-07-14 22:45:00,29.402633,-95.032363,29.40285900000001,-95.032594,0.0209086702015999,Construction on I-45 FRONTAGE RD NB near FM-2004 Expect delays.,,Gulf Fwy,R,Texas City,Galveston,TX,77591,US,US/Central,KGLS,2020-07-14 15:52:00,90.0,90.0,65.0,29.96,9.0,S,17.0,0.0,Fair,False,False,False,False,False,False,False,False,False,False,False,True,False,Day,Day,Day,Day
C-4586624,4,2021-07-30 07:00:00,2021-07-30 15:30:00,43.811588,-72.188955,43.811599,-72.185987,0.147984070942,VT-113 is closed from US Route 5 to E Thetford Rd due to roadwork.,298.0,VT Route 113,L,East Thetford,Orange,VT,05043,US,US/Eastern,KLEB,2021-07-30 06:57:00,61.0,61.0,87.0,29.06,10.0,CALM,0.0,0.0,Partly Cloudy,False,False,False,False,False,False,False,False,False,False,False,False,False,Day,Day,Day,Day
C-4586625,2,2016-08-26 09:02:15,2016-08-26 15:02:15,39.598499,-76.08286600000002,39.599969,-76.074573,0.453034728657,At Red Barn Rd - Construction work.,819.0,Bainbridge Rd,R,Port Deposit,Cecil,MD,21904-1756,US,US/Eastern,KAPG,2016-08-26 08:50:00,82.4,,79.0,30.03,7.0,West,5.8,,Scattered Clouds,False,False,False,False,False,False,False,False,False,False,False,False,False,Day,Day,Day,Day
C-4586626,4,2021-11-07 03:01:00,2021-11-07 15:46:00,34.060611,-118.456175,34.058953,-118.455175,0.12806161915,Construction on I-405 SB near WILSHIRE BLVD Use alternate exit ramp.,,I-405 S,R,Los Angeles,Los Angeles,CA,90049,US,US/Pacific,KSMO,2021-11-07 03:03:00,56.0,56.0,93.0,29.85,2.0,VAR,3.0,0.0,Fog,False,False,False,False,False,False,False,False,False,False,False,False,False,Night,Night,Night,Night
C-4586627,2,2020-11-11 17:00:00,2020-11-12 01:45:00,39.687219,-75.645471,39.68855900000001,-75.64124100000002,0.2432194264599999,Construction on I-95 NB near CHURCHMANS RD Drive with caution.,,Delaware Tpke N,R,Newark,New Castle,DE,19702,US,US/Eastern,KILG,2020-11-11 17:07:00,64.0,64.0,93.0,29.84,5.0,SE,3.0,0.03,Heavy Rain,False,False,False,False,True,False,False,False,False,False,False,False,False,Night,Day,Day,Day
C-4586628,2,2021-07-07 08:07:30,2021-11-04 22:32:51,40.242072,-76.735996,40.237432,-76.737528,0.330619133824,Stationary traffic from Longview Dr to Fulling Mill Rd due to roadwork.,2113.0,N Union St,L,Middletown,Dauphin,PA,17057-2961,US,US/Eastern,KMDT,2021-07-07 07:56:00,80.0,80.0,69.0,29.65,6.0,WNW,6.0,0.0,Haze,False,False,False,False,False,False,False,False,False,False,False,False,False,Day,Day,Day,Day
C-4586630,2,2021-11-18 14:48:00,2021-11-18 17:06:48,42.15163,-87.96023000000002,42.153611,-87.96068199999998,0.138818453946,Slow traffic from Aptakisic Rd to S McHenry Rd due to roadwork.,101.0,S Buffalo Grove Rd,L,Buffalo Grove,Cook,IL,60089,US,US/Central,KPWK,2021-11-18 14:52:00,34.0,24.0,54.0,29.51,10.0,W,15.0,0.0,Cloudy,False,False,False,False,False,False,False,False,False,False,False,False,False,Day,Day,Day,Day
C-4586631,2,2016-10-24 09:01:35,2016-10-24 15:01:35,39.38907800000001,-76.72176400000002,39.38951,-76.72203,0.0330557384305,At I-695/Baltimore Beltway Inner Loop - Construction work.,,Park Heights Ave,R,Pikesville,Baltimore County,MD,21208,US,US/Eastern,KDMH,2016-10-24 08:54:00,62.1,,52.0,30.02,,North,,,,False,False,False,True,False,False,False,False,False,False,False,True,False,Day,Day,Day,Day
C-4586632,4,2020-05-06 05:01:04,2020-05-07 05:01:04,33.29987,-86.37006,33.29987,-86.37006,0.0,Closed at US-231/US-280/AL-38/AL-53 - Closed due to roadwork.,4963.0,Klein Rd,R,Harpersville,Shelby,AL,35078,US,US/Central,KEET,2020-05-06 04:53:00,57.0,57.0,89.0,29.36,10.0,CALM,0.0,0.0,Fair,False,False,False,False,False,False,False,False,False,False,False,False,False,Night,Night,Day,Day
C-4586633,4,2020-05-29 05:34:15,2020-05-29 10:33:56,42.69827,-87.93063000000002,42.69811,-87.91461,0.8135585788519999,Closed at CR-H/West Rd - Closed due to roadwork.,,WI-11,R,Sturtevant,Racine,WI,53177,US,US/Central,KRAC,2020-05-29 05:53:00,60.0,60.0,90.0,29.22,10.0,WSW,5.0,0.0,Fair,False,False,False,False,False,False,False,False,False,False,False,True,False,Day,Day,Day,Day
C-4586634,2,2021-09-24 10:43:30,2021-09-24 13:21:28,35.404537,-97.423596,35.407155,-97.423571,0.180892051349,Stationary traffic from E I-240 Service Rd/OK-3/74th St (Sooner Rd) to SE 44th St (Sooner Rd) due to roadwork.,6139.0,S Sooner Rd,R,Oklahoma City,Oklahoma,OK,73135,US,US/Central,KTIK,2021-09-24 10:56:00,74.0,74.0,30.0,28.7,10.0,S,20.0,0.0,Fair,False,False,True,False,False,False,False,False,False,False,False,False,False,Day,Day,Day,Day
C-4586635,2,2021-10-07 06:23:30,2021-10-07 10:35:30,40.678023,-73.982549,40.68309,-73.979118,0.393556422897,Slow traffic from Union St (4th Ave) to Atlantic Ave (4th Ave) due to roadwork.,193.0,4th Ave,L,Brooklyn,Kings,NY,11217-3124,US,US/Eastern,KJRB,2021-10-07 06:51:00,62.0,62.0,93.0,30.23,8.0,CALM,0.0,0.0,Mostly Cloudy,True,False,True,False,False,False,True,False,True,False,False,True,False,Night,Night,Day,Day
C-4586636,2,2021-12-19 17:43:00,2021-12-19 18:04:00,40.69722,-73.985163,40.692061,-73.982635,0.380259249225,Slow traffic from Nassau St (Flatbush Ave) to Nevins St (Flatbush Ave) due to roadwork.,98.0,Chapel St,R,Brooklyn,Kings,NY,11201-1903,US,US/Eastern,KJRB,2021-12-19 17:51:00,34.0,27.0,50.0,30.07,10.0,NW,8.0,0.0,Fair,True,False,False,False,False,False,True,False,False,False,False,True,False,Night,Night,Night,Day
C-4586637,2,2019-10-02 23:48:22,2019-10-04 23:59:00,37.925537,-122.514282,,,0.0,Right hand shoulder closed due to construction on US-101 Southbound at Tamalpais Dr.,,Redwood Hwy,R,Corte Madera,Marin,CA,94925,US,US/Pacific,KDVO,2019-10-02 23:55:00,48.0,48.0,100.0,29.89,10.0,CALM,0.0,0.0,,False,False,False,False,False,False,False,False,False,True,False,False,False,Night,Night,Night,Night
C-4586638,2,2021-07-11 02:01:00,2021-07-11 06:44:00,33.963637,-117.377369,33.968196,-117.376611,0.31797762721,Construction on CA-91 EB near CENTRAL AVE Construction. Expect long delays.,,CA-91 E,R,Riverside,Riverside,CA,92507,US,US/Pacific,KRAL,2021-07-11 01:53:00,73.0,73.0,51.0,29.08,10.0,WNW,3.0,0.0,Fair,False,False,False,False,False,False,False,False,False,False,False,False,False,Night,Night,Night,Night
C-4586639,2,2021-09-02 14:59:30,2021-09-02 17:02:34,33.480416,-112.118268,33.48044,-112.116149,0.1221272076979999,Stationary traffic on US-60 W - US-60 E from N 35th Ave (W Thomas Rd) to US-60/Grand Ave (W Thomas Rd) due to roadwork.,2719.0,W Thomas Rd,L,Phoenix,Maricopa,AZ,85017-5507,US,US/Mountain,KPHX,2021-09-02 14:51:00,89.0,89.0,46.0,28.66,10.0,CALM,0.0,0.0,Mostly Cloudy,True,False,False,False,False,False,False,False,True,False,False,False,False,Day,Day,Day,Day
C-4586640,2,2021-04-07 05:24:30,2021-04-07 20:22:19,26.727533,-80.06659300000003,26.72380900000001,-80.066707,0.25740005426,Stationary traffic from 25th St (Australian Ave) to FL-704/Okeechobee Blvd (Australian Ave) due to roadwork.,1499.0,N Australian Ave,L,West Palm Beach,Palm Beach,FL,33401-2435,US,US/Eastern,KPBI,2021-04-07 05:53:00,61.0,61.0,78.0,30.04,10.0,CALM,0.0,0.0,Fair,False,False,True,False,False,False,False,False,False,False,False,True,False,Night,Night,Night,Night
C-4586641,2,2021-05-07 05:22:30,2021-05-08 14:49:45,26.03343,-80.14811999999998,26.03354,-80.142212,0.366865348305,Slow traffic on FL-822 - FL-A1A from N Dixie Hwy (Sheridan St) to FL-A1A/N Ocean Dr (SE 16th St/Sheridan St) due to roadwork.,2016.0,Sheridan St,L,Hollywood,Broward,FL,33020-2121,US,US/Eastern,KFLL,2021-05-07 04:53:00,76.0,76.0,97.0,29.95,10.0,WNW,6.0,0.0,Fair,False,False,True,False,False,False,False,False,False,False,False,False,False,Night,Night,Night,Day
C-4586642,2,2021-04-14 00:00:00,2021-07-01 00:44:59,40.581721,-118.262554,40.59908400000001,-118.251839,1.32486632949,Construction on I-80 EB near EXIT 138 Construction. Expect long delays.,,I-80 E,R,Imlay,Pershing,NV,89418,US,US/Pacific,KWMC,2021-04-14 00:12:00,37.0,29.0,86.0,25.49,10.0,N,12.0,0.0,Wintry Mix,False,False,False,False,False,False,False,False,False,False,False,False,False,Night,Night,Night,Night
C-4586643,2,2020-10-26 14:30:00,2020-11-25 02:30:00,38.846956,-82.860098,38.781797,-82.86954300000002,4.530682367890001,Construction on OH-823 SB near US-23 Construction. Expect long delays.,,OH-823,R,Portsmouth,Scioto,OH,45662,US,US/Eastern,KHTS,2020-10-26 14:14:00,58.0,58.0,81.0,29.22,10.0,CALM,0.0,0.0,Cloudy,False,False,False,False,False,False,False,False,False,False,False,False,False,Day,Day,Day,Day
C-4586644,2,2019-02-07 07:22:28,2019-02-11 07:22:13,42.105957,-91.704774,42.145529,-91.74342,3.37604372875,At CR-W36/Exit 35 - Roadwork.,3462.0,Midway Rd,R,Toddville,Linn,IA,52341-9710,US,US/Central,KCID,2019-02-07 07:32:00,28.9,19.2,100.0,29.78,4.0,NNW,11.5,0.06,Light Freezing Rain,False,False,False,False,False,False,False,False,False,False,False,False,False,Day,Day,Day,Day
C-4586645,2,2021-12-14 09:22:30,2021-12-14 09:55:30,40.232538,-79.583486,40.241531,-79.57674499999997,0.715891526093,Slow traffic on US-119 N from Burton Ave (US-119) to Fairview St (US-119) due to roadwork.,478.0,S 3rd St,L,Youngwood,Westmoreland,PA,15697-1155,US,US/Eastern,KLBE,2021-12-14 09:47:00,34.0,34.0,81.0,29.26,20.0,CALM,0.0,0.0,Fair,False,False,False,False,False,False,False,False,False,False,False,False,False,Day,Day,Day,Day
C-4586646,2,2021-09-04 14:34:30,2021-09-04 16:37:31,39.95652800000001,-75.180269,39.959941,-75.17953,0.239041643484,Roadwork from exit [344] to I-676 E.,,I-76 W,R,Philadelphia,Philadelphia,PA,19104,US,US/Eastern,KPHL,2021-09-04 14:54:00,76.0,76.0,45.0,29.99,10.0,S,8.0,0.0,Partly Cloudy,False,False,False,False,True,False,True,False,False,False,False,False,False,Day,Day,Day,Day
C-4586647,2,2021-09-07 19:41:42,2021-09-07 21:47:33,42.676961,-83.302251,42.678243,-83.300703,0.118444344705,Slow traffic from Hollywood Ave to W New York Ave / E New York Ave due to roadwork.,31.0,W Walton Blvd,L,Pontiac,Oakland,MI,48340-1157,US,US/Eastern,KPTK,2021-09-07 19:48:00,68.0,68.0,88.0,28.62,10.0,S,13.0,0.09,Light Rain,False,False,False,False,False,False,False,False,False,False,False,False,False,Day,Day,Day,Day
C-4586648,2,2021-10-21 19:13:30,2021-10-21 19:43:30,39.689014,-104.971338,39.694575,-104.979246,0.5695644675729999,Stationary traffic on US-87 N - I-25 N from exit [206] to Lincoln St exit [207A] due to roadwork.,,I-25 N,R,Denver,Denver,CO,80210,US,US/Mountain,KAPA,2021-10-21 18:53:00,51.0,51.0,28.0,24.32,10.0,S,5.0,0.0,Fair,False,False,False,False,False,False,False,False,False,False,False,True,False,Night,Night,Night,Day
C-4586649,2,2021-07-08 23:00:00,2021-12-16 14:06:38,39.044613,-94.586797,39.04223,-94.586871,0.164697498845,Slow traffic from 39th St (Main St) to W 47th St/Emanuel Cleaver II Blvd (Main St) due to roadwork.,4549.0,Main St,L,Kansas City,Jackson,MO,64111-1815,US,US/Central,KMKC,2021-12-16 11:54:00,43.0,38.0,45.0,29.31,10.0,W,9.0,0.0,Fair,False,False,True,False,False,False,False,False,False,False,False,True,False,Night,Night,Night,Night
C-4586650,2,2019-09-10 10:37:51,2019-09-14 10:39:08,41.21594,-75.89806999999998,41.21687100000001,-75.89735999999998,0.0741589410788999,At Aumans Ln - Roadwork. Open.,1.0,E Hartford St,R,Ashley,Luzerne,PA,18706-2817,US,US/Eastern,KAVP,2019-09-10 10:54:00,75.0,75.0,66.0,29.3,10.0,VAR,5.0,0.0,Fair,False,False,False,False,False,False,False,False,False,False,False,False,False,Day,Day,Day,Day
C-4586651,2,2021-01-12 23:22:30,2021-01-13 03:30:30,44.297908,-116.088271,44.26237800000001,-116.078386,2.5031135901400003,Stationary traffic on ID-55 from Smiths Ferry Dr (ID-55) to Banks (ID-55) due to roadwork.,10766.0,Main St,L,Cascade,Valley,ID,83611-5302,US,US/Mountain,KMYL,2021-01-12 23:27:00,33.0,25.0,92.0,25.03,3.0,SSE,9.0,0.04,Light Snow,False,False,False,False,False,False,False,False,False,False,False,False,False,Night,Night,Night,Night
C-4586652,2,2020-08-18 14:00:00,2020-08-19 02:45:00,39.463452,-95.343847,39.521939,-95.392021,4.78832592758,Construction on US-159 NB near MM 1 Allow extra time.,3089.0,Highway 159,R,Nortonville,Atchison,KS,66060-5054,US,US/Central,KTOP,2020-08-18 13:53:00,82.0,82.0,47.0,29.17,10.0,VAR,6.0,0.0,Fair,False,False,False,False,False,False,False,False,False,False,False,False,False,Day,Day,Day,Day
C-4586653,3,2018-03-01 09:12:30,2018-03-01 09:41:56,39.805443,-86.161346,,,0.319999992847,Road closed due to construction work on Capitol Ave both ways from 29th St to 27th St. Detour in operation.,2700.0,N Capitol Ave,L,Indianapolis,Marion,IN,46208-5632,US,US/Eastern,KEYE,2018-03-01 08:53:00,55.9,,93.0,29.59,5.0,SSW,10.4,0.01,Light Rain,False,False,True,False,False,False,False,False,False,True,False,False,False,Day,Day,Day,Day
C-4586654,2,2021-03-05 06:23:00,2021-03-05 18:57:13,33.392222,-112.071472,33.391721000000004,-112.073383,0.115548373079,Stationary traffic from S 3rd St to W Lynne Ave / E Lynne Ln due to roadwork.,101.0,E Southern Ave,R,Phoenix,Maricopa,AZ,85040-3041,US,US/Mountain,KPHX,2021-03-05 06:51:00,51.0,51.0,59.0,28.94,10.0,CALM,0.0,0.0,Fair,False,False,False,False,False,False,False,False,False,True,False,False,False,Night,Night,Day,Day
C-4586655,2,2021-07-21 17:11:13,2021-07-21 17:44:38,41.952759,-87.796646,41.953449,-87.78654499999998,0.521217129269,Slow traffic on IL-19 from N Newcastle Ave to W Cuyler Ave due to roadwork.,6807.0,W Irving Park Rd,L,Chicago,Cook,IL,60634-2305,US,US/Central,KORD,2021-07-21 16:51:00,74.0,74.0,64.0,29.41,10.0,NE,9.0,0.0,Mostly Cloudy,False,False,False,False,False,False,False,False,True,False,False,False,False,Day,Day,Day,Day
C-4586656,2,2020-10-28 17:46:05,2020-10-28 21:47:11,34.188209,-102.23643,34.189453,-102.243191,0.395858106449,Roadwork on US-70 from FM-1842/CR-249 (US-70) to US-385/Dimmitt Ave (Dent/US-70).,,US Highway 70,R,Olton,Lamb,TX,79064,US,US/Central,KPVW,2020-10-28 17:55:00,32.0,27.0,92.0,26.39,10.0,WNW,6.0,0.0,Cloudy,False,False,False,False,False,False,False,False,False,False,False,False,False,Day,Day,Day,Day
C-4586657,2,2020-12-07 15:01:00,2020-12-08 01:15:00,37.546247,-121.195821,37.545385,-121.194716,0.0849209972694999,Construction on CA-33 SB near HOWARD RD Expect long delays.,9021.0,State Highway 33,R,Patterson,Stanislaus,CA,95363,US,US/Pacific,KMOD,2020-12-07 14:53:00,70.0,70.0,22.0,30.0,10.0,NW,18.0,0.0,Fair,False,False,False,False,False,False,False,False,False,False,False,False,False,Day,Day,Day,Day
C-4586658,2,2021-10-20 10:57:00,2021-10-20 13:15:12,40.01869,-75.32266899999998,40.022865,-75.327444,0.383468090957,Slow traffic from S Bryn Mawr Ave to S Roberts Rd due to roadwork.,847.0,County Line Rd,R,Bryn Mawr,Montgomery,PA,19010-3101,US,US/Eastern,KLOM,2021-10-20 01:50:00,47.0,47.0,91.0,29.71,10.0,WSW,3.0,0.0,Fair,False,False,False,False,False,False,False,False,False,False,False,True,False,Day,Day,Day,Day
C-4586659,2,2021-08-29 09:00:00,2021-08-29 15:00:00,29.60981,-98.468323,,,9.35000038147,Intermittent lane closures due to construction work on US-281 both ways from Stone Oak Pkwy to TX-1604-LOOP.,,US-281 S,R,San Antonio,Bexar,TX,78258,US,US/Central,KSAT,2021-08-29 08:51:00,76.0,76.0,97.0,29.12,6.0,NNE,3.0,0.0,Cloudy,False,False,False,False,True,False,False,False,False,False,False,False,False,Day,Day,Day,Day
C-4586660,2,2020-02-22 08:00:00,2020-02-23 02:00:00,40.71946,-73.25149,40.71946,-73.25149,0.0,At CR-57/3rd Ave - Roadwork. One lane blocked.,153.0,W Main St,L,Bay Shore,Suffolk,NY,11706-8315,US,US/Eastern,KISP,2020-02-22 07:56:00,32.0,25.0,44.0,30.17,10.0,WSW,8.0,0.0,Fair,False,False,True,False,False,False,False,False,False,False,False,False,False,Day,Day,Day,Day
C-4586661,2,2021-06-08 04:09:48,2021-06-08 05:59:00,37.605267,-122.384346,,,0.0,Two lanes closed due to construction during the night on US-101 Northbound near San Francisco International Airport.,,Bayshore Fwy N,R,Millbrae,San Mateo,CA,94030,US,US/Pacific,KSFO,2021-06-08 03:56:00,56.0,56.0,75.0,29.97,10.0,W,16.0,0.0,Mostly Cloudy,False,False,False,False,False,False,False,False,False,False,False,False,False,Night,Night,Night,Day
C-4586662,2,2021-08-28 17:32:46,2021-08-28 17:54:46,40.646013,-74.00579,40.643368,-74.001398,0.293963953209,Slow traffic from 6th Ave to 8th Ave due to roadwork.,600.0,46th St,R,Brooklyn,Kings,NY,11220-1411,US,US/Eastern,KJRB,2021-08-28 17:37:00,70.0,70.0,71.0,30.16,10.0,SE,7.0,0.0,Cloudy,False,False,False,False,False,False,False,False,True,True,False,True,False,Day,Day,Day,Day
C-4586663,2,2021-06-22 09:00:00,2021-12-31 01:32:39,42.812913,-73.971065,42.812949,-73.96806099999998,0.1522789846169999,NYSDOT TMC - Albany: pothole repair on I-890 Exit 3; GE Plant Truck Terminal (Rotterdam) to Exit 5; Broadway (Schenectady) EB/WB Tuesday June 22nd 2021 09:00 AM thru 02:30 PM 1 Right lane of 2 lanes closed,,I-890 E,R,Schenectady,Schenectady,NY,12306,US,US/Eastern,KSCH,2021-06-22 08:58:00,63.0,63.0,72.0,29.36,10.0,W,12.0,0.0,Light Drizzle,False,False,False,False,False,False,False,False,False,False,False,False,False,Day,Day,Day,Day
C-4586664,2,2020-11-24 14:04:30,2020-11-25 00:52:00,40.749102,-73.992006,40.745373,-73.994695,0.293590375865,Slow traffic from W 34th St (7th Ave) to W 23rd St (7th Ave) due to roadwork.,199.0,W 31st St,R,New York,New York,NY,10001-3403,US,US/Eastern,KNYC,2020-11-24 13:51:00,48.0,48.0,39.0,30.22,10.0,CALM,0.0,0.0,Fair,True,False,True,False,False,False,False,False,True,False,False,True,False,Day,Day,Day,Day
C-4586665,2,2020-05-11 09:01:00,2020-05-11 16:01:00,38.64825,-123.39735,38.59524,-123.3458,4.599852139049999,Between Fallon Two Rock Rd and Kruse Ranch Rd - Maintenance work.,,Highway 1,R,Jenner,Sonoma,CA,95450,US,US/Pacific,KSTS,2020-05-11 08:53:00,57.0,57.0,72.0,29.76,10.0,SSE,10.0,0.0,Mostly Cloudy,False,False,False,False,False,False,False,False,False,False,False,False,False,Day,Day,Day,Day
C-4586666,2,2020-06-05 21:26:39,2020-06-09 21:26:05,34.21483,-118.35192,34.14886,-118.27983,6.1445071871,Between Glenoaks Blvd/Exit 150A and Olive Ave/Verdugo Ave - Roadwork.,,Golden State Fwy S,R,Sun Valley,Los Angeles,CA,91352,US,US/Pacific,KBUR,2020-06-05 21:53:00,63.0,63.0,72.0,29.03,10.0,S,6.0,0.0,Light Rain,False,False,False,False,True,False,False,False,False,False,False,False,False,Night,Night,Night,Day
C-4586667,2,2021-02-22 20:01:00,2021-02-23 05:46:00,33.908951,-117.558622,34.025409,-117.550071,8.06138716058,Alternating Lanes closure due to Highway Construction between 2nd St and Route 60,,Ontario Fwy N,R,Norco,Riverside,CA,92860,US,US/Pacific,KAJO,2021-02-22 19:56:00,70.0,70.0,16.0,29.51,10.0,SSE,9.0,0.0,Fair,False,False,False,False,False,False,False,False,False,False,False,False,False,Night,Night,Night,Night
C-4586668,2,2021-03-17 06:34:00,2021-03-17 14:40:30,33.309232,-111.85908700000002,33.306090999999995,-111.85914,0.2170440084959999,Slow traffic from W Erie St to W Chandler Blvd due to roadwork.,367.0,N Alma School Rd,L,Chandler,Maricopa,AZ,85224-4377,US,US/Mountain,KCHD,2021-03-17 06:47:00,41.0,37.0,61.0,28.79,10.0,NE,6.0,,Fair,False,False,True,False,False,False,False,False,False,False,False,True,False,Day,Day,Day,Day
C-4586669,3,2016-07-08 17:09:03,2016-07-08 23:09:10,41.74756,-88.22468,41.73866,-88.25119000000002,1.49864645454,Between IL-59 and S Eola Rd - Roadwork.,3802.0,Ogden Ave,L,Aurora,DuPage,IL,60504,US,US/Central,KDPA,2016-07-08 16:52:00,82.9,,42.0,29.81,10.0,West,16.1,,Partly Cloudy,False,False,True,False,False,False,False,False,False,False,False,True,False,Day,Day,Day,Day
C-4586670,2,2021-07-12 02:37:00,2021-07-12 04:20:00,46.940728,-119.995905,46.940368,-120.122865,5.98926290538,Slow traffic on I-90 W from Vantage Hwy/Exit 136 (I-90) to Cleman Rd/Main St/Exit 115 (I-90) due to roadwork.,,I-90 W,R,Ellensburg,Kittitas,WA,98926,US,US/Pacific,KELN,2021-07-12 02:53:00,69.0,69.0,53.0,28.0,10.0,NW,15.0,0.0,Fair,False,False,False,False,False,False,False,False,False,False,False,False,False,Night,Night,Night,Night
C-4586671,2,2021-07-29 16:32:30,2021-09-17 17:24:00,33.582614,-111.88422,33.581462,-111.886283,0.142957365264,Stationary traffic from N 92nd St to E Scottsdale Fiesta / E Scottsdale Healthcare Shea due to roadwork.,9104.0,E Shea Blvd,L,Scottsdale,Maricopa,AZ,85260-6712,US,US/Mountain,KSDL,2021-07-29 16:53:00,103.0,103.0,21.0,28.16,10.0,ESE,5.0,0.0,Fair,False,False,False,False,False,False,False,False,False,False,False,False,False,Day,Day,Day,Day
C-4586672,2,2021-06-11 13:19:02,2021-12-22 12:53:52,40.687592,-80.102088,40.68487,-80.10032,0.209646437591,Slow traffic on PA-228 - US-19 S from Short St / Nicklas Dr to Dutilh Rd due to roadwork.,,Nicklas Dr,R,Cranberry Township,Butler,PA,16066,US,US/Eastern,KBTP,2021-09-28 17:56:00,69.0,69.0,54.0,28.6,10.0,VAR,7.0,0.0,Fair,False,False,True,True,False,False,False,False,False,True,False,True,False,Day,Day,Day,Day
C-4586673,2,2020-10-23 15:28:00,2020-10-24 08:55:23,46.05203,-85.142786,46.045435,-85.125916,0.928489142437,Roadwork on US-2 from Hiawatha Trl (Lake Michigan Scenic Hwy/US-2) to Worth Rd (US-2).,,W5686 US Highway 2,R,Naubinway,Mackinac,MI,49762,US,US/Eastern,KERY,2020-10-23 15:35:00,38.0,30.0,97.0,28.92,10.0,NNW,10.0,0.0,Light Rain,False,False,False,False,False,False,False,False,False,False,False,False,False,Day,Day,Day,Day
C-4586674,2,2020-10-23 04:00:00,2020-10-23 12:45:00,33.722522,-84.932929,33.716052000000005,-85.03367800000002,5.807240899369999,Construction on I-20 WB near GA-61 Construction. Right lane closed.,,GA-402 W,R,Villa Rica,Carroll,GA,30180,US,US/Eastern,KPUJ,2020-10-23 03:55:00,63.0,63.0,100.0,28.75,7.0,CALM,0.0,0.0,Partly Cloudy,False,False,False,False,True,False,False,False,False,False,False,False,False,Night,Night,Night,Night
C-4586675,2,2020-02-14 02:39:14,2020-02-14 03:59:00,34.185520000000004,-118.402428,,,0.180000007153,Entry ramp to CA-170 Southbound from Victory Blvd Eastbound closed due to construction work.,12351.0,Sylvan St,R,North Hollywood,Los Angeles,CA,91606-3108,US,US/Pacific,KBUR,2020-02-14 02:53:00,46.0,46.0,63.0,29.2,10.0,CALM,0.0,0.0,Fair,False,False,False,False,False,False,False,False,False,False,False,False,False,Night,Night,Night,Night
C-4586676,2,2021-04-27 09:00:00,2021-12-08 13:28:00,40.373454,-75.90151999999998,40.371731,-75.920389,1.00034864094,Slow traffic on PA-12 W from Hampden Blvd/Spring Valley Rd (Warren St Byp/PA-12) to US-222 Bus/N 5th Street Hwy (Warren St Byp/PA-12) due to roadwork.,,Warren Street Byp W,R,Reading,Berks,PA,19604,US,US/Eastern,KRDG,2021-05-27 04:54:00,66.0,66.0,87.0,29.58,10.0,NW,6.0,0.0,Fair,False,False,False,False,False,False,False,False,False,False,False,False,False,Day,Day,Day,Day
C-4586677,2,2020-03-18 10:33:40,2020-03-19 10:33:40,26.36786,-80.11610999999998,26.36786,-80.11610999999998,0.0,At US-1/SR-5/N Federal Hwy - Long-term roadwork.,1584.0,Glades Rd,R,Boca Raton,Palm Beach,FL,33486,US,US/Eastern,KBCT,2020-03-18 10:53:00,80.0,80.0,56.0,30.25,10.0,E,13.0,0.0,Partly Cloudy,False,False,False,False,False,False,False,False,False,False,False,False,False,Day,Day,Day,Day
C-4586678,4,2021-05-24 07:46:30,2021-11-28 16:45:00,43.353136,-78.19690200000002,43.349412,-78.190656,0.405810932557,Construction on NY-18 EB near OAK ORCHARD RD Road closed. Take alternate route.,14294.0,Roosevelt Hwy,L,Waterport,Orleans,NY,14571-9755,US,US/Eastern,KROC,2021-11-28 07:54:00,30.0,30.0,92.0,29.19,3.0,SE,3.0,0.01,Light Snow,False,False,False,False,False,False,False,False,False,False,False,False,False,Day,Day,Day,Day
C-4586679,2,2020-09-24 16:48:30,2020-09-24 17:11:00,40.863846,-79.84377099999998,40.872095,-79.869043,1.43821074826,Slow traffic on US-422 from Bonniebrook Rd (US-422) to PA-68/E Jefferson St/Chicora Rd (US-422) due to roadwork.,,Route 422 E,R,Butler,Butler,PA,16002,US,US/Eastern,KBTP,2020-09-24 16:56:00,73.0,73.0,57.0,28.64,10.0,WSW,3.0,0.0,Partly Cloudy,False,False,False,False,True,False,False,False,False,False,False,False,False,Day,Day,Day,Day
C-4586680,2,2021-12-29 16:17:02,2021-12-29 18:18:44,25.926051,-80.149681,25.926202,-80.153676,0.248467458546,Stationary traffic on FL-826 from FL-A1A/Collins Ave (FL-826) to US-1/FL-5/Biscayne Blvd (FL-826) due to roadwork.,,NE 163rd St,R,North Miami Beach,Miami-Dade,FL,33160,US,US/Eastern,KHWO,2021-12-29 15:53:00,80.0,80.0,62.0,30.03,10.0,SSE,8.0,0.0,Fair,False,False,True,False,False,False,False,False,False,False,False,True,False,Day,Day,Day,Day
C-4586681,4,2018-12-26 21:39:42,2019-03-24 15:45:24,30.32497,-81.68004,30.320940000000004,-81.68485,0.399785725421,Ramp closed to I-10/US-17 Westbound - Closed due to roadwork.,,I-95 S,R,Jacksonville,Duval,FL,32204,US,US/Eastern,KNIP,2018-12-27 09:53:00,70.0,,73.0,30.27,10.0,East,8.1,,Overcast,False,False,False,False,False,False,False,False,False,False,False,False,False,Night,Night,Night,Night
C-4586682,2,2020-05-27 06:04:11,2020-06-02 06:03:44,42.70942,-114.4433,42.68045,-114.44327,2.0016369441,At I-84 - Construction work. Traffic problem.,5738.0,US Highway 93,R,Jerome,Jerome,ID,83338-6780,US,US/Mountain,KJER,2020-05-27 05:53:00,56.0,56.0,77.0,25.97,10.0,WSW,6.0,0.0,Fair,False,False,False,False,False,False,False,False,False,False,False,False,False,Night,Day,Day,Day
C-4586683,2,2021-09-21 17:26:00,2021-09-21 19:28:49,33.219177,-111.758014,33.220264,-111.755376,0.169974292548,Stationary traffic from S Black Hills Way to E Merlot St due to roadwork.,15081.0,E Riggs Rd,R,Chandler,Maricopa,AZ,85249,US,US/Mountain,KCHD,2021-09-21 17:47:00,102.0,102.0,11.0,28.69,10.0,WNW,7.0,,Fair,False,False,False,False,False,False,False,False,False,False,False,False,False,Day,Day,Day,Day
C-4586684,2,2021-06-17 14:22:00,2021-06-17 16:24:00,33.496598,-112.073921,33.494794,-112.072816,0.1399642228099999,Slow traffic from W Monterosa St to N 2nd St due to roadwork.,2.0,W Monterosa St,R,Phoenix,Maricopa,AZ,85013,US,US/Mountain,KPHX,2021-06-17 14:51:00,116.0,116.0,7.0,28.49,10.0,SSE,10.0,0.0,Fair,False,False,True,False,False,False,True,False,False,False,False,True,False,Day,Day,Day,Day
C-4586685,4,2018-11-02 12:57:10,2018-11-02 17:57:00,39.06884,-94.6504,39.087167,-94.64928,1.26769924266,Closed between Steele Rd and KS-32/Kansas Ave - Closed due to roadwork.,,18th Street Expy N,R,Kansas City,Wyandotte,KS,66103,US,US/Central,KNKA,2018-11-02 13:18:00,,,,,,North,,,,False,False,False,False,True,False,False,False,False,False,False,False,False,Day,Day,Day,Day
C-4586686,2,2017-12-25 07:01:47,2017-12-25 13:01:47,40.7356,-74.03143,40.75325,-74.02609,1.25112612106,Between Observer Hwy and 15th St - Construction work.,1.0,Washington St,R,Hoboken,Hudson,NJ,07030-4555,US,US/Eastern,KJRB,2017-12-25 07:04:00,37.4,30.3,93.0,,10.0,WSW,10.4,0.0,Overcast,True,False,True,False,False,False,False,False,False,False,False,True,False,Night,Day,Day,Day
C-4586687,2,2021-11-22 22:38:50,2021-12-14 16:07:34,32.142996999999994,-95.316697,32.144738000000004,-95.314103,0.1936485098699999,Stationary traffic from S Henderson St / N Henderson St to Doctor M Roper Pkwy N / US Highway 69 N due to roadwork.,505.0,E Main St,L,Bullard,Smith,TX,75757,US,US/Central,KTYR,2021-12-14 15:53:00,74.0,74.0,76.0,29.55,10.0,SSE,9.0,0.0,Cloudy,False,False,False,False,False,False,False,False,False,False,False,False,False,Night,Night,Night,Night
C-4586688,2,2020-11-06 16:41:30,2020-11-06 17:22:00,31.784466,-96.431733,31.787596,-96.449833,1.08480387208,Stationary traffic on FM-27 from FM 246 to County Road 1000 due to roadwork.,101.0,FM 246,L,Wortham,Freestone,TX,76693,US,US/Central,KLXY,2020-11-06 16:35:00,76.0,76.0,47.0,29.47,10.0,SSE,6.0,0.0,Fair,False,False,False,False,False,False,False,False,False,False,False,False,False,Day,Day,Day,Day
C-4586689,2,2021-10-22 14:17:01,2021-10-22 14:45:01,27.918089,-82.79653499999998,27.91664500000001,-82.787873,0.538166647624,Stationary traffic on County Hwy-416 - FL-686 from Belleair Rd (US-19 Alt) to FL-686/Missouri Ave/Bay Dr (US-19 Alt) due to roadwork.,65.0,Clearwater Largo Rd N,L,Largo,Pinellas,FL,33770,US,US/Eastern,KPIE,2021-10-22 13:53:00,86.0,86.0,51.0,29.99,10.0,NE,5.0,0.0,Partly Cloudy,False,False,False,False,False,False,False,False,False,False,False,True,False,Day,Day,Day,Day
C-4586690,2,2021-06-21 09:09:30,2021-06-21 09:34:30,44.927809,-87.252348,44.93692,-87.243425,0.766016009215,Stationary traffic on WI-57 - County Hwy-T from CR-P (WI-57) to CR-I (WI-57) due to roadwork.,8128.0,State Highway 57,R,Sturgeon Bay,Door,WI,54235,US,US/Central,KSUE,2021-06-21 08:56:00,56.0,56.0,75.0,28.82,10.0,NNW,23.0,0.0,Cloudy / Windy,False,False,False,False,False,False,False,False,False,False,False,False,False,Day,Day,Day,Day
C-4586691,2,2018-06-26 20:43:27,2018-06-27 03:00:59,40.076008,-75.361449,40.081711,-75.389104,1.51421787563,At US-202/Exit 328 - Roadwork. Lane blocked.,,Schuylkill Expy W,R,King of Prussia,Montgomery,PA,19406,US,US/Eastern,KLOM,2018-06-26 20:35:00,69.8,,56.0,30.2,,South,8.1,,Scattered Clouds,False,False,False,False,False,False,False,False,False,False,False,False,False,Night,Day,Day,Day
C-4586692,2,2019-07-11 10:06:07,2020-06-08 23:26:07,41.4999,-83.70935,41.50046,-83.71704,0.399816965795,Between OH-65/W River Rd (South) and N River Rd - Roadwork.,24005.0,W River Rd,L,Perrysburg,Wood,OH,43551-9474,US,US/Eastern,KTDZ,2019-07-11 09:53:00,81.0,81.0,60.0,29.19,10.0,W,3.0,0.0,Fair,False,False,True,False,False,False,False,False,False,False,False,True,False,Day,Day,Day,Day
C-4586693,4,2020-07-06 14:13:30,2020-07-07 22:45:00,41.144496,-87.199054,41.144126,-87.151364,2.48149620926,Construction on IN-110 EB near US-231 Road closed. Take alternate route.,9001.0,N 800 W,R,Demotte,Jasper,IN,46310,US,US/Central,KRZL,2020-07-06 14:15:00,88.0,88.0,43.0,29.25,10.0,CALM,0.0,0.0,Fair,False,False,False,False,False,False,False,False,False,False,False,False,False,Day,Day,Day,Day
C-4586694,2,2020-09-10 13:00:00,2020-09-10 23:45:00,43.08926500000001,-87.917202,43.089232,-87.91198100000004,0.263452476119,Construction on WI-190 EB near N PORT WASHINGTON Right lane closed. Expect delays.,,W Capitol Dr,R,Milwaukee,Milwaukee,WI,53212,US,US/Central,KMWC,2020-09-10 12:45:00,54.0,54.0,88.0,29.6,10.0,N,7.0,0.0,Light Drizzle,False,False,False,False,False,False,False,False,False,False,False,True,False,Day,Day,Day,Day
C-4586695,2,2021-05-15 04:03:30,2021-05-15 15:04:51,40.710167,-73.838534,40.716577,-73.824629,0.852329011421,Slow traffic from Metropolitan Ave/Exit 6 (Jackie Robinson Pkwy) to I-678/Exit 7 (Jackie Robinson Pkwy) due to roadwork.,,Jackie Robinson Pkwy N,R,Kew Gardens,Queens,NY,11415,US,US/Eastern,KLGA,2021-05-15 03:51:00,61.0,61.0,39.0,30.17,10.0,CALM,0.0,0.0,Fair,False,False,False,False,False,False,False,False,False,False,False,False,False,Night,Night,Night,Day
C-4586696,2,2021-06-12 13:41:03,2021-06-12 17:43:36,40.828411,-73.93549,40.830886,-73.94137099999998,0.351815283582,Stationary traffic from Adam Clayton Powell Jr Blvd (W 155th St) to Broadway (W 155th St) due to roadwork.,,W 155th St,R,New York,New York,NY,10039,US,US/Eastern,KNYC,2021-06-12 13:51:00,67.0,67.0,70.0,29.79,10.0,CALM,0.0,0.0,Cloudy,True,False,False,False,False,False,True,False,True,False,False,True,False,Day,Day,Day,Day
C-4586697,2,2021-01-26 13:25:30,2021-01-26 17:10:23,28.604269,-98.546203,28.56454500000001,-98.545929,2.74471734265,Stationary traffic on TX-16 from CR-442 (TX-16) to TX-72 (TX-16) due to roadwork.,,River St,R,Tilden,McMullen,TX,78072,US,US/Central,KPEZ,2021-01-26 13:35:00,78.0,78.0,23.0,29.38,10.0,ESE,12.0,0.0,Fair,False,False,False,False,False,False,False,False,False,False,False,False,False,Day,Day,Day,Day
C-4586698,3,2019-07-01 07:00:00,2019-07-01 19:00:00,42.169598,-91.778282,,,93.4800033569,Intermittent lane closures due to construction on I-380 both ways from Exit 65 US-20 to Exit 35 CR-W36 Lewis Access Rd.,,I-380 S,R,Center Point,Linn,IA,52213,US,US/Central,KVTI,2019-07-01 06:55:00,71.0,71.0,97.0,29.15,10.0,E,8.0,0.0,Fair,False,False,False,False,False,False,False,False,False,False,False,False,False,Day,Day,Day,Day
C-4586699,2,2021-07-19 09:46:00,2021-07-19 12:00:00,37.387024,-77.515741,37.37212,-77.501327,1.2987340037,On VA-10 (Iron Bridge Rd) in the County of Chesterfield from Greenyard Rd; Greenyard Way; Rt. 3150E/W (Chesterfield County) to Iron Bridge Xo; Rt. 611E/W (Chesterfield County) motorists can expect potential delays in this area from 07/19/21 at 9:46 AM until 07/19/21 at 12:00 PM due to maintenance activities. The east right lane and right shoulder are closed.,9220.0,Iron Bridge Rd,R,Chesterfield,Chesterfield,VA,23832,US,US/Eastern,KFCI,2021-07-19 09:56:00,73.0,73.0,96.0,29.84,7.0,CALM,0.0,0.0,Fair,False,False,False,False,False,False,False,False,False,False,False,True,False,Day,Day,Day,Day
C-4586700,2,2021-08-24 09:21:30,2021-08-24 09:36:30,35.134232,-81.529707,35.141873,-81.506341,1.42187974704,Slow traffic on I-85 N from SC-5/Exit 99 (I-85) to SC-198/Exit 102 (I-85) due to roadwork.,,I-85 N,R,Blacksburg,Cherokee,SC,29702,US,US/Eastern,KEHO,2021-08-24 09:15:00,78.0,78.0,77.0,29.17,10.0,NE,3.0,0.0,Fair,False,False,False,False,False,False,False,False,False,False,False,False,False,Day,Day,Day,Day
C-4586701,2,2020-09-25 19:41:00,2020-09-26 08:02:27,36.720527,-88.667412,36.722761,-88.667315,0.154448152992,Roadwork on US-45 from Fulton Rd/US-45 (US-45 Byp/US-45) to Macedonia St/Fulton Rd (US-45).,,Fulton Rd,R,Mayfield,Graves,KY,42066,US,US/Central,KM25,2020-09-25 19:35:00,68.0,68.0,88.0,29.44,10.0,S,3.0,0.0,Cloudy,False,False,False,False,False,False,False,False,False,False,False,False,False,Night,Night,Night,Day
C-4586702,3,2018-09-06 20:00:00,2018-09-07 05:00:00,37.507763,-77.278511,,,1.12000000477,Entry ramp to I-295 Southbound from E Williamsburg Rd Eastbound partially blocked due to construction work.,,I-295 S,R,Sandston,Henrico,VA,23150,US,US/Eastern,KRIC,2018-09-06 19:54:00,84.0,,69.0,30.11,10.0,Calm,,,Partly Cloudy,False,False,False,False,False,False,False,False,False,False,False,False,False,Night,Night,Day,Day
C-4586703,4,2020-05-10 23:01:47,2020-05-11 04:00:41,29.68691,-95.379277,29.68691,-95.379277,0.0,Closed at Holly Hall Dr - Closed due to roadwork.,,TX-288 S,R,Houston,Harris,TX,77021,US,US/Central,KMCJ,2020-05-10 22:53:00,70.0,70.0,68.0,30.13,10.0,CALM,0.0,0.0,Fair,False,False,False,False,False,False,False,False,False,False,False,False,False,Night,Night,Night,Night
C-4586704,2,2020-11-09 18:40:00,2020-11-09 20:49:40,29.642983,-98.390508,29.638218,-98.376922,0.879792339379,Roadwork from Cibolo Vis to W Green Mountain Rd.,5084.0,E Evans Rd,R,San Antonio,Bexar,TX,78259,US,US/Central,KSAT,2020-11-09 18:51:00,75.0,75.0,57.0,28.99,10.0,SE,7.0,0.0,Fair,False,False,False,False,False,False,False,False,False,False,False,False,False,Night,Night,Night,Day
C-4586705,2,2021-12-07 10:20:00,2021-12-07 10:35:00,41.401724,-82.15299499999998,41.393981,-82.15985500000002,0.642363214856,Slow traffic on I-90 W from OH-2 (I-90) to Lorain County West Toll Plaza (I-90) due to roadwork.,,I-90 W,R,Elyria,Lorain,OH,44035,US,US/Eastern,KLPR,2021-12-07 09:53:00,24.0,14.0,71.0,29.38,10.0,W,10.0,0.0,Fair,False,False,False,False,False,False,False,False,False,False,False,False,False,Day,Day,Day,Day
C-4586706,2,2021-12-23 17:27:32,2021-12-23 19:35:46,27.82838,-82.680596,27.829537,-82.679563,0.101855591276,Slow traffic on US-19 N from 35th St to 64th Ave N due to roadwork.,3468.0,62nd Ave N,L,Pinellas Park,Pinellas,FL,33781-6201,US,US/Eastern,KPIE,2021-12-23 17:53:00,58.0,58.0,56.0,30.16,10.0,W,5.0,0.0,Fair,False,False,True,False,False,False,False,False,True,False,False,False,False,Day,Day,Day,Day
C-4586707,4,2018-11-18 15:36:04,2018-11-18 20:35:29,32.232359,-84.71292,32.172469,-84.70776,4.14898715751,Closed between CR-17/Firetower Rd/Gibson Hill Rd and Wall St - Closed due to roadwork.,1738.0,US Highway 280,L,Cusseta,Chattahoochee,GA,31805,US,US/Eastern,KLSF,2018-11-18 15:56:00,67.8,,49.0,30.16,10.0,Calm,,,Clear,False,False,False,False,False,False,False,False,False,False,False,False,False,Day,Day,Day,Day
C-4586708,2,2020-06-22 09:43:15,2020-06-22 15:30:00,40.3829,-74.24131,40.39861,-74.23628000000002,1.11726676235,Between CR-520/Newman Springs Rd and Wilson Ave - Roadwork.,469.0,State Highway 79,R,Morganville,Monmouth,NJ,07751-9700,US,US/Eastern,KBLM,2020-06-22 09:56:00,84.0,84.0,65.0,29.82,10.0,VAR,5.0,0.0,Fair,False,False,False,False,False,False,False,False,True,False,False,True,False,Day,Day,Day,Day
C-4586709,2,2021-05-15 05:27:55,2021-12-25 01:03:52,40.294792,-78.870785,40.295058,-78.870633,0.0200486150984,Roadwork on Scalp Ave from Bedford St / Nees Ave to PA-756.,112.0,Belmont St,R,Johnstown,Cambria,PA,15904-1347,US,US/Eastern,KJST,2021-12-24 22:54:00,49.0,45.0,50.0,27.37,10.0,SSW,8.0,0.0,Cloudy,False,False,False,False,False,False,False,False,False,False,False,False,False,Night,Night,Day,Day
C-4586710,3,2018-07-08 02:00:00,2018-07-08 10:00:00,47.659214,-122.322876,,,1.17999994755,Entry ramp to I-5 Southbound from 5th Ave NE Southbound closed due to construction.,4322.0,5th Ave NE,R,Seattle,King,WA,98105,US,US/Pacific,KBFI,2018-07-08 01:53:00,61.0,,72.0,30.13,10.0,Calm,,,Clear,False,False,False,False,False,False,False,False,False,False,False,True,False,Night,Night,Night,Day
C-4586711,3,2020-05-06 07:27:23,2020-05-06 18:00:00,40.43867,-79.74574,40.43867,-79.74574,0.0,At I-376/US-22-br - Roadwork. Roadway reduced to 1 lane.,4542.0,William Penn Hwy,R,Monroeville,Allegheny,PA,15146-2814,US,US/Eastern,KAGC,2020-05-06 07:53:00,38.0,31.0,97.0,28.44,3.0,NNW,9.0,0.0,Cloudy,False,False,False,False,False,False,False,False,False,False,False,False,False,Day,Day,Day,Day
C-4586712,2,2018-11-30 10:31:00,2021-06-21 08:35:00,31.962171,-92.751521,31.959497,-92.729684,1.29333963907,Road Maintenance Operations on LA-156 Both Directions from US-167 to 2021 Ft Before LA-501 . Lane(s) alternating.,198.0,Shaw Rd,L,Winnfield,Winn,LA,71483-5056,US,US/Central,KIER,2018-11-30 10:35:00,72.0,,88.0,29.89,10.0,South,6.9,,Overcast,False,False,False,False,False,False,False,False,False,False,False,False,False,Day,Day,Day,Day
C-4586713,2,2020-07-19 07:01:00,2020-07-20 06:59:59,40.105429,-74.797099,40.117019,-74.830189,1.92320145949,Bridge work on New Jersey Turnpike - Pennsylvania Ext. westbound west of Delaware River Bridge (Burlington Twp) All lanes will be closed in Pennsylvania Westbound between I-95 and Exit 351 for overhead bridge beam erection Sunday July 19th 2020 12:01 AM thru 05:00 AM ,,Pearl Harbor Memorial Turnpike Ext,R,Florence,Burlington,NJ,08518,US,US/Eastern,KPNE,2020-07-19 06:54:00,74.0,74.0,87.0,29.87,10.0,CALM,0.0,0.0,Fair,False,False,False,False,False,False,False,False,False,False,False,False,False,Day,Day,Day,Day
C-4586714,2,2021-11-11 13:57:33,2021-12-15 07:09:00,41.646261,-88.12465,41.65400800000001,-88.124779,0.535308152598,Slow traffic from W 135th St (Weber Rd) to I-55 (S Weber Rd) due to roadwork.,617.0,N Weber Rd,L,Romeoville,Will,IL,60446-3938,US,US/Central,KLOT,2021-12-15 06:55:00,55.0,55.0,97.0,29.23,,SSW,21.0,0.0,Cloudy / Windy,False,False,False,False,False,False,False,False,False,False,False,True,False,Day,Day,Day,Day
C-4586715,2,2020-12-02 17:01:00,2020-12-02 20:46:00,32.730953,-117.171285,32.731534,-117.171367,0.040425213041,Lane closure due to Electrical Work between India St and Route 5,2550.0,India St,L,San Diego,San Diego,CA,92101-1212,US,US/Pacific,KSAN,2020-12-02 16:51:00,70.0,70.0,18.0,30.0,10.0,CALM,0.0,0.0,Partly Cloudy,False,False,False,False,False,False,False,False,False,False,False,False,False,Night,Day,Day,Day
C-4586716,2,2019-08-03 17:18:27,2019-08-21 05:32:49,38.85463,-94.79728,38.85463,-94.79728,0.0,At W 159th St - Construction work.,,E 151st St,R,Olathe,Johnson,KS,66062,US,US/Central,KOJC,2019-08-03 16:53:00,84.0,84.0,51.0,28.85,10.0,E,9.0,0.0,Fair,False,False,False,False,False,False,False,False,False,False,False,True,False,Day,Day,Day,Day
C-4586717,2,2021-05-05 00:09:24,2021-12-10 15:36:30,43.306353,-122.855118,43.299829,-122.873091,1.00989522637,Stationary traffic on OR-138 - County Hwy-4 from NFD-4711 (OR-138) to BLM-26-2-70/Honey Creek Rd (OR-138) due to roadwork.,34872.0,N Umpqua Hwy,L,Idleyld Park,Douglas,OR,97447,US,US/Pacific,KRBG,2021-12-10 14:53:00,49.0,45.0,61.0,29.65,10.0,SE,8.0,0.0,Partly Cloudy,False,False,False,False,False,False,False,False,False,False,False,False,False,Night,Night,Night,Night
C-4586718,2,2021-06-25 15:24:00,2021-06-25 18:09:25,33.468175,-112.151772,33.465949,-112.15239,0.15787286736,Slow traffic from W Granada Rd to N 45th Ave due to roadwork.,1847.0,N 43rd Ave,R,Phoenix,Maricopa,AZ,85009,US,US/Mountain,KPHX,2021-06-25 15:51:00,104.0,104.0,11.0,28.54,10.0,VAR,3.0,0.0,Fair,False,False,False,False,False,False,False,False,True,False,False,False,False,Day,Day,Day,Day
C-4586719,2,2021-07-22 14:34:30,2021-07-22 14:52:00,37.76496,-81.141072,37.766304,-81.128671,0.683677317394,Slow traffic on I-64 E from US-19/Eisenhower Dr/Exit 124 (I-64) to CR-9/Airport Rd/Exit 125 (I-64) due to roadwork.,,I-64 E,R,Beaver,Raleigh,WV,25813,US,US/Eastern,KBKW,2021-07-22 14:51:00,75.0,75.0,53.0,27.58,10.0,NNW,9.0,0.0,Fair,False,False,False,False,False,False,False,False,False,False,False,False,False,Day,Day,Day,Day
C-4586720,2,2021-03-03 04:39:00,2021-12-16 17:49:00,41.422515,-122.386858,41.422884,-122.38742,0.0387016737533,Roadwork on I-5 (I-5/Weed Blvd/US-97) from I-5/N Weed Blvd (I-5/Weed Blvd/US-97) to CA-97 - US-97 N.,87.0,N Weed Blvd,R,Weed,Siskiyou,CA,96094-2610,US,US/Pacific,KMHS,2021-07-05 09:56:00,82.0,82.0,35.0,26.42,10.0,CALM,0.0,0.0,Fair,False,False,False,False,False,False,False,False,False,False,False,True,False,Night,Night,Night,Night
C-4586721,4,2017-08-14 16:29:15,2017-08-15 02:39:46,47.305379,-122.21341,47.30801,-122.21343,0.181787201722,Closed at E Main St - Closed due to roadwork.,227.0,M St SE,R,Auburn,King,WA,98002-5725,US,US/Pacific,KSEA,2017-08-14 18:53:00,71.1,,41.0,29.95,10.0,North,9.2,,Mostly Cloudy,False,False,False,False,False,False,False,False,False,False,False,True,False,Day,Day,Day,Day
C-4586722,2,2020-06-25 07:01:31,2020-06-25 15:00:00,43.21842,-77.79251,43.21742,-77.75269,2.00621231949,At RT-261/CR-208/Manitou Rd - Roadwork. Roadway reduced to 1 lane.,1799.0,Hilton Parma Corners Rd,R,Spencerport,Monroe,NY,14559-9501,US,US/Eastern,KROC,2020-06-25 06:54:00,58.0,58.0,78.0,29.32,10.0,WSW,6.0,0.0,Fair,False,False,False,False,False,False,False,False,False,False,False,True,False,Day,Day,Day,Day
C-4586723,2,2019-07-21 16:03:24,2019-11-01 06:00:00,26.260427000000004,-80.084862,26.262223,-80.082288,0.202078846028,At SR-810/Hillsboro Blvd - Construction work.,2672.0,N Ocean Blvd,R,Pompano Beach,Broward,FL,33062-2943,US,US/Eastern,KPMP,2019-07-21 15:53:00,88.0,88.0,63.0,30.0,10.0,ESE,14.0,0.0,Fair,False,False,False,False,False,False,False,False,False,False,False,False,False,Day,Day,Day,Day
C-4586724,2,2021-12-14 14:44:30,2021-12-14 16:58:45,35.161488,-101.883867,35.164151000000004,-101.883906,0.1840089632189999,Slow traffic from Canyon Dr (N Western St) to SW 45th Ave (N Western St) due to roadwork.,4598.0,S Western St,R,Amarillo,Randall,TX,79109-8042,US,US/Central,KAMA,2021-12-14 14:53:00,75.0,75.0,13.0,26.26,10.0,SSW,23.0,0.0,Fair / Windy,False,False,False,False,False,False,False,False,False,False,False,False,False,Day,Day,Day,Day
C-4586725,2,2020-10-28 11:15:16,2020-10-29 02:27:01,42.684427,-87.914496,42.683637,-87.914516,0.0545932529077,Roadwork on County Hwy-H from Durand Ave to Braun Rd.,4132.0,County Road H,R,Sturtevant,Racine,WI,53177-2310,US,US/Central,KRAC,2020-10-28 10:53:00,43.0,36.0,49.0,29.28,10.0,WSW,14.0,0.0,Fair,False,False,True,True,False,False,False,False,False,False,False,True,False,Day,Day,Day,Day
C-4586726,2,2021-11-09 00:00:00,2021-11-12 00:45:00,39.73846,-104.987357,39.73844,-104.986087,0.0674902852957999,Construction on E 14TH AVE EB near N BROADWAY Expect delays.,1338.0,N Broadway,R,Denver,Denver,CO,80203-2104,US,US/Mountain,KBKF,2021-11-09 00:58:00,32.0,25.0,89.0,24.52,10.0,SW,8.0,0.0,Fair,True,False,True,False,False,False,False,False,True,False,False,True,False,Night,Night,Night,Night
C-4586727,2,2021-12-08 14:49:00,2021-12-08 15:10:30,39.707963,-84.024939,39.709635,-84.030231,0.304087914658,Slow traffic on US-35 W from US-35 (Xenia) (US-35) to Fairfield Rd (US-35) due to roadwork.,2270.0,US Highway 35,L,Dayton,Greene,OH,45434,US,US/Eastern,KFFO,2021-12-08 14:56:00,38.0,32.0,50.0,29.08,10.0,SW,10.0,0.0,Partly Cloudy,False,False,False,False,False,False,False,False,False,False,False,False,False,Day,Day,Day,Day
C-4586728,2,2021-01-26 07:00:00,2021-02-12 16:00:00,33.733837,-111.9946,33.736503000000006,-111.99548500000002,0.191093205574,Pinnacle Vista Dr FROM: 40th St TO: 40th St - restrictions - Road work flagging operations be prepared to stop,4012.0,E Pinnacle Vista Dr,L,Cave Creek,Maricopa,AZ,85331-6608,US,US/Mountain,KDVT,2021-01-26 06:53:00,40.0,34.0,83.0,28.2,10.0,S,8.0,0.0,Cloudy,False,False,False,False,False,False,False,False,False,False,False,False,False,Night,Night,Day,Day
C-4586729,2,2020-10-17 00:11:04,2020-10-17 00:35:42,34.269694,-84.752258,34.273114,-84.75595799999998,0.316967460007,Stationary traffic from Highway 411 NE to Family Lines Railroad due to roadwork.,3096.0,Highway 411 NE,R,White,Bartow,GA,30184-2744,US,US/Eastern,KVPC,2020-10-17 00:53:00,45.0,45.0,80.0,29.48,10.0,CALM,0.0,0.0,Fair,False,False,False,False,False,False,False,False,False,True,False,False,False,Night,Night,Night,Night
C-4586730,2,2021-10-27 12:29:00,2021-10-27 14:32:14,33.507728,-112.047533,33.509223,-112.04808,0.107994670033,Slow traffic from E Pierson St to N 15th St due to roadwork.,4834.0,N 16th St,L,Phoenix,Maricopa,AZ,85016-4606,US,US/Mountain,KPHX,2021-10-27 12:51:00,72.0,72.0,18.0,28.94,10.0,CALM,0.0,0.0,Fair,True,False,False,False,False,False,False,False,False,False,False,False,False,Day,Day,Day,Day
C-4586731,2,2021-10-14 09:44:00,2021-10-14 09:57:30,41.352587,-75.384578,41.356651,-75.419928,1.85476752563,Slow traffic on I-84 W from PA-191/Exit 17 (I-84) to PA-247/Exit 8 (I-84) due to roadwork.,,I-84 W,R,Sterling,Wayne,PA,18463,US,US/Eastern,KMPO,2021-10-14 09:53:00,63.0,63.0,78.0,28.01,10.0,NW,10.0,0.0,Fair,False,False,False,False,False,False,False,False,False,False,False,False,False,Day,Day,Day,Day
C-4586732,2,2021-06-23 22:37:00,2021-06-24 05:45:00,41.46767,-95.899454,41.49047,-95.900734,1.57672277842,Construction on I-880 EB near I-29 Allow extra time.,,I-29 N,R,Missouri Valley,Pottawattamie,IA,51555,US,US/Central,KBTA,2021-06-23 22:35:00,82.0,82.0,67.0,28.39,10.0,SSE,10.0,0.0,Fair,False,False,False,False,True,False,False,False,False,False,False,False,False,Night,Night,Night,Day
C-4586733,2,2020-11-20 13:44:00,2020-11-21 01:58:07,25.769985,-80.320054,25.769807,-80.328231,0.5089370494659999,Stationary traffic on FL-968 from NW 72nd Ave (W Flagler St/FL-968) to FL-973/87th Ave/Galloway Rd (W Flagler St/FL-968) due to roadwork.,,W Flagler St,R,Miami,Miami-Dade,FL,33144,US,US/Eastern,KMIA,2020-11-20 13:53:00,80.0,80.0,64.0,30.16,10.0,NE,16.0,0.0,Mostly Cloudy,False,False,False,False,False,False,False,False,False,False,False,True,False,Day,Day,Day,Day
C-4586734,2,2021-08-30 16:05:00,2021-08-30 18:07:50,41.707555,-87.701401,41.706146,-87.700179,0.115977427026,Stationary traffic from W 102nd St to S Troy St due to roadwork.,10201.0,S Kedzie Ave,L,Evergreen Park,Cook,IL,60805,US,US/Central,KMDW,2021-08-30 15:53:00,83.0,83.0,41.0,29.25,10.0,E,12.0,0.0,Fair,False,False,False,False,False,False,False,False,True,False,False,False,False,Day,Day,Day,Day
C-4586735,2,2021-12-21 12:19:00,2021-12-21 14:21:05,27.160735,-80.318895,27.161569,-80.320111,0.0943847117306,Stationary traffic on FL-714 - County Hwy-714 - County Hwy-76A from SW Sunshine Farms Way to SW Goldenglow Dr due to roadwork.,3679.0,SW 48th Ave,R,Palm City,Martin,FL,34990,US,US/Eastern,KSUA,2021-12-21 11:50:00,77.0,77.0,69.0,29.7,10.0,SSW,18.0,0.0,Mostly Cloudy,False,False,False,False,False,False,False,False,False,False,False,False,False,Day,Day,Day,Day
C-4586736,4,2021-04-05 13:32:38,2021-04-12 23:59:00,28.391344,-81.498154,28.392838,-81.496512,0.143584529812,Closed road from Lake St to Palm Pkwy due to roadwork.,8393.0,Lake St,L,Orlando,Orange,FL,32836,US,US/Eastern,KISM,2021-04-05 13:56:00,76.0,76.0,37.0,30.09,10.0,VAR,6.0,0.0,Mostly Cloudy,False,False,True,False,False,False,False,False,False,False,False,False,False,Day,Day,Day,Day
C-4586737,2,2021-09-11 01:45:00,2021-09-11 01:59:00,34.508496,-85.692554,34.526426,-85.690554,1.24406629986,Slow traffic on I-59 N from 49th St NW/US-11/AL-7 (I-59) to AL-40/AL-117/Exit 231 (I-59) due to roadwork.,,I-59 N,R,Fort Payne,DeKalb,AL,35967,US,US/Central,K4A9,2021-09-11 01:55:00,56.0,56.0,96.0,29.22,10.0,NE,3.0,0.0,Fair,False,False,False,False,False,False,False,False,False,False,False,False,False,Night,Night,Night,Night
C-4586738,2,2017-12-01 11:33:05,2017-12-01 15:30:00,40.502041,-74.644913,,,0.0,Right hand shoulder closed due to construction work on US-206 both ways at County Hwy-514 Amwell Rd.,495.0,US Highway 206,L,Hillsborough,Somerset,NJ,08844-1527,US,US/Eastern,KSMQ,2017-12-01 11:53:00,51.1,,46.0,30.19,10.0,NNW,11.5,,Scattered Clouds,False,False,True,False,False,False,False,False,False,False,False,False,False,Day,Day,Day,Day
C-4586739,3,2021-04-23 12:08:27,2021-04-23 14:01:00,32.564789000000005,-117.070778,,,0.5,Entry ramp to CA-905 Eastbound at Exit 3 from I-5 Northbound closed due to bridge maintenance work.,1399.0,W San Ysidro Blvd,L,San Ysidro,San Diego,CA,92173-1179,US,US/Pacific,KSDM,2021-04-23 11:42:00,59.0,59.0,77.0,29.56,7.0,W,10.0,,Cloudy,False,False,False,False,False,False,False,False,False,False,False,False,False,Day,Day,Day,Day
C-4586740,2,2021-05-07 05:00:30,2021-05-07 08:30:30,42.151814,-87.973637,42.153611,-87.96068199999998,0.6751096506,Stationary traffic from N Arlington Heights Rd (W Lake Cook Rd) to IL-83/McHenry Rd (E Lake Cook Rd) due to roadwork.,603.0,W Lake Cook Rd,L,Buffalo Grove,Cook,IL,60089,US,US/Central,KPWK,2021-05-07 04:52:00,47.0,47.0,66.0,29.29,10.0,SSW,3.0,0.0,Cloudy,False,False,True,False,False,False,False,False,False,False,False,False,False,Night,Night,Day,Day
C-4586741,2,2020-07-15 07:00:00,2020-10-14 07:43:59,40.658676,-73.900196,40.658306,-73.901045,0.0513206173419,Construction on POWELL ST near HEGEMAN AVE Allow extra time.,,Junius St,R,Brooklyn,Kings,NY,11212,US,US/Eastern,KJRB,2020-07-15 06:51:00,72.0,72.0,81.0,30.05,10.0,VAR,5.0,0.0,Cloudy,False,False,False,False,False,False,False,False,False,False,False,True,False,Day,Day,Day,Day
C-4586742,2,2021-11-16 23:33:00,2021-11-16 23:46:30,41.344499,-75.333798,41.341712,-75.318329,0.825206726892,Slow traffic on I-84 E from PA-191/Exit 17 (I-84) to PA-507/Exit 20 (I-84) due to roadwork.,,I-84 E,R,Greentown,Pike,PA,18426,US,US/Eastern,KMPO,2021-11-16 23:53:00,24.0,24.0,91.0,28.17,10.0,CALM,0.0,0.0,Fair,False,False,False,False,True,False,False,False,False,False,False,False,False,Night,Night,Night,Night
C-4586743,2,2021-07-30 08:00:00,2021-07-30 08:14:05,40.764567,-74.023732,40.756754,-73.996004,1.54828396094,Slow traffic on NY-495 E - NJ-495 E from Park Ave (NJ-495) to 35th St/36th St (NY-495) due to roadwork.,,Lincoln Tunl E,R,Weehawken,Hudson,NJ,07086,US,US/Eastern,KNYC,2021-07-30 07:51:00,70.0,70.0,73.0,29.67,10.0,NW,8.0,0.0,Fair,False,False,True,False,False,False,False,False,False,False,False,False,False,Day,Day,Day,Day
C-4586744,2,2021-08-06 16:21:01,2021-08-06 16:41:01,45.549694,-94.201211,45.551786,-94.20503,0.234598982232,Slow traffic on MN-15 - County Hwy-75 - MN-23 from 33rd Ave S to W Division St due to roadwork.,3535.0,2nd St S,L,Saint Cloud,Stearns,MN,56301-3764,US,US/Central,KSTC,2021-08-06 15:53:00,86.0,86.0,36.0,28.8,9.0,NNE,7.0,0.0,Fair,False,False,True,False,False,False,False,False,False,False,False,False,False,Day,Day,Day,Day
C-4586745,2,2020-06-05 00:00:00,2020-06-06 23:59:00,43.19802,-77.89945999999998,43.19803,-77.90012,0.0332504327409,At RT-19/Lake Rd S - Roadwork. Lane blocked.,5598.0,Brockport Spencerport Rd,R,Brockport,Monroe,NY,14420-2808,US,US/Eastern,KROC,2020-06-05 02:54:00,66.0,66.0,93.0,29.23,10.0,SW,7.0,0.0,Mostly Cloudy,False,False,False,False,False,False,False,False,False,False,False,True,False,Night,Night,Night,Night
C-4586746,2,2021-11-17 12:21:52,2021-11-17 15:00:00,42.75272,-73.770271,,,1.25,Entry ramp to I-87 Southbound from NY-7 Westbound lane blocked due to construction work.,,Adirondack Northway S,R,Latham,Albany,NY,12110,US,US/Eastern,KALB,2021-11-17 12:51:00,44.0,39.0,55.0,29.89,10.0,SSE,10.0,0.0,Cloudy,False,False,False,True,False,False,False,False,False,False,False,False,False,Day,Day,Day,Day
C-4586747,4,2021-05-16 07:01:32,2021-05-17 07:48:25,38.995789,-76.482599,38.996029,-76.482989,0.0267126550285,Construction on MD-648 WB near HOMEWOOD RD Expect delays.,,Baltimore Annapolis Blvd,R,Annapolis,Anne Arundel,MD,21409,US,US/Eastern,KNAK,2021-05-16 06:54:00,57.0,57.0,74.0,30.26,10.0,CALM,0.0,0.0,Fair,False,False,False,False,False,False,False,False,False,False,False,True,False,Day,Day,Day,Day
C-4586748,2,2021-10-21 16:10:00,2021-11-16 19:57:29,37.233091,-82.99197,37.230215,-82.997801,0.3773365822119999,Stationary traffic on KY-15 from KY-160 (KY-15) to Oakwood Ave (KY-15) due to roadwork.,1354.0,Smithboro Rd,R,Sassafras,Knott,KY,41759-8856,US,US/Eastern,KJKL,2021-10-21 16:16:00,71.0,71.0,68.0,28.47,10.0,VAR,3.0,0.0,Mostly Cloudy,False,False,False,False,False,False,False,False,False,False,False,False,False,Day,Day,Day,Day
C-4586749,2,2021-04-06 07:00:00,2021-11-19 13:21:07,33.445002,-112.065079,33.451304,-112.065135,0.4354386982670001,Slow traffic from E Lincoln St (S 7th St) to E Van Buren St (N 7th St) due to roadwork.,,S 7th St,R,Phoenix,Maricopa,AZ,85004,US,US/Mountain,KPHX,2021-09-25 00:47:00,81.0,81.0,51.0,28.75,10.0,NW,8.0,0.07,Light Rain with Thunder,False,False,True,False,False,False,False,False,False,False,False,True,False,Day,Day,Day,Day
C-4586750,2,2021-08-03 13:18:38,2021-08-03 14:35:43,47.325625,-106.199127,47.325637,-106.21515,0.7504160420199999,Stationary traffic on MT-200 from MT-24/South Flowing Wells Rd (MT-200) to MT-59/MT-22 (MT-200) due to roadwork.,3286.0,Highway 200 E,R,Cohagen,Garfield,MT,59322,US,US/Mountain,KJDN,2021-08-03 12:48:00,91.0,91.0,24.0,27.24,,NW,14.0,0.0,,False,False,False,False,False,False,False,False,False,False,False,False,False,Day,Day,Day,Day
C-4586751,4,2016-09-23 09:01:57,2016-09-23 15:01:57,40.64219,-74.14211999999998,40.63848,-74.1437,0.269389208874,Closed between New York/New Jersey State Line and RT-440/Dr Martin L King Jr Expy - Closed due to roadwork.,,Bayonne Brg S,R,Staten Island,Richmond,NY,10302-1116,US,US/Eastern,KEWR,2016-09-23 08:51:00,70.0,,76.0,30.05,10.0,SW,4.6,,Scattered Clouds,False,False,False,False,False,False,False,False,False,False,False,False,False,Day,Day,Day,Day
C-4586752,3,2018-10-08 02:56:32,2018-10-08 05:00:00,37.563503,-122.038315,,,11.279999733,Intermittent lane closures due to construction on I-880 Northbound from Exit 13 Fremont Blvd to Exit 21 CA-84 Decoto Rd.,,Decoto Rd,R,Fremont,Alameda,CA,94536,US,US/Pacific,KPAO,2018-10-08 06:47:00,60.8,,48.0,29.83,10.0,West,5.8,,Clear,False,False,False,False,False,False,False,False,False,False,False,False,False,Night,Night,Night,Night
C-4586753,2,2019-08-25 13:28:47,2019-08-29 13:26:22,33.37807,-111.99556,33.390712,-111.99555,0.8734792004709999,Between E Baseline Rd and S 40th St - Construction work.,4005.0,E Baseline Rd,R,Phoenix,Maricopa,AZ,85042,US,US/Mountain,KPHX,2019-08-25 13:51:00,97.0,97.0,39.0,28.73,10.0,WNW,12.0,0.0,Partly Cloudy,False,False,True,False,False,False,False,False,False,False,False,True,False,Day,Day,Day,Day
C-4586754,2,2021-05-26 09:34:30,2021-05-26 09:52:30,30.438998,-91.189169,30.434834,-91.177198,0.768979073513,Slow traffic on I-10 E from LA-1/Exit 153 (I-10) to Washington St/Exit 155/Exit 156 (I-10) due to roadwork.,,I-10 E,R,Baton Rouge,East Baton Rouge,LA,70802,US,US/Central,KBTR,2021-05-26 09:53:00,80.0,80.0,67.0,30.12,10.0,VAR,6.0,0.0,Partly Cloudy,False,False,False,False,False,False,False,False,False,False,False,False,False,Day,Day,Day,Day
C-4586755,2,2021-10-16 09:06:30,2021-10-16 09:26:30,37.355532,-120.635525,37.353895,-120.628072,0.424672637647,Slow traffic on CA-99 S from CR-J18/Westside Blvd/Central Ave (Campbell Blvd/CA-99) to CA-99/Atwater Blvd (CA-99) due to roadwork.,,CA-99 S,R,Atwater,Merced,CA,95301,US,US/Pacific,KMER,2021-10-16 09:45:00,64.0,64.0,40.0,29.85,6.0,CALM,0.0,0.0,Haze,False,False,False,False,True,False,False,False,False,False,False,False,False,Day,Day,Day,Day
C-4586756,2,2021-09-07 17:27:00,2021-09-07 18:02:00,33.771321,-117.9899,33.772238,-117.992514,0.162955392788,Stationary traffic from exit [8] to Beach Blvd due to roadwork.,13198.0,Coast St,R,Garden Grove,Orange,CA,92844-1015,US,US/Pacific,KSLI,2021-09-07 16:58:00,78.0,78.0,69.0,29.83,10.0,SSW,10.0,0.0,Fair,False,False,True,False,False,False,False,False,False,False,False,True,False,Day,Day,Day,Day
C-4586757,3,2018-02-20 23:00:00,2018-02-21 05:00:00,39.252926,-84.445206,,,0.6800000071529999,Exit ramp from I-75 Southbound to Glendale Milford Rd closed due to bridge maintenance work. Detour in operation - The detour uses south I-75 to Shepherd Lane to north I-75 to Glendale Milford Road.,,Access Rd,R,Cincinnati,Hamilton,OH,45215,US,US/Eastern,KLUK,2018-02-20 22:53:00,69.1,,65.0,30.13,10.0,South,10.4,,Mostly Cloudy,False,False,False,False,False,False,False,False,False,False,False,False,False,Night,Night,Night,Night
C-4586758,4,2018-08-15 11:02:39,2018-08-15 16:01:58,42.88021,-78.87884,42.83744,-78.85585,3.17625113934,Closed between I-190/New York State Thruway and Fuhrmann Blvd/Tifft St - Closed. Construction work.,,Buffalo Skwy S,R,Buffalo,Erie,NY,14202,US,US/Eastern,KBUF,2018-08-15 10:54:00,79.0,,72.0,29.95,10.0,SW,12.7,,Scattered Clouds,False,False,False,False,False,False,False,False,False,False,False,False,False,Day,Day,Day,Day
C-4586759,3,2017-04-08 17:00:00,2017-04-08 23:59:00,40.678349,-80.103889,,,38.04,Intermittent lane closures due to construction on I-76 both ways between Exit 10 I-376 and Exit 28 I-79.,,I-76 E,R,Cranberry Township,Butler,PA,16066,US,US/Eastern,KBTP,2017-04-08 16:55:00,55.4,,31.0,30.03,10.0,West,8.1,,Clear,False,False,False,False,False,False,False,False,False,False,False,False,False,Day,Day,Day,Day
C-4586760,2,2020-11-24 14:02:00,2020-11-25 03:06:38,25.947981,-80.14873,25.947445,-80.147976,0.0597156338494999,Slow traffic on FL-860 from NE 186th Ter to Biscayne Blvd due to roadwork.,2601.0,NE 186th Ter,L,Miami,Miami-Dade,FL,33180-2624,US,US/Eastern,KHWO,2020-11-24 13:53:00,79.0,79.0,62.0,30.11,10.0,NE,15.0,0.0,Partly Cloudy,False,False,True,False,False,False,False,False,True,False,False,True,False,Day,Day,Day,Day
C-4586761,2,2020-12-22 14:14:30,2020-12-23 00:19:13,35.110088,-92.440261,35.111659,-92.436668,0.23026934707,Stationary traffic on US-65 Bus S - AR-287 - US-65 Bus N from US-64 (US-65 Bus) to I-40 (US-65 Bus) due to roadwork.,1113.0,Skyline Dr,R,Conway,Faulkner,AR,72032-3530,US,US/Central,KLRF,2020-12-22 13:56:00,62.0,62.0,34.0,29.83,10.0,SE,9.0,0.0,Fair,False,False,False,False,False,False,False,False,False,False,False,False,False,Day,Day,Day,Day
C-4586762,4,2021-06-15 01:00:00,2021-06-18 01:45:00,42.471725,-89.058087,42.472379,-89.059124,0.0695337075196,Construction on PRAIRIE HILL RD WB near IL-2 Expect delays.,,Prairie Hill Rd,R,South Beloit,Winnebago,IL,61080,US,US/Central,KJVL,2021-06-15 00:55:00,57.0,57.0,100.0,29.19,10.0,CALM,0.0,0.0,Fair,False,False,False,False,False,False,False,False,False,False,False,False,False,Night,Night,Night,Night
C-4586763,2,2021-11-03 22:19:00,2021-11-03 22:33:30,36.921896,-104.451232,36.941193,-104.467559,1.60960112442,Slow traffic on US-85 N - I-25 N - US-87 W from I-25/Exit 454 (I-25) to Exit 460 (I-25) due to roadwork.,,I-25 N,R,Raton,Colfax,NM,87740,US,US/Mountain,KRTN,2021-11-03 21:53:00,37.0,32.0,59.0,23.95,10.0,N,6.0,0.0,Fair,False,False,False,False,False,False,False,False,False,False,False,False,False,Night,Night,Night,Night
C-4586764,2,2021-11-29 15:51:30,2021-11-29 17:55:51,34.186006,-118.322583,34.184913,-118.319819,0.175100765173,Slow traffic from Empire Ave to I-5 S due to roadwork.,1053.0,N Victory Pl,R,Burbank,Los Angeles,CA,91502-1634,US,US/Pacific,KBUR,2021-11-29 15:53:00,79.0,79.0,18.0,29.17,10.0,S,6.0,0.0,Fair,False,False,False,False,False,False,False,False,True,False,False,False,False,Day,Day,Day,Day
C-4586765,2,2020-12-16 17:06:00,2020-12-16 22:44:45,46.545701,-122.486009,46.54682800000001,-122.487429,0.103038143728,Maintenance on SR 122 both directions at milepost 7 near Jerrells Road. The crew will be alternating traffic through the work zone beginning at 9:06 am on December 16 2020 until further notice.,267.0,Harmony Rd,L,Mossyrock,Lewis,WA,98564-9727,US,US/Pacific,KTDO,2020-12-16 17:15:00,48.0,43.0,100.0,29.35,6.0,S,13.0,0.0,Light Drizzle,False,False,False,False,False,False,False,False,False,False,False,False,False,Night,Night,Day,Day
C-4586766,2,2020-11-13 21:36:07,2020-11-14 03:03:37,39.764234,-105.592645,39.740209,-105.50016399999998,5.1854819342,Roadwork on CR-308/Exit 235 (I-70) from I-70/Exit 241 (I-70) to US-40 E - I-70 E - US-6 E.,,I-70 E,R,Dumont,Clear Creek,CO,80436,US,US/Mountain,K0CO,2020-11-13 21:53:00,30.0,18.0,40.0,20.59,10.0,S,17.0,0.0,Fair,False,False,False,False,False,False,False,False,False,False,False,False,False,Night,Night,Night,Night
C-4586767,2,2020-10-01 12:11:30,2020-10-01 23:40:26,39.9986,-75.23206400000002,39.996471,-75.234832,0.207615188321,Stationary traffic on US-1 N - US-1 S from Hampton Ter to Overbrook Ave due to roadwork.,109.0,W City Ave,R,Bala Cynwyd,Montgomery,PA,19004-3113,US,US/Eastern,KLOM,2020-10-01 12:15:00,67.0,67.0,57.0,29.6,10.0,W,3.0,0.0,Cloudy,True,True,True,False,False,False,False,False,False,True,True,False,False,Day,Day,Day,Day
C-4586768,2,2021-03-04 05:54:00,2021-11-05 12:53:00,33.495643,-112.083485,33.494879,-112.08401,0.0608405564383,Stationary traffic from W MacKenzie Dr to N 11th Ave due to roadwork.,4141.0,N 7th Ave,R,Phoenix,Maricopa,AZ,85013-3071,US,US/Mountain,KPHX,2021-03-04 05:51:00,54.0,54.0,57.0,28.89,10.0,ESE,5.0,0.0,Partly Cloudy,True,False,False,False,False,False,False,False,True,False,False,False,False,Night,Night,Night,Day
C-4586769,2,2020-08-28 14:13:00,2020-08-29 15:10:34,41.577202,-77.114138,41.634757,-77.114713,3.97678271575,Roadwork on US 15 northbound between Exit: SEBRING and 3 miles NORTH of Exit: SEBRING. There is a lane restriction.,,Appalachian Trwy N,R,Liberty,Tioga,PA,16930,US,US/Eastern,KIPT,2020-08-28 13:54:00,83.0,83.0,60.0,29.26,10.0,WSW,10.0,0.0,Light Rain,False,False,False,False,False,False,False,False,False,False,False,False,False,Day,Day,Day,Day
C-4586770,2,2020-11-15 20:46:40,2020-11-16 03:53:00,28.597382,-81.244578,28.598064,-81.244606,0.0471523168505,Stationary traffic from Buck Rd/Kendal Dr (N Dean Rd) to McCulloch Rd/Lake Georgia Dr (N Dean Rd) due to roadwork.,10000.0,University Blvd,R,Orlando,Orange,FL,32817-1953,US,US/Eastern,KORL,2020-11-15 20:53:00,76.0,76.0,87.0,29.97,10.0,ENE,5.0,0.0,Cloudy,False,False,True,False,False,False,False,False,False,False,False,True,False,Night,Night,Night,Night
C-4586771,2,2021-03-29 11:03:00,2021-12-29 13:37:49,26.257693,-80.186272,26.260823,-80.18628100000002,0.216263122206,Slow traffic from Coconut Creek Pkwy (46th Ave/Lyons Rd) to FL-834/W Sample Rd/NW 36th St (Lyons Rd) due to roadwork.,2266.0,Lyons Rd,L,Pompano Beach,Broward,FL,33066,US,US/Eastern,KFXE,2021-07-07 13:53:00,88.0,88.0,63.0,30.03,10.0,SSE,13.0,0.0,Fair,False,False,False,False,False,False,False,False,False,False,False,False,False,Day,Day,Day,Day
C-4586772,2,2021-01-13 13:08:30,2021-01-13 17:17:00,28.257065,-81.492056,28.255342,-81.484276,0.488228960549,Slow traffic on US-92 E - US-17 N - US-92 W - US-17 S from CR-532/Osceola Polk Line Rd (US-92/US-17) to CR-535/Broad St/Ham Brown Rd (US-92/US-17) due to roadwork.,5220.0,S Orange Blossom Trl,L,Kissimmee,Osceola,FL,34758,US,US/Eastern,KISM,2021-01-13 12:56:00,58.0,58.0,81.0,30.03,10.0,NNW,7.0,0.0,Cloudy,False,False,True,False,False,False,True,False,False,False,False,False,False,Day,Day,Day,Day
C-4586773,2,2020-01-14 19:47:00,2020-12-02 18:41:04,40.168619,-80.204262,40.177412,-80.222045,1.11826860849,Roadwork on I-70 westbound between Exit 25: PA 519 - EIGHTY-FOUR/GLYDE and Exit 20: PA 136 - BEAU STREET. There is a shoulder closed.,,I-70 W,R,Washington,Washington,PA,15301,US,US/Eastern,KAFJ,2020-01-14 19:53:00,45.0,40.0,76.0,28.88,10.0,WSW,9.0,0.0,Fair,False,False,False,False,False,False,False,False,False,False,False,False,False,Night,Night,Night,Night
C-4586774,4,2017-10-23 19:01:54,2017-10-24 01:01:54,40.644837,-74.14101099999998,40.64219,-74.14211999999998,0.191909426629,Closed at New Jersey/New York State Line - Closed. Construction work.,,Bayonne Brg N,R,Bayonne,Hudson,NJ,07002,US,US/Eastern,KEWR,2017-10-23 18:51:00,68.0,,84.0,30.1,10.0,SSE,13.8,,Overcast,False,False,False,False,False,False,False,False,False,False,False,False,False,Night,Night,Day,Day
C-4586775,2,2021-05-24 18:02:00,2021-05-24 23:55:29,40.335247,-118.319242,40.26298,-118.37149,5.70195092119,Roadwork on NV-401/Exit 129 (I-80) from Coal Canyon Rd/Exit 112 (I-80) to I-80 W - US-95 S.,,I-80 W,R,Lovelock,Pershing,NV,89419,US,US/Pacific,KLOL,2021-05-24 17:53:00,71.0,71.0,26.0,26.02,10.0,SSE,9.0,0.0,Cloudy,False,False,False,False,False,False,False,False,False,False,False,False,False,Day,Day,Day,Day
C-4586776,2,2021-07-21 08:00:00,2021-08-05 15:00:00,43.171684,-93.355688,43.19368,-93.351758,1.5326222853600002,Lane closed on I-35 N - IA-27 N from US-18/Exit 194 (I-35) to CR-B20/Exit 197 (I-35) due to roadwork.,,I-35 N,R,Clear Lake,Cerro Gordo,IA,50428,US,US/Central,KMCW,2021-07-21 07:53:00,71.0,71.0,87.0,28.84,5.0,CALM,0.0,0.0,Fair,False,False,False,False,True,False,False,False,False,False,False,False,False,Day,Day,Day,Day
C-4586777,2,2020-06-19 08:08:26,2020-06-20 03:59:59,41.33557,-73.67733,41.35084000000001,-73.66530999999998,1.2255257541700002,At CR-135/Croton Falls Rd - Roadwork. Single alternate lane traffic.,396.0,Somerstown Tpke,R,Somers,Westchester,NY,10589-3207,US,US/Eastern,KDXR,2020-06-19 07:53:00,69.0,69.0,84.0,29.69,10.0,W,6.0,0.0,Cloudy,False,False,False,False,False,False,False,False,False,False,False,False,False,Day,Day,Day,Day
C-4586778,2,2020-10-06 11:22:00,2020-10-06 16:32:09,47.376982,-122.243435,47.377995,-122.24188,0.100955882117,Stationary traffic on WA-516 from WA-167 N to 74th Ave S due to roadwork.,25117.0,74th Ave S,R,Kent,King,WA,98032-6029,US,US/Pacific,KSEA,2020-10-06 11:35:00,60.0,60.0,83.0,29.66,4.0,SW,7.0,0.0,Haze,False,False,True,False,False,False,False,False,False,False,False,True,False,Day,Day,Day,Day
C-4586779,2,2021-11-03 11:08:00,2021-11-03 14:40:00,39.740095,-104.851478,39.741542,-104.846942,0.260908625232,Stationary traffic on US-40 E - I-70 Bus E - US-287 S from Nome St to E 16th Ave due to roadwork.,11716.0,E Colfax Ave,R,Aurora,Arapahoe,CO,80010-5016,US,US/Mountain,KBKF,2021-11-03 10:58:00,52.0,52.0,52.0,24.61,10.0,E,5.0,0.0,Partly Cloudy,False,False,False,False,False,False,False,False,False,False,False,False,False,Day,Day,Day,Day
C-4586780,4,2019-04-03 04:03:01,2019-04-03 09:02:27,47.46766,-122.21853,47.46771,-122.21739,0.0533585724976,Ramp closed to WA-167 NB and I-405 NB - Closed due to roadwork.,,I-405 N,R,Renton,King,WA,98057,US,US/Pacific,KRNT,2019-04-03 03:53:00,54.0,54.0,77.0,29.74,10.0,CALM,0.0,0.0,Cloudy,False,False,False,False,True,False,False,False,False,False,False,False,False,Night,Night,Night,Night
C-4586781,2,2021-09-29 16:00:00,2021-09-29 19:02:53,28.567544,-81.21401800000002,28.565916,-81.207697,0.399724307383,Slow traffic on FL-50 from Armone St to Iroquois Trl due to roadwork.,11478.0,E Colonial Dr,R,Orlando,Orange,FL,32817-4603,US,US/Eastern,KORL,2021-09-29 15:53:00,83.0,83.0,56.0,29.86,10.0,E,9.0,0.0,Mostly Cloudy,False,False,True,False,False,False,False,False,False,False,False,False,False,Day,Day,Day,Day
C-4586782,2,2021-09-13 12:48:30,2021-09-15 02:00:36,43.29035,-89.75904,43.29435,-89.759065,0.27637653793,Roadwork on WI-60 (US-12) from Prairie Rd (US-12) to US-12.,,S9929 US Highway 12,L,Prairie Du Sac,Sauk,WI,53578-9755,US,US/Central,KC29,2021-09-13 12:55:00,67.0,67.0,92.0,29.05,10.0,E,5.0,0.01,Cloudy,False,False,False,False,False,False,False,False,False,False,False,False,False,Day,Day,Day,Day
C-4586783,2,2021-05-06 06:59:30,2021-05-06 16:10:30,33.48067,-112.10842,33.482811,-112.112817,0.293411026921,Slow traffic from N 23rd Ave to I-17 N due to roadwork.,2330.0,W Thomas Rd,R,Phoenix,Maricopa,AZ,85015-5903,US,US/Mountain,KPHX,2021-05-06 06:51:00,71.0,71.0,28.0,28.73,10.0,E,7.0,0.0,Fair,False,False,True,False,False,True,False,False,False,False,False,True,False,Day,Day,Day,Day
C-4586784,2,2021-03-23 09:01:00,2021-08-26 15:24:50,33.750418,-118.259528,33.749708,-118.280598,1.21144485074,Lane closure due to Bridge Work between Ferry St and Harbor Freeway Route 110,,CA-47 S,R,San Pedro,Los Angeles,CA,90731,US,US/Pacific,KTOA,2021-03-23 08:52:00,55.0,55.0,82.0,29.79,10.0,WSW,6.0,,Fair,False,False,False,False,True,False,False,False,False,False,False,False,False,Day,Day,Day,Day
C-4586785,2,2019-04-30 15:00:40,2019-05-05 10:10:59,40.514341,-74.235737,40.513538,-74.23729,0.0986556036923999,At Craig Ave - Roadwork.,1.0,Bedell Ave,L,Staten Island,Richmond,NY,10307-2001,US,US/Eastern,KLDJ,2019-04-30 14:55:00,62.0,62.0,69.0,30.18,10.0,CALM,0.0,0.0,Cloudy,False,False,False,False,False,False,False,False,False,False,False,False,False,Day,Day,Day,Day
C-4586786,2,2020-08-12 03:01:00,2020-08-12 13:44:00,34.156655,-118.410569,34.155505,-118.401019,0.551777780428,Construction on US-101 SB near SEPULVEDA BLVD Expect delays.,,US-101 S,R,Studio City,Los Angeles,CA,91604,US,US/Pacific,KBUR,2020-08-12 02:53:00,63.0,63.0,75.0,29.05,10.0,SE,3.0,0.0,Fair,False,False,False,False,True,False,False,False,False,False,False,False,False,Night,Night,Night,Night
C-4586787,2,2021-11-19 17:11:30,2021-11-19 19:43:53,33.567217,-112.200233,33.566512,-112.203007,0.166966724585,Slow traffic from N 65th Ave to W Golden Ln due to roadwork.,6553.0,W Olive Ave,L,Glendale,Maricopa,AZ,85302,US,US/Mountain,KGEU,2021-11-19 17:58:00,72.0,72.0,21.0,28.81,9.0,W,3.0,0.0,Fair,True,False,False,False,False,False,False,False,True,False,False,False,False,Day,Day,Day,Day
C-4586788,2,2021-05-07 00:00:00,2021-05-21 23:59:59,39.848042,-95.564761,39.846577,-95.563885,0.111378779143,Roadwork on US-75 (W 1st St/US-36) from Oregon St/Kestrel (US-36) to US-36 E.,,Oregon St,R,Hiawatha,Brown,KS,66434,US,US/Central,KFNB,2021-05-07 00:53:00,48.0,48.0,61.0,29.09,10.0,CALM,0.0,0.0,Fair,False,False,False,False,False,False,False,False,False,False,False,False,False,Night,Night,Night,Night
C-4586789,2,2020-10-02 12:40:00,2020-10-02 22:13:21,27.838381,-82.786953,27.839477,-82.785813,0.102886636037,Queuing traffic on US-19 Alt N - FL-595 - FL-694 - County Hwy-694 from US-19 Alt to 104th Ln due to resurfacing work.,7275.0,Seminole Blvd,R,Seminole,Pinellas,FL,33772,US,US/Eastern,KPIE,2020-10-02 12:53:00,82.0,82.0,51.0,29.99,10.0,NNE,7.0,0.0,Fair,False,False,True,False,False,False,False,False,True,False,False,False,False,Day,Day,Day,Day
C-4586790,4,2019-05-06 18:02:03,2019-05-06 22:38:48,32.289522,-96.589871,32.28946,-96.60417,0.8351984348129999,Closed at FM-1183/S Oak Grove Rd - Closed due to roadwork.,5290.0,Sterilite Dr,R,Ennis,Ellis,TX,75119-5438,US,US/Central,KLNC,2019-05-06 17:55:00,77.0,77.0,67.0,29.4,10.0,SSE,5.0,0.0,Fair,False,False,False,False,False,False,False,False,False,False,False,False,False,Day,Day,Day,Day
C-4586791,4,2018-03-24 08:20:00,2018-03-26 05:00:00,42.926636,-85.682039,42.9135,-85.67783399999998,0.932215502709,Between Hall St/Exit 83 and M-11/28th St/Exit 81 - Bridge maintenance work.,,US-131 S,R,Grand Rapids,Kent,MI,49507,US,US/Eastern,KGRR,2018-03-24 10:53:00,35.1,23.5,52.0,30.32,10.0,East,21.9,,Mostly Cloudy,False,False,False,False,False,False,False,False,False,False,False,False,False,Day,Day,Day,Day
C-4586792,2,2016-09-28 09:00:48,2016-09-28 15:00:48,27.60257,-82.642067,27.602482,-82.641986,0.00784643573217,At Manatee County Rest Area - Construction work.,,I-275 S,R,Palmetto,Manatee,FL,34221,US,US/Eastern,KSRQ,2016-09-28 08:53:00,82.0,,79.0,29.98,10.0,SE,6.9,,Clear,False,False,False,False,False,False,False,False,False,False,False,False,False,Day,Day,Day,Day
