ID,Severity,Start_Time,End_Time,Start_Lat,Start_Lng,End_Lat,End_Lng,Distance(mi),Description,Number,Street,Side,City,County,State,Zipcode,Country,Timezone,Airport_Code,Weather_Timestamp,Temperature(F),Wind_Chill(F),Humidity(%),Pressure(in),Visibility(mi),Wind_Direction,Wind_Speed(mph),Precipitation(in),Weather_Condition,Amenity,Bump,Crossing,Give_Way,Junction,No_Exit,Railway,Roundabout,Station,Stop,Traffic_Calming,Traffic_Signal,Turning_Loop,Sunrise_Sunset,Civil_Twilight,Nautical_Twilight,Astronomical_Twilight
C-2254339,1,2020-05-18 04:50:32.000000000,2020-05-19 04:50:32.000000000,28.499,-81.61684,28.51535,-81.59316,1.8284785953,At CR-535/Stoneybrook West Pkwy/Exit 19 - Construction work.,,Daniel Webster Western Beltway N,R,Winter Garden,Orange,FL,34787,US,US/Eastern,KORL,2020-05-18 04:53:00,75.0,75.0,84.0,29.81,10.0,SSW,5.0,0.0,Fair,False,False,False,False,False,False,False,False,False,False,False,False,False,Night,Night,Night,Night
C-2254340,2,2019-06-03 08:01:42.000000000,2019-06-07 08:01:31.000000000,39.149284,-76.634341,39.152451,-76.636462,0.2465703633130001,Between MD-174/Quarterfield Rd and I-97/Exit 13 - Bridge maintenance work. Lane blocked.,,MD-100 W,R,Glen Burnie,Anne Arundel,MD,21061,US,US/Eastern,KBWI,2019-06-03 07:54:00,63.0,63.0,67.0,29.78,10.0,WNW,5.0,0.0,Partly Cloudy,False,False,False,False,False,False,False,False,False,False,False,False,False,Day,Day,Day,Day
C-2254341,2,2021-11-27 13:13:00.000000000,2021-11-27 15:42:27.000000000,42.321113,-83.080285,42.322634,-83.081693,0.127349550225,Stationary traffic from W Fort St to I-96 W due to roadwork.,782.0,Ambassador Brg,R,Detroit,Wayne,MI,48216,US,US/Eastern,KDET,2021-11-27 13:12:00,32.0,25.0,85.0,29.28,1.0,S,8.0,0.0,Light Snow,False,False,False,False,True,False,False,False,False,False,False,False,False,Day,Day,Day,Day
C-2254342,2,2021-10-07 04:06:30.000000000,2021-10-07 04:19:00.000000000,47.393571,-121.473823,47.428391,-121.419983,3.48217877244,Slow traffic on I-90 E from Asahel Curtis Rd/Exit 47 (I-90) to WA-906/Exit 52 (I-90) due to roadwork.,,I-90 E,R,North Bend,King,WA,98045,US,US/Pacific,KRNT,2021-10-07 04:13:00,46.0,46.0,93.0,30.16,10.0,CALM,0.0,0.0,Mostly Cloudy,False,False,False,False,False,False,False,False,False,False,False,False,False,Night,Night,Night,Night
C-2254343,2,2016-10-12 09:01:27.000000000,2016-10-12 15:01:27.000000000,39.3796,-76.45923,39.37991,-76.47275,0.7223707602600001,Between Honeygo Blvd and Perry Hall Blvd - Construction work.,,White Marsh Blvd,R,Perry Hall,Baltimore County,MD,21128,US,US/Eastern,KMTN,2016-10-12 08:45:00,51.8,,100.0,30.37,10.0,Calm,,,Scattered Clouds,False,False,False,False,False,False,False,False,False,False,False,False,False,Day,Day,Day,Day
C-2254344,2,2021-05-03 06:29:42.000000000,2021-05-06 18:50:42.000000000,25.815304,-80.27060999999998,25.810187,-80.26466500000002,0.5115977433250001,Slow traffic on US-27 S - FL-25 - FL-953 from SE 8th St to N Le Jeune Rd / S Royal Poinciana Blvd due to roadwork.,536.0,E Okeechobee Rd,R,Hialeah,Miami-Dade,FL,33010,US,US/Eastern,KMIA,2021-05-03 06:53:00,79.0,79.0,74.0,29.98,10.0,SSE,7.0,0.0,Partly Cloudy,False,False,False,False,False,False,False,False,False,False,False,False,False,Night,Day,Day,Day
C-2254345,2,2020-05-22 19:03:00.000000000,2020-09-14 01:04:07.000000000,40.664516,-79.114038,40.658077,-79.115158,0.448748580985,Roadwork on US 119 southbound between Exit: PA 110 WEST - CREEKSIDE and Exit: US 422 WEST - KITTANNING. There is a lane restriction.,,US-119 S,R,Indiana,Indiana,PA,15701,US,US/Eastern,KIDI,2020-05-22 18:55:00,68.0,68.0,78.0,28.54,10.0,CALM,0.0,0.0,Mostly Cloudy,False,False,False,False,False,False,False,False,False,False,False,False,False,Day,Day,Day,Day
C-2254346,2,2021-07-05 13:57:02.000000000,2021-07-05 16:20:00.000000000,41.181564,-79.146167,41.17283,-79.109308,2.0096001727,Stationary traffic on I-80 E from PA-949/Exit 73 (I-80) to PA-36/Exit 78 (I-80) due to roadwork.,,I-80 E,R,Brookville,Jefferson,PA,15825,US,US/Eastern,KDUJ,2021-07-05 13:53:00,83.0,83.0,56.0,28.16,10.0,WSW,12.0,0.0,Fair,False,False,False,False,False,False,False,False,False,False,False,False,False,Day,Day,Day,Day
C-2254347,2,2020-09-15 15:02:30.000000000,2020-09-16 01:50:50.000000000,43.65556,-116.297105,43.655347,-116.299145,0.103034771247,Stationary traffic on US-20 W - US-20 E - US-26 E - US-26 W from Millrun Ave to Mountain View Dr due to roadwork.,9274.0,W Chinden Blvd,R,Garden City,Ada,ID,83714,US,US/Mountain,KBOI,2020-09-15 14:53:00,83.0,83.0,15.0,27.15,4.0,W,7.0,0.0,Haze,False,False,False,False,False,False,False,False,False,True,False,False,False,Day,Day,Day,Day
C-2254348,2,2021-05-27 12:10:30.000000000,2021-07-26 19:11:30.000000000,42.076906,-122.602029,42.095052,-122.60549,1.26626721317,Slow traffic on Pacific Highway 1 N - I-5 N - OR-99 N from Old Siskiyou Hwy/Exit 6 (I-5) to OR-99/Exit 11 (I-5) due to roadwork.,,I-5 N,R,Ashland,Jackson,OR,97520,US,US/Pacific,KMFR,2021-05-27 11:53:00,63.0,63.0,40.0,28.72,10.0,NNE,9.0,0.0,Cloudy,False,False,False,False,False,False,False,False,False,False,False,False,False,Day,Day,Day,Day
C-2254349,4,2018-10-05 00:24:19.000000000,2018-10-05 05:40:08.000000000,29.68541,-95.38042,29.6766,-95.38178,0.614163121131,Closed at I-610 - Closed due to roadwork.,,S Freeway S,R,Houston,Harris,TX,77021,US,US/Central,KMCJ,2018-10-05 00:15:00,78.8,,89.0,29.99,10.0,Calm,,,Scattered Clouds,False,False,False,False,False,False,False,False,False,False,False,False,False,Night,Night,Night,Night
C-2254350,2,2020-09-27 14:33:30.000000000,2020-09-28 05:28:58.000000000,26.317625,-80.089972,26.31651,-80.091065,0.102553517153,Slow traffic on FL-810 - US-1 S - FL-5 from SE 12th Ave to US-1 due to roadwork.,1021.0,E Hillsboro Blvd,L,Deerfield Beach,Broward,FL,33441-3613,US,US/Eastern,KPMP,2020-09-27 14:53:00,87.0,87.0,74.0,29.88,10.0,E,12.0,0.0,Partly Cloudy,False,False,False,False,False,False,False,False,False,False,False,False,False,Day,Day,Day,Day
C-2254351,2,2021-07-30 12:45:00.000000000,2021-08-30 23:30:00.000000000,40.797549,-80.137395,40.802972,-80.137426,0.374697122309,Stationary traffic on US-19 N - US-19 S from PA-68/W Beaver St (Perry Hwy/US-19) to Little Creek Rd (Perry Hwy/US-19) due to roadwork.,100.0,Park Ln,L,Zelienople,Butler,PA,16063,US,US/Eastern,KBTP,2021-08-30 22:56:00,71.0,71.0,87.0,28.57,10.0,CALM,0.0,0.0,Fair,False,False,True,False,False,False,False,False,False,True,False,False,False,Day,Day,Day,Day
C-2254352,2,2020-11-03 08:04:00.000000000,2020-11-03 13:59:42.000000000,28.601669,-97.804353,28.621461,-97.8041,1.36758306325,Roadwork on FM-1465 (US-181) from FM-798 (US-181) to US-181.,10210.0,US Highway 181,R,Beeville,Bee,TX,78102,US,US/Central,KBEA,,,,,,,,,,,False,False,False,False,False,False,False,False,False,False,False,False,False,Day,Day,Day,Day
C-2254353,2,2017-01-16 09:00:00.000000000,2017-01-16 15:00:00.000000000,41.87015,-87.88285,41.86986,-87.88456,0.0902343187189999,Ramp to US-12/US-20/US-45/Exit 17 - Construction work.,,N Mannheim Rd,R,Bellwood,Cook,IL,60104,US,US/Central,KORD,2017-01-16 08:58:00,33.1,24.9,89.0,30.24,2.5,ESE,10.4,0.0,Light Rain,False,False,False,False,False,False,False,False,False,False,False,False,False,Day,Day,Day,Day
C-2254354,2,2021-04-16 11:36:30.000000000,2021-04-16 17:57:00.000000000,36.984856,-120.08715,36.938136,-120.036053,4.28698213759,Slow traffic on CA-99 S from Avenue 17 (CA-99) to Avenue 12 (CA-99) due to roadwork.,,CA-99 S,R,Madera,Madera,CA,93637,US,US/Pacific,KMAE,2021-04-16 11:53:00,70.0,70.0,33.0,29.71,10.0,WNW,7.0,0.0,Fair,False,False,False,False,True,False,False,False,False,False,False,False,False,Day,Day,Day,Day
C-2254355,2,2021-09-18 23:59:30.000000000,2021-09-19 01:52:00.000000000,40.602447,-74.057466,40.609422,-74.035767,1.23606207735,Stationary traffic on I-278 W - I-278 E from I-278/Gowanus Expy (South) (Gowanus Expy E HOV Ln) to 86th St (Gowanus Expy E HOV Ln) due to roadwork.,,I-278 W,R,Staten Island,Richmond,NY,10305,US,US/Eastern,KEWR,2021-09-18 23:51:00,78.0,78.0,60.0,30.03,10.0,N,13.0,0.0,Fair,False,False,False,False,False,False,False,False,False,False,False,False,False,Night,Night,Night,Night
C-2254356,4,2020-08-03 22:45:30.000000000,2020-09-20 08:55:03.000000000,44.98045,-93.271362,44.981674,-93.26964,0.119309714152,Closed road from 4th St (Hennepin Ave) to Main St (E Hennepin Ave) due to roadwork.,1.0,S 4th St,R,Minneapolis,Hennepin,MN,55401,US,US/Central,KMIC,2020-08-03 22:53:00,57.0,57.0,72.0,29.22,10.0,CALM,0.0,0.0,Fair,False,False,True,False,False,False,False,False,True,False,False,True,False,Night,Night,Night,Night
C-2254357,2,2020-06-09 18:34:15.000000000,2020-06-13 18:33:44.000000000,41.06189000000001,-73.50965,41.04998,-73.53577,1.5903368583500002,Between US-1/Exit 9 and Atlantic St/Exit 7 - Roadwork. Right lane blocked.,,Governor John Davis Lodge Tpke,R,Stamford,Fairfield,CT,06902,US,US/Eastern,KHPN,2020-06-09 18:56:00,82.0,82.0,45.0,29.4,10.0,S,6.0,0.0,Fair,False,False,False,False,False,False,False,False,False,False,False,True,False,Day,Day,Day,Day
C-2254358,2,2021-12-29 02:09:46.000000000,2021-12-29 04:59:00.000000000,34.404205,-119.530228,,,0.0,Intermittent lane closures due to construction on US-101 Northbound at Exit 87 Via Real.,,US-101 N,R,Carpinteria,Santa Barbara,CA,93013,US,US/Pacific,KSBA,2021-12-29 01:53:00,43.0,40.0,82.0,29.87,10.0,NNE,5.0,0.0,Cloudy,False,False,False,False,False,False,False,False,False,False,False,False,False,Night,Night,Night,Night
C-2254359,2,2021-11-15 17:27:30.000000000,2021-11-18 00:00:08.000000000,39.77534,-121.8719,39.77795,-121.872184,0.18096330721,Roadwork from Eaton Rd to Calle Principal.,3500.0,Hicks Ln,R,Chico,Butte,CA,95973-9701,US,US/Pacific,KCIC,2021-11-15 17:47:00,54.0,54.0,88.0,29.85,7.0,ESE,5.0,0.0,Cloudy,False,False,False,False,False,False,False,False,False,True,False,False,False,Night,Night,Day,Day
C-2254360,2,2020-11-02 13:30:30.000000000,2020-11-02 15:14:30.000000000,39.602544,-86.479576,39.613677,-86.479763,0.769281444606,Stationary traffic on IN-39 from CR-1200/W Keller Hill Rd (IN-39) to I-70 (IN-39) due to roadwork.,10689.0,S State Road 39,R,Mooresville,Hendricks,IN,46158,US,US/Eastern,KIND,2020-11-02 13:54:00,47.0,40.0,28.0,29.45,10.0,WSW,17.0,0.0,Mostly Cloudy,False,False,False,False,False,False,False,False,False,False,False,False,False,Day,Day,Day,Day
C-2254361,2,2021-06-14 20:43:30.000000000,2021-06-14 21:08:30.000000000,38.570369,-121.468662,38.56452700000001,-121.471201,0.42631202044,Slow traffic on I-80 Bus W from J St (I-80 Bus) to US-50/CA-99 (I-80 Bus) due to roadwork.,,Capital City Fwy W,R,Sacramento,Sacramento,CA,95816,US,US/Pacific,KSAC,2021-06-14 20:53:00,69.0,69.0,45.0,29.95,10.0,SW,14.0,0.0,Fair,False,False,False,False,True,False,True,False,True,False,False,False,False,Night,Day,Day,Day
C-2254362,2,2021-11-19 10:03:30.000000000,2021-11-19 10:24:00.000000000,41.487454,-87.57731,41.501204,-87.5775,0.950085403582,Slow traffic on IL-394 N - Bishop Ford Fwy N from E Sauk Trl (Bishop Ford Fwy/IL-394) to US-30/Lincoln Hwy (IL-394) due to roadwork.,,Bishop Ford Fwy N,R,Chicago Heights,Cook,IL,60411,US,US/Central,KIGQ,2021-11-19 09:55:00,34.0,30.0,56.0,29.86,10.0,SSW,5.0,0.0,Fair,False,False,False,False,True,False,False,False,False,False,False,False,False,Day,Day,Day,Day
C-2254363,2,2021-09-28 15:50:30.000000000,2021-09-28 17:53:34.000000000,25.925838,-80.16800699999997,25.924757,-80.16998199999998,0.143667953352,Stationary traffic on FL-826 from NE 16th Ave to NE 162nd St due to roadwork.,1599.0,NE 163rd St,L,North Miami Beach,Miami-Dade,FL,33162-4717,US,US/Eastern,KHWO,2021-09-28 15:53:00,87.0,87.0,40.0,29.95,10.0,ENE,15.0,0.0,Fair,False,False,True,False,False,False,False,False,True,False,False,False,False,Day,Day,Day,Day
C-2254364,2,2021-11-29 10:00:00.000000000,2021-11-29 16:00:00.000000000,41.537739,-74.04048900000002,,,4.96999979019,Intermittent lane closures due to tree cutting on NY-32 Plank Rd both ways between NY-300 and Victory Ct.,163.0,N Plank Rd,L,Newburgh,Orange,NY,12550-1723,US,US/Eastern,KSWF,2021-11-29 10:10:00,36.0,32.0,81.0,29.36,5.0,VAR,5.0,0.0,Light Snow,False,False,False,False,False,False,False,False,False,False,False,False,False,Day,Day,Day,Day
C-2254365,2,2021-06-11 19:00:00.000000000,2021-06-12 06:00:00.000000000,44.927143,-93.069496,,,12.1599998474,Roadway reduced to one lane due to construction on US-52 both ways between I-494 and MN-156 Concord St.,,US-52 N,R,Saint Paul,Ramsey,MN,55107,US,US/Central,KSTP,2021-06-11 18:53:00,87.0,87.0,40.0,29.03,10.0,W,12.0,0.0,Fair,False,False,False,False,False,False,False,False,True,False,False,False,False,Day,Day,Day,Day
C-2254366,4,2020-02-02 00:46:03.000000000,2020-02-06 00:45:55.000000000,33.99777,-117.3682,33.99608,-117.365,0.217338019393,Ramp closed to Main St/Oakley Ave - Closed due to roadwork.,,Pomona Fwy W,R,Riverside,Riverside,CA,92501,US,US/Pacific,KRAL,2020-02-02 00:53:00,57.0,57.0,39.0,29.19,10.0,NE,6.0,0.0,Fair,False,False,False,False,True,False,False,False,False,False,False,False,False,Night,Night,Night,Night
C-2254367,2,2020-09-26 17:08:30.000000000,2020-09-27 03:27:00.000000000,40.756737,-73.873609,40.746309,-73.868253,0.773123819682,Slow traffic from NY-25A/Northern Blvd (Junction Blvd) to Corona Ave (Junction Blvd) due to resurfacing work.,,Junction Blvd,R,Jackson Heights,Queens,NY,11372,US,US/Eastern,KLGA,2020-09-26 16:51:00,76.0,76.0,67.0,30.0,10.0,S,9.0,0.0,Mostly Cloudy,True,False,True,False,False,False,False,False,True,False,False,True,False,Day,Day,Day,Day
C-2254368,2,2020-09-21 12:52:30.000000000,2020-09-22 01:16:24.000000000,40.708917,-73.959243,40.710242,-73.957444,0.131373258996,Slow traffic from Broadway to Brooklyn Queens Expy due to resurfacing work.,230.0,Havemeyer St,R,Brooklyn,Kings,NY,11211,US,US/Eastern,KJRB,2020-09-21 12:51:00,63.0,63.0,33.0,30.46,10.0,VAR,7.0,0.0,Fair,True,False,True,False,False,False,False,False,False,False,False,True,False,Day,Day,Day,Day
C-2254369,2,2021-07-29 04:04:00.000000000,2021-07-29 15:06:46.000000000,44.681762,-93.516854,44.681565,-93.521091,0.208596158204,Roadwork on CR-17/Marschall Rd (MN-282) from CR-15/Marystown Rd (MN-282) to MN-282.,213.0,Country Trl E,L,Jordan,Scott,MN,55352-9565,US,US/Central,KFCM,2021-07-29 03:53:00,77.0,77.0,79.0,28.95,10.0,NNW,13.0,0.0,Fair,False,False,False,False,False,False,False,False,False,True,False,False,False,Night,Night,Night,Day
C-2254371,2,2021-03-01 05:20:30.000000000,2021-03-01 10:29:30.000000000,27.938652,-82.40191899999998,27.945034000000003,-82.401801,0.44101302329,Stationary traffic on US-41 S - US-41 N from FL-676/FL-45/22nd St/Causeway Blvd (50th St) to FL-618/Lee Roy Selmon Crosstown Expy/Crosstown Expy (50th St) due to roadwork.,1024.0,S 50th St,L,Tampa,Hillsborough,FL,33619-3630,US,US/Eastern,KTPF,2021-03-01 05:15:00,72.0,72.0,94.0,30.06,10.0,S,3.0,0.0,Cloudy,False,False,False,False,False,False,False,False,False,False,False,False,False,Night,Night,Night,Night
C-2254372,2,2020-08-11 07:00:00.000000000,2020-08-17 07:45:00.000000000,39.795845,-104.861302,39.79584000000001,-104.850009,0.5995064508969999,Construction on E 55TH AVE EB near N JOLIET ST Expect delays.,5501.0,N Joliet St,L,Denver,Denver,CO,80239-2004,US,US/Mountain,KBKF,2020-08-11 06:58:00,63.0,63.0,48.0,24.44,10.0,CALM,0.0,0.0,Mostly Cloudy,False,False,False,False,False,False,False,False,False,False,False,False,False,Day,Day,Day,Day
C-2254373,4,2021-08-26 06:00:28.000000000,2021-08-26 17:45:00.000000000,43.29494,-76.150573,43.292539,-76.14938199999997,0.176374520498,Construction on US-11 SB near NY-69 Road closed. Take alternate route.,799.0,US Route 11,L,Central Square,Oswego,NY,13036-2653,US,US/Eastern,KSYR,2021-08-26 05:54:00,75.0,75.0,94.0,29.67,10.0,CALM,0.0,0.0,Mostly Cloudy,False,False,False,False,False,False,False,False,False,False,False,False,False,Night,Day,Day,Day
C-2254374,4,2021-07-05 04:43:15.000000000,2021-10-23 12:07:55.000000000,33.56917,-112.112281,33.569726,-112.112281,0.0384159412696,Closed road from W Dunlap Ave to W Sunnyslope Ave due to roadwork.,9199.0,N 25th Ave,R,Phoenix,Maricopa,AZ,85021,US,US/Mountain,KDVT,2021-07-05 04:53:00,88.0,88.0,42.0,28.23,10.0,SW,5.0,0.0,Fair,True,False,False,False,False,False,False,False,False,True,False,False,False,Night,Night,Day,Day
C-2254375,2,2021-09-27 14:42:30.000000000,2021-12-01 12:12:30.000000000,34.269678000000006,-84.095169,34.266238,-84.09135699999999,0.322288857527,Stationary traffic on GA-369 from GA-9/Dahlonega Hwy (Browns Bridge Rd/Matt Hwy/GA-369) to US-19/GA-400 (Browns Bridge Rd/GA-369) due to roadwork.,3500.0,Browns Bridge Rd,R,Cumming,Forsyth,GA,30040,US,US/Eastern,KCNI,2021-12-01 11:55:00,63.0,63.0,45.0,28.88,10.0,CALM,0.0,0.0,Fair,False,False,False,False,False,False,False,False,False,False,False,False,False,Day,Day,Day,Day
C-2254376,2,2021-04-14 00:00:00.000000000,2021-04-14 11:28:48.000000000,40.588144,-79.885548,40.59221,-79.888296,0.315772982871,Roadwork on Saxonburg Blvd (Yellow Belt/Patton St/Hulton Rd/Rodi Rd/5th Ave/Hulton Bridge/Thompson Ave/Gibsonia Rd/Railroad St) from Cedar Ridge Rd (Gibsonia Rd) to PA-910.,999.0,Route 910,R,Pittsburgh,Allegheny,PA,15238-1259,US,US/Eastern,KAGC,2021-04-14 00:53:00,57.0,57.0,49.0,28.73,10.0,W,8.0,0.0,Cloudy,False,False,False,False,False,False,False,False,False,False,False,False,False,Night,Night,Night,Night
C-2254377,2,2021-09-29 18:04:31.000000000,2021-09-29 20:09:15.000000000,25.942302,-80.308756,25.943457,-80.3069,0.140235690073,Slow traffic on FL-860 from Bobolink Dr to NW 188th Ter due to roadwork.,,NW 186th St,R,Hialeah,Miami-Dade,FL,33015,US,US/Eastern,KOPF,2021-09-29 17:53:00,85.0,85.0,53.0,29.92,10.0,E,12.0,0.0,Fair,False,False,False,False,False,False,False,False,False,False,False,False,False,Day,Day,Day,Day
C-2254378,2,2021-05-27 13:38:05.000000000,2021-07-29 05:01:00.000000000,47.951598,-122.10359,47.951674,-122.101379,0.1024505593909999,Stationary traffic on WA-9 at State Route 2 due to roadwork.,,State Route 2,R,Snohomish,Snohomish,WA,98290,US,US/Pacific,KPAE,2021-05-27 13:53:00,58.0,58.0,70.0,29.28,10.0,S,25.0,0.01,Partly Cloudy / Windy,False,False,False,False,False,False,False,False,False,False,False,False,False,Day,Day,Day,Day
C-2254379,2,2021-01-15 23:53:17.000000000,2021-01-16 00:16:00.000000000,41.984069,-87.824104,41.982222,-87.806899,0.89281654559,Slow traffic on I-90 E - Kennedy Expy E from IL-171/Cumberland Ave/Exit 79 (I-90) to IL-43/Harlem Ave (I-90) due to roadwork.,,I-90 E,R,Chicago,Cook,IL,60631,US,US/Central,KORD,2021-01-15 23:51:00,30.0,25.0,88.0,28.86,9.0,WSW,5.0,0.0,Cloudy,False,False,False,False,False,False,False,False,True,False,False,False,False,Night,Night,Night,Night
C-2254380,2,2020-04-21 07:57:43.000000000,2020-04-23 14:00:00.000000000,40.78689,-73.82412,40.77922,-73.82661999999998,0.545847800911,At 20th Ave/Exit 15 - Roadwork.,,Whitestone Expy S,R,Whitestone,Queens,NY,11357,US,US/Eastern,KLGA,2020-04-21 07:51:00,50.0,50.0,74.0,29.6,10.0,SSW,13.0,0.0,Mostly Cloudy,False,False,True,False,False,False,False,False,False,False,False,False,False,Day,Day,Day,Day
C-2254381,2,2021-12-17 11:31:30.000000000,2021-12-17 13:32:33.000000000,39.784308,-85.769225,39.785686,-85.769358,0.0954722475043999,Slow traffic on IN-9 from E 300 S (Greenfield) (CR-200/IN-9) to I-70 (N State St/IN-9) due to roadwork.,2.0,W South St,L,Greenfield,Hancock,IN,46140-2327,US,US/Eastern,KMQJ,2021-12-17 11:35:00,36.0,32.0,70.0,29.34,10.0,ENE,5.0,,Fair,False,False,True,False,False,False,False,False,False,False,False,False,False,Day,Day,Day,Day
C-2254382,2,2021-12-14 11:02:00.000000000,2021-12-14 11:22:00.000000000,25.851394,-80.192947,25.849803,-80.193649,0.11827683023,Slow traffic on FL-934 from NE 83rd St to NW 82nd St / N Miami Ave due to roadwork.,8294.0,NE 2nd Ave,L,Miami,Miami-Dade,FL,33138-3808,US,US/Eastern,KOPF,2021-12-14 10:53:00,81.0,81.0,58.0,30.26,10.0,ENE,13.0,0.0,Mostly Cloudy,False,False,False,False,False,False,False,False,False,False,False,False,False,Day,Day,Day,Day
C-2254383,2,2021-12-14 03:00:54.000000000,2021-12-15 06:10:55.000000000,44.790658,-95.788052,44.806675,-95.57016,10.7399315703,Construction on MN-67 EB near US-75 Allow extra time.,,Highway 67,R,Clarkfield,Yellow Medicine,MN,56223,US,US/Central,KGDB,2021-12-14 02:55:00,31.0,22.0,80.0,28.99,10.0,E,12.0,0.0,Fair,False,False,False,False,False,False,False,False,False,False,False,False,False,Night,Night,Night,Night
C-2254384,2,2021-08-10 16:27:35.000000000,2021-08-10 18:29:35.000000000,41.732488,-87.702158,41.736405,-87.70197900000002,0.27079624578,Slow traffic from US-12/US-20/W 95th St (S Kedzie Ave) to W 79th St (S Kedzie Ave) due to roadwork.,8849.0,S Kedzie Ave,L,Evergreen Park,Cook,IL,60805-1221,US,US/Central,KMDW,2021-08-10 16:53:00,93.0,93.0,56.0,29.16,10.0,SSW,21.0,0.0,Mostly Cloudy / Windy,False,False,False,False,False,False,False,False,False,False,False,False,False,Day,Day,Day,Day
C-2254385,2,2021-10-25 13:00:30.000000000,2021-10-25 13:21:00.000000000,31.686791,-89.12479499999998,31.685831,-89.123165,0.116549828489,Stationary traffic on MS-15 S at Cook Ave exit [96B] due to roadwork.,,I-59 N,R,Laurel,Jones,MS,39440,US,US/Central,KPIB,2021-10-25 12:56:00,77.0,77.0,84.0,29.62,10.0,VAR,3.0,0.0,Mostly Cloudy,False,False,False,False,True,False,False,False,False,True,False,False,False,Day,Day,Day,Day
C-2254386,2,2021-11-17 14:42:00.000000000,2021-11-17 15:20:00.000000000,38.846653,-77.432462,38.837178,-77.44901,1.10527716104,Slow traffic on I-66 W from exit [53A] to US-29 exit [52] due to roadwork.,,Sully Rd,R,Centreville,Fairfax County,VA,20120,US,US/Eastern,KIAD,2021-11-17 14:52:00,64.0,64.0,48.0,29.8,10.0,SSE,6.0,0.0,Fair,False,False,False,False,False,False,False,False,False,False,False,False,False,Day,Day,Day,Day
C-2254387,2,2021-08-21 16:07:33.000000000,2021-08-21 16:19:38.000000000,46.868415,-113.943489,46.872355,-113.929776,0.7026243237800001,Slow traffic on US-12 E - I-90 E - MT-200 E from MT-200/Exit 107 (I-90) to MT-200/Exit 109 (I-90) due to roadwork.,,I-90 E,R,Missoula,Missoula,MT,59802,US,US/Mountain,KMSO,2021-08-21 15:53:00,70.0,70.0,44.0,26.47,10.0,NW,7.0,0.0,Fair,False,False,False,False,False,False,False,False,False,False,False,False,False,Day,Day,Day,Day
C-2254388,4,2019-01-30 00:43:31.000000000,2019-01-30 05:43:01.000000000,28.43603,-81.40077,28.4355,-81.39986999999998,0.0658108873541,Ramp closed to SR-528-TOLL Eastbound - Closed due to roadwork.,1701.0,W Landstreet Rd,L,Orlando,Orange,FL,32824,US,US/Eastern,KMCO,2019-01-30 00:53:00,55.0,,69.0,30.05,10.0,North,3.5,,Scattered Clouds,False,False,False,False,False,False,False,False,False,False,False,False,False,Night,Night,Night,Night
C-2254389,2,2021-08-02 10:20:30.000000000,2021-08-02 11:29:02.000000000,46.28275,-118.951452,46.28448,-118.934032,0.840344569552,Stationary traffic from Peterson Rd / Carr Rd to Jake Rd due to roadwork.,1.0,Carr Rd,L,Pasco,Franklin,WA,99301-9605,US,US/Pacific,KPSC,2021-08-02 09:53:00,84.0,84.0,56.0,29.64,2.0,CALM,0.0,0.0,Haze,False,False,False,False,False,False,False,False,False,False,False,False,False,Day,Day,Day,Day
C-2254390,2,2020-11-02 19:00:00.000000000,2020-11-02 23:45:00.000000000,38.887041,-77.217267,38.897051,-77.19967700000002,1.17181896031,Construction on I-66 EB near MM 65 Construction. Right lane closed.,,Custis Memorial Pkwy E,R,Falls Church,Fairfax County,VA,22043,US,US/Eastern,KDCA,2020-11-02 18:52:00,45.0,42.0,36.0,30.1,10.0,S,6.0,0.0,Fair,False,False,False,False,True,False,False,False,False,False,False,False,False,Night,Night,Night,Night
C-2254391,2,2021-09-27 09:02:00.000000000,2021-09-27 11:07:45.000000000,37.82499,-97.331196,37.824995,-97.329799,0.0762435027283,Roadwork from N Broadway St (E 77th St N) to I-135 (E 77th St N).,391.0,E 77th St N,R,Valley Center,Sedgwick,KS,67147-8828,US,US/Central,KAAO,2021-09-27 08:54:00,70.0,70.0,47.0,28.41,10.0,S,14.0,0.0,Fair,False,False,False,False,False,False,False,False,False,False,False,False,False,Day,Day,Day,Day
C-2254392,3,2020-02-27 09:00:00.000000000,2020-02-27 15:00:00.000000000,40.615261,-74.15306899999999,,,0.870000004768,Entry ramp to I-278 Northbound at Exit 10W from NY-440 Southbound lane closed due to construction work.,,Dr Martin Luther King Jr Expy S,R,Staten Island,Richmond,NY,10314,US,US/Eastern,KLDJ,2020-02-27 08:55:00,39.0,29.0,70.0,29.47,10.0,WNW,23.0,0.0,Cloudy / Windy,False,False,False,False,False,False,False,False,False,False,False,False,False,Day,Day,Day,Day
C-2254393,2,2021-11-23 12:00:30.000000000,2021-11-23 14:08:24.000000000,33.503213,-111.926204,33.502214,-111.92556,0.0783647333855,Slow traffic from E Highland Ave to N Brown Ave due to roadwork.,4548.0,N Scottsdale Rd,L,Scottsdale,Maricopa,AZ,85251-7604,US,US/Mountain,KPHX,2021-11-23 11:51:00,78.0,78.0,17.0,28.72,10.0,ESE,3.0,0.0,Mostly Cloudy,False,False,False,False,False,False,False,False,True,False,False,False,False,Day,Day,Day,Day
C-2254394,2,2021-06-21 04:05:32.000000000,2021-06-25 15:35:44.000000000,32.181714,-98.637935,32.169745,-98.607956,1.9384822308400005,Roadwork on FM-2921/Lexington (Lubbock St/TX-6) from TX-16 (W Navarro Ave/TX-6) to TX-6.,1080.0,State Highway 6,L,Gorman,Comanche,TX,76454,US,US/Central,KMKN,2021-06-21 04:15:00,76.0,76.0,99.0,28.33,10.0,S,10.0,0.0,Fair,False,False,False,False,False,False,False,False,False,False,False,False,False,Night,Night,Night,Night
C-2254395,2,2020-03-24 22:50:27.000000000,2020-03-25 22:50:27.000000000,39.60505,-86.21904,39.64167,-86.20215,2.68512488219,At Wicker Rd - Roadwork. Roadway reduced to 1 lane. Lane closed.,,W Smith Valley Rd,R,Greenwood,Johnson,IN,46143,US,US/Eastern,KIND,2020-03-24 22:54:00,43.0,38.0,93.0,29.09,6.0,NNW,8.0,0.01,Mostly Cloudy,False,False,False,False,False,False,False,False,False,False,False,True,False,Night,Night,Night,Night
C-2254396,2,2021-12-03 14:40:57.000000000,2021-12-03 19:35:57.000000000,28.831825,-81.8879,28.826402,-81.887478,0.3755632907199999,Slow traffic on US-27 S - FL-25 - US-27 N - US-441 N - US-441 S from FL-25/Eva Ln/S Dixie Ave (US-27) to US-441/W North Blvd (US-27) due to roadwork.,1448.0,Citrus Blvd,R,Leesburg,Lake,FL,34748-3447,US,US/Eastern,KLEE,2021-12-03 14:53:00,76.0,76.0,50.0,29.99,10.0,S,7.0,0.0,Fair,False,False,False,False,False,False,False,False,False,False,False,False,False,Day,Day,Day,Day
C-2254397,2,2021-05-17 06:00:00.000000000,2021-05-31 16:45:00.000000000,45.127743,-92.672292,45.123225,-92.661517,0.611031061568,Mainline Moving Lane Closure on WIS 35 Southbound from CHURCH HILL RD to WIS 35N (END DIVIDED).,166.0,Church Hill Rd,R,Somerset,St. Croix,WI,54025-9024,US,US/Central,KRNH,2021-05-17 05:55:00,47.0,47.0,95.0,29.07,1.0,CALM,0.0,0.0,Fog,False,False,False,False,False,False,False,False,False,False,False,False,False,Day,Day,Day,Day
C-2254398,4,2020-07-20 07:00:00.000000000,2020-11-02 07:59:59.000000000,42.119453,-75.810611,42.139016,-75.74874799999998,3.44613164845,Road County Hwy-52 is closed from Fox Hollow Rd to Sanitaria Springs Rd / North Rd due to roadwork.,1.0,Fox Hollow Rd,R,Binghamton,Broome,NY,13904-3021,US,US/Eastern,KBGM,2020-07-20 06:53:00,70.0,70.0,90.0,28.18,10.0,SW,6.0,0.0,Partly Cloudy,False,False,False,False,False,False,False,False,False,False,False,False,False,Day,Day,Day,Day
C-2254399,2,2021-10-17 18:40:00.000000000,2021-10-17 19:59:30.000000000,33.46586,-112.099831,33.465849,-112.091332,0.489872236131,Slow traffic from Grand Ave/N 19th Ave (W McDowell Rd) to N 7th Ave (W McDowell Rd) due to roadwork.,1829.0,W McDowell Rd,L,Phoenix,Maricopa,AZ,85007-1611,US,US/Mountain,KPHX,2021-10-17 19:51:00,83.0,83.0,18.0,28.67,10.0,W,13.0,0.0,Mostly Cloudy,False,False,True,False,False,False,False,False,False,False,False,True,False,Night,Night,Day,Day
C-2254400,2,2019-08-31 01:25:04.000000000,2019-09-04 01:24:22.000000000,35.78775,-78.598,35.78758,-78.59751,0.0298698381305,At Chatham Ln - Construction work.,702.0,Chatham Ln,R,Raleigh,Wake,NC,27610-1202,US,US/Eastern,KRDU,2019-08-31 01:51:00,65.0,65.0,87.0,29.69,10.0,CALM,0.0,0.0,Fair,False,False,False,False,False,False,False,False,True,False,False,False,False,Night,Night,Night,Night
C-2254401,2,2019-03-26 10:58:14.000000000,2019-03-26 15:00:00.000000000,40.82344000000001,-72.98998,40.82388,-73.003167,0.6901486349250001,At RT-112/Exit 64 - Roadwork. Lane blocked.,,Long Island Expy W,R,Medford,Suffolk,NY,11763,US,US/Eastern,KISP,2019-03-26 10:56:00,41.0,32.2,24.0,30.27,10.0,North,18.4,,Partly Cloudy,False,False,False,False,False,False,False,False,False,False,False,False,False,Day,Day,Day,Day
C-2254402,2,2020-09-29 12:06:30.000000000,2020-10-01 20:13:15.000000000,37.687307,-88.8558,37.670327,-88.860156,1.19714400005,Roadwork on IL-166 from IL-13 (IL-166) to Lake of Egypt Rd (IL-166).,9998.0,Route 166,R,Marion,Williamson,IL,62959-6264,US,US/Central,KMWA,2020-09-29 11:45:00,63.0,63.0,55.0,29.49,20.0,W,9.0,0.0,Partly Cloudy,False,False,False,False,False,False,False,False,False,False,False,False,False,Day,Day,Day,Day
C-2254403,2,2021-08-31 10:53:30.000000000,2021-08-31 11:14:00.000000000,38.952733,-104.72272,38.955737,-104.728473,0.372329572557,Slow traffic on CO-21 from E Woodmen Rd to Channel Dr due to roadwork.,,Powers Blvd,R,Colorado Springs,El Paso,CO,80924,US,US/Mountain,KAFF,2021-08-31 10:58:00,84.0,84.0,12.0,23.56,10.0,NW,7.0,0.0,Fair,False,False,False,False,False,False,False,False,False,False,False,False,False,Day,Day,Day,Day
C-2254404,2,2021-11-06 15:52:30.000000000,2021-11-06 17:18:30.000000000,39.001616,-77.347734,39.000507,-77.345527,0.141119321173,Stationary traffic on VA-7 from Sugarland Rd (VA-7) to VA-193/Georgetown Pike (VA-7) due to roadwork.,11615.0,Leesburg Pike,L,Herndon,Fairfax County,VA,20170-2102,US,US/Eastern,KIAD,2021-11-06 15:52:00,55.0,55.0,38.0,29.95,10.0,ESE,6.0,0.0,Mostly Cloudy,False,False,True,False,False,False,False,False,False,False,False,True,False,Day,Day,Day,Day
C-2254405,2,2020-05-05 07:01:00.000000000,2020-05-06 19:01:00.000000000,37.79918,-122.22104,37.78361,-122.1784,2.56471044208,Between Sheffield Ave and Route 13 - Construction work. Lane closed.,,I-580 E,R,Oakland,Alameda,CA,94602,US,US/Pacific,KOAK,2020-05-05 06:53:00,57.0,57.0,77.0,30.13,10.0,W,12.0,0.0,Partly Cloudy,False,False,False,False,False,False,False,False,False,False,False,False,False,Day,Day,Day,Day
C-2254406,2,2020-11-18 21:30:00.000000000,2020-11-19 03:00:00.000000000,38.926076,-77.344412,38.926588,-77.344228,0.0367323711450999,On Rt. 4720 (Soapstone Dr) in the County of Fairfax at Glade Dr; Rt. 4721E/W (Fairfax County) motorists can expect potential delays in this area from 11/18/20 at 1:30 PM until 11/18/20 at 7:00 PM due to maintenance activities. The north through lanes are closed. The south through lanes are closed.,11532.0,Glade Dr,R,Reston,Fairfax County,VA,20191-2962,US,US/Eastern,KIAD,2020-11-18 21:52:00,29.0,29.0,78.0,30.26,10.0,SSW,3.0,0.0,Fair,False,False,True,False,False,False,False,False,True,True,False,False,False,Night,Night,Night,Night
C-2254407,2,2021-09-01 15:05:00.000000000,2021-10-29 17:04:33.000000000,39.765358,-86.400087,39.762823,-86.40045400000002,0.176233050222,Slow traffic on US-36 W from Princess Ln to N County Road 671 E due to roadwork.,174.0,N Avon Ave,L,Avon,Hendricks,IN,46123-8476,US,US/Eastern,KIND,2021-10-29 16:54:00,58.0,58.0,90.0,28.62,5.0,NNW,7.0,0.01,Light Rain,False,False,False,False,False,False,False,False,False,False,False,False,False,Day,Day,Day,Day
C-2254408,4,2020-05-17 05:49:56.000000000,2020-05-17 10:48:07.000000000,38.1308,-104.0237,38.11201,-103.87549,8.16005572622,Closed at La Junta - Closed due to roadwork.,100.0,E Cranston Ave,L,Fowler,Otero,CO,81039-1119,US,US/Mountain,KLHX,2020-05-17 05:53:00,57.0,57.0,62.0,25.83,10.0,ENE,10.0,0.0,Cloudy,False,False,True,False,False,False,False,False,False,True,False,False,False,Day,Day,Day,Day
C-2254409,2,2020-08-26 12:57:26.000000000,2020-08-26 20:48:02.000000000,40.99087,-73.663449,40.988076,-73.671441,0.459347714058,Stationary traffic on I-95 S - I-287 W from exit [21] to exit [10] due to roadwork.,,New England Trwy S,R,Port Chester,Westchester,NY,10573,US,US/Eastern,KHPN,2020-08-26 12:56:00,72.0,72.0,41.0,29.48,10.0,WNW,16.0,0.0,Fair,False,False,False,False,False,False,False,False,False,False,False,False,False,Day,Day,Day,Day
C-2254410,2,2020-07-31 13:00:00.000000000,2020-08-01 04:45:00.000000000,45.905832,-91.812238,45.916708,-91.743662,3.38123130679,Construction on US-63 NB near NAMEKAGON RIV Drive with caution.,,US Highway 63,R,Trego,Washburn,WI,54888,US,US/Central,KHYR,2020-07-31 12:53:00,78.0,78.0,46.0,28.75,10.0,VAR,3.0,0.0,Fair,False,False,False,False,False,False,False,False,False,False,False,False,False,Day,Day,Day,Day
C-2254411,2,2021-06-18 16:25:55.000000000,2021-06-18 18:35:36.000000000,28.054487,-82.391712,28.05351,-82.393782,0.143136349958,Stationary traffic on FL-583 - FL-582 from N 58th St to Grandville Dr due to roadwork.,5782.0,E Fowler Ave,L,Tampa,Hillsborough,FL,33617,US,US/Eastern,KVDF,2021-06-18 16:35:00,88.0,88.0,58.0,30.03,,ESE,3.0,0.0,Fair,True,False,False,False,False,False,False,False,True,False,False,False,False,Day,Day,Day,Day
C-2254412,3,2020-04-22 21:00:00.000000000,2020-04-24 05:00:00.000000000,40.847923,-73.942825,,,1.89999997616,Left lane closed due to construction on I-95 George Washington Bridge Lower Northbound between New Jersey and New York.,,Riverside Dr,R,New York,New York,NY,10032,US,US/Eastern,KNYC,2020-04-22 20:51:00,47.0,45.0,25.0,29.86,10.0,W,5.0,0.0,Fair,False,False,False,False,False,False,False,False,False,False,False,False,False,Night,Night,Night,Day
C-2254413,2,2021-07-08 18:09:00.000000000,2021-07-08 18:35:30.000000000,33.448242,-112.070783,33.448236,-112.077675,0.397327123054,Slow traffic from 3rd St (E Washington St) to 7th Ave (W Washington St) due to roadwork.,,E Washington St,R,Phoenix,Maricopa,AZ,85004,US,US/Mountain,KPHX,2021-07-08 17:51:00,110.0,110.0,18.0,28.51,10.0,NNW,9.0,0.0,Partly Cloudy,True,False,True,False,False,False,True,False,True,False,False,True,False,Day,Day,Day,Day
C-2254414,2,2016-09-06 09:01:13.000000000,2016-09-06 15:01:13.000000000,33.7738,-84.35986,33.7738,-84.35986,0.0,At Linwood Ave NE - Construction work.,,Ponce de Leon Ave NE,R,Atlanta,Fulton,GA,30306,US,US/Eastern,KPDK,2016-09-06 08:53:00,73.0,,73.0,30.23,10.0,Calm,,,Clear,False,False,True,False,False,False,False,False,False,False,False,True,False,Day,Day,Day,Day
C-2254415,2,2017-05-09 11:08:56.000000000,2017-05-09 17:10:12.000000000,40.1234,-75.40912,40.124329,-75.408141,0.0824338637095,At US-422/Pottstown Expy - Roadwork. Lane blocked.,896.0,S Trooper Rd,L,Norristown,Montgomery,PA,19403,US,US/Eastern,KLOM,2017-05-09 11:15:00,53.6,,38.0,30.0,10.0,WNW,9.2,,Clear,False,False,False,False,False,False,False,False,False,False,False,True,False,Day,Day,Day,Day
C-2254416,2,2021-10-12 17:01:20.000000000,2021-10-12 17:24:53.000000000,35.043793,-85.321248,35.040867,-85.319918,0.21571312308,Stationary traffic from W M L King Blvd (Riverfront Pkwy/TN-58) to W Main St (Riverfront Pkwy/TN-58) due to roadwork.,1217.0,Riverfront Pkwy,R,Chattanooga,Hamilton,TN,37402-2108,US,US/Eastern,KCHA,2021-10-12 16:53:00,73.0,73.0,79.0,29.33,7.0,S,8.0,0.0,Mostly Cloudy,False,False,False,False,False,False,False,False,False,False,False,False,False,Day,Day,Day,Day
C-2254418,2,2019-05-09 09:08:51.000000000,2019-05-13 09:09:51.000000000,40.745153,-75.26434,40.761839,-75.273465,1.24790463422,Between PA-248 and Henry Rd - Roadwork. Open.,,PA-33 N,R,Easton,Northampton,PA,18045,US,US/Eastern,KABE,2019-05-09 09:08:00,58.0,58.0,72.0,29.86,9.0,E,12.0,0.0,Cloudy,False,False,False,False,False,False,False,False,False,False,False,False,False,Day,Day,Day,Day
C-2254419,2,2021-09-10 15:16:00.000000000,2021-09-10 15:30:00.000000000,41.628226,-84.73188499999998,41.629274,-84.75291,1.08824575623,Slow traffic on I-90 W - I-80 W - Ohio Tpke W from CR-15/Exit 13 (I-90/I-80) to OH-49/Exit 2 (I-90/I-80) due to roadwork.,,Ohio Tpke W,R,Edon,Williams,OH,43518,US,US/Eastern,KANQ,,,,,,,,,,,False,False,False,False,False,False,False,False,False,False,False,False,False,Day,Day,Day,Day
C-2254420,2,2021-02-20 16:31:09.000000000,2021-02-20 20:31:53.000000000,32.69758,-93.179574,32.697897,-93.179177,0.0318207983489,Roadwork on LA-518 (US-79) from Maddry Rd (US-79) to US-79 S - US-79 N.,446.0,Highway 79,R,Minden,Claiborne,LA,71055-8069,US,US/Central,KMNE,2021-02-20 16:35:00,51.0,51.0,53.0,30.0,10.0,ESE,3.0,0.0,Fair,False,False,False,False,False,False,False,False,False,False,False,False,False,Day,Day,Day,Day
C-2254421,3,2017-03-28 22:00:00.000000000,2017-03-29 05:00:00.000000000,40.850067,-73.944817,,,1.0,Two lanes closed due to construction work on I-95 George Washington Brg Southbound between Exits 73 74 Palisades Interstate Pkwy and Exit 1 Riverside Dr.,,George Washington Brg,R,New York,New York,NY,10032,US,US/Eastern,KNYC,2017-03-28 22:05:00,43.0,40.3,97.0,29.95,6.0,NE,4.6,0.01,Overcast,False,False,False,False,False,False,False,False,False,False,False,False,False,Night,Night,Night,Night
C-2254422,2,2016-08-14 08:31:51.000000000,2016-08-14 16:31:51.000000000,32.83694000000001,-116.77202,32.83775,-116.77828999999998,0.368271001149,Between Boulders Rd and Tavern Rd - Roadwork.,1925.0,Alpine Blvd,R,Alpine,San Diego,CA,91901-2110,US,US/Pacific,KSEE,2016-08-14 08:47:00,77.0,,61.0,29.9,10.0,Calm,,,Clear,False,False,False,False,False,False,False,False,False,False,False,True,False,Day,Day,Day,Day
C-2254423,2,2021-09-19 07:00:00.000000000,2021-09-19 15:30:00.000000000,46.654504,-121.360355,46.651654,-121.289005,3.38961946677,US 12 both directions milepost 145 to 166 White Pass: Drivers may experience minor delays due to single lane alternating traffic control Monday Sept. 20 through Thursday Sept. 23 from 7 a.m. to 3:30 p.m. for maintenance work.,46987.0,US Highway 12,R,Naches,Yakima,WA,98937,US,US/Pacific,K1YT,2021-09-19 06:53:00,45.0,42.0,97.0,28.72,8.0,WSW,6.0,0.0,Fair,False,False,False,False,False,False,False,False,False,False,False,False,False,Day,Day,Day,Day
C-2254424,2,2020-08-26 16:02:00.000000000,2020-08-27 16:52:34.000000000,39.873118,-76.86538,39.87607,-76.86574499999998,0.204879997824,Construction on PA-116 EB near CONSTITUTION AVE Allow extra time.,2.0,W Railroad St,R,Spring Grove,York,PA,17362,US,US/Eastern,KTHV,2020-08-26 15:53:00,85.0,85.0,41.0,29.45,10.0,NNW,9.0,0.0,Fair,False,False,True,False,False,False,True,False,False,False,False,False,False,Day,Day,Day,Day
C-2254425,2,2021-11-03 18:16:00.000000000,2021-11-04 01:00:36.000000000,40.37827100000001,-105.088359,40.378266,-105.08724,0.0588987576595,Roadwork from S Taft Ave (14th St/CR-18) to US-287/S Lincoln Ave (14th St/CR-18).,1400.0,S California Ave,R,Loveland,Larimer,CO,80537-7165,US,US/Mountain,KFNL,2021-11-03 17:56:00,52.0,52.0,49.0,25.13,10.0,E,6.0,0.0,Mostly Cloudy,False,False,False,False,False,False,False,False,False,False,False,False,False,Night,Day,Day,Day
C-2254426,2,2021-06-02 13:57:00.000000000,2021-06-02 16:00:04.000000000,33.630992,-111.894814,33.629773,-111.892085,0.178162440775,Stationary traffic from Greenway Hayden Loop (E Frank Lloyd Wright Blvd) to AZ-101/Pima Rd (E Frank Lloyd Wright Blvd) due to roadwork.,8633.0,E Frank Lloyd Wright Blvd,L,Scottsdale,Maricopa,AZ,85260,US,US/Mountain,KSDL,2021-06-02 13:53:00,99.0,99.0,11.0,28.2,10.0,SSW,9.0,0.0,Fair,False,False,False,False,False,False,False,False,False,False,False,False,False,Day,Day,Day,Day
C-2254427,2,2018-06-08 08:58:13.000000000,2018-06-08 15:00:14.000000000,39.862216,-75.890086,39.862394,-75.889705,0.0236549250923,At Fagg Manor Rd - Roadwork. Traffic problem.,98.0,Greenfield Rd,L,Cochranville,Chester,PA,19330-9490,US,US/Eastern,KMQS,2018-06-08 08:55:00,68.0,,78.0,30.21,10.0,Variable,5.8,,Clear,False,False,False,False,False,False,False,False,False,False,False,False,False,Day,Day,Day,Day
C-2254428,2,2019-10-21 07:03:01.000000000,2019-10-25 07:02:33.000000000,42.01382,-71.58702,42.04969000000001,-71.63113,3.3566322740599994,Between Providence/Worcester Co Line and RT-16 - Roadwork.,,RI-146 N,R,North Smithfield,Providence,RI,02896,US,US/Eastern,KSFZ,2019-10-21 06:56:00,,,,29.58,10.0,NNE,12.0,0.0,Cloudy,False,False,False,False,False,False,False,False,False,False,False,False,False,Night,Day,Day,Day
C-2254429,3,2019-05-30 19:03:07.000000000,2019-06-04 19:01:38.000000000,28.691656,-81.387149,28.689,-81.39186,0.339422875528,Between Raymond Ave and Markham Woods Rd - Construction work.,1951.0,W State Road 434,L,Longwood,Seminole,FL,32750-6015,US,US/Eastern,KSFB,2019-05-31 18:53:00,91.0,91.0,47.0,29.82,10.0,SW,12.0,0.0,Fair,False,False,False,False,False,False,False,False,False,False,False,True,False,Day,Day,Day,Day
C-2254430,2,2020-03-28 00:01:00.000000000,2020-03-28 05:00:00.000000000,40.33918,-74.62872,40.33918,-74.62872,0.0,At Mercer/Middlesex County Line - Construction work. Right lane blocked. Hard shoulder blocked.,3846.0,US Highway 1,R,Plainsboro,Middlesex,NJ,08536,US,US/Eastern,KTTN,2020-03-28 00:53:00,49.0,49.0,69.0,29.82,10.0,ENE,3.0,0.0,Fair,False,False,False,False,False,False,False,False,False,False,False,False,False,Night,Night,Night,Night
C-2254431,2,2021-07-12 06:00:00.000000000,2021-12-25 06:30:27.000000000,30.527176,-93.049589,30.52482,-93.048847,0.168668044868,Road Construction on LA-113 Both Directions from LA-26 to US-190 . Lanes Alternating. Starting 7/12/2021 6:00 AM,13606.0,Highway 113,L,Reeves,Allen,LA,70658-5871,US,US/Central,KCWF,2021-07-12 06:00:00,81.0,81.0,84.0,30.0,10.0,S,6.0,0.0,Fair,False,False,False,False,False,False,False,False,False,False,False,False,False,Night,Day,Day,Day
C-2254432,2,2016-06-13 07:01:37.000000000,2016-06-13 19:01:37.000000000,33.597956,-117.14816299999998,33.5978,-117.16291,0.848769982146,Between Los Alamos Rd and Whitewood Rd - Roadwork.,29441.0,Clinton Keith Rd,L,Murrieta,Riverside,CA,92563,US,US/Pacific,KF70,2016-06-13 06:55:00,57.2,,82.0,30.11,10.0,Calm,,,Overcast,False,False,False,False,False,False,False,False,False,False,False,True,False,Day,Day,Day,Day
C-2254433,2,2021-09-16 11:12:00.000000000,2021-09-16 11:33:30.000000000,29.005548,-81.385729,29.011345,-81.379102,0.566374521486,Stationary traffic on FL-44 from Royal Trails Rd (FL-44) to C R 4053/Grand Ave (FL-44) due to roadwork.,34248.0,State Road 44,R,Deland,Lake,FL,32720,US,US/Eastern,KDED,2021-09-16 11:10:00,86.0,86.0,64.0,29.93,10.0,S,7.0,0.0,Partly Cloudy,False,False,False,False,False,False,False,False,False,False,False,True,False,Day,Day,Day,Day
C-2254434,3,2019-10-29 22:00:00.000000000,2019-10-30 05:00:00.000000000,32.982651000000004,-96.930389,,,0.0,Lane closed on exit ramp due to construction work on I-35E Southbound at President George Bush Tpke.,,President George Bush Tpke S,R,Carrollton,Dallas,TX,75006,US,US/Central,KADS,2019-10-29 21:47:00,45.0,40.0,93.0,29.3,2.0,N,9.0,0.0,T-Storm,False,False,False,False,False,False,False,False,False,False,False,False,False,Night,Night,Night,Night
C-2254435,2,2020-10-01 20:46:30.000000000,2020-10-01 21:57:30.000000000,40.086624,-76.196979,40.085624,-76.20841300000002,0.6083582853339999,Queuing traffic on PA-23 from PA-772/Newport Rd (W Main St/PA-23) to Hartman Station Rd/Snake Hill Rd (New Holland Pike/PA-23) due to roadwork.,2.0,Hoover Ln,R,Leola,Lancaster,PA,17540-1306,US,US/Eastern,KLNS,2020-10-01 20:53:00,62.0,62.0,58.0,29.52,10.0,CALM,0.0,0.0,Cloudy,False,False,False,False,False,False,False,False,False,True,False,False,False,Night,Night,Night,Night
C-2254436,2,2021-10-13 07:24:30.000000000,2021-10-13 07:44:30.000000000,35.522253000000006,-97.541846,35.528295,-97.520759,1.25711082537,Slow traffic on I-44 E - OK-66 E from Pennsylvania Ave/Exit 125 (I-44) to I-235/US-77/Exit 127 (I-44) due to roadwork.,,I-44 E,R,Oklahoma City,Oklahoma,OK,73118,US,US/Central,KPWA,2021-10-13 07:53:00,63.0,63.0,87.0,28.38,10.0,S,7.0,0.07,Light Rain,False,False,False,False,False,False,False,False,False,False,False,False,False,Night,Day,Day,Day
C-2254437,2,2020-08-28 21:14:03.000000000,2020-08-29 00:59:28.000000000,26.289883000000003,-80.110398,26.291213,-80.10913599999998,0.120648614443,Queuing traffic on FL-811 from NE 10th Ave to NE 51st St due to construction work.,930.0,NE 48th St,L,Pompano Beach,Broward,FL,33064-4746,US,US/Eastern,KPMP,2020-08-28 20:53:00,85.0,85.0,77.0,30.01,10.0,SSE,7.0,0.0,Fair,False,False,False,False,False,False,False,False,False,False,False,False,False,Night,Night,Night,Night
C-2254438,2,2020-09-02 18:36:30.000000000,2020-09-02 19:13:00.000000000,40.70962100000001,-73.96143199999999,40.708413,-73.957911,0.2024211167379999,Queuing traffic from Driggs Ave (Broadway) to Marcy Ave/Taylor St (Broadway) due to roadwork.,204.0,Broadway,R,Brooklyn,Kings,NY,11211-6130,US,US/Eastern,KJRB,2020-09-02 18:51:00,77.0,77.0,84.0,29.69,10.0,CALM,0.0,0.0,Fair,True,False,True,False,False,False,True,False,True,False,False,True,False,Day,Day,Day,Day
C-2254439,2,2020-10-02 11:42:30.000000000,2020-10-03 02:11:30.000000000,27.870685,-82.326589,27.871738,-82.327814,0.104362701818,Stationary traffic on FL-43 - US-301 N from Moody Rd to Commerce St due to roadwork.,8108.0,US Highway 301 S,R,Riverview,Hillsborough,FL,33578,US,US/Eastern,KTPF,2020-10-02 11:35:00,79.0,79.0,54.0,30.01,10.0,NE,3.0,0.0,Fair,False,False,False,False,False,False,False,False,True,False,False,False,False,Day,Day,Day,Day
C-2254440,2,2021-05-02 23:00:00.000000000,2021-11-04 21:29:17.000000000,33.509231,-112.045992,33.508519,-112.047532,0.1014458658299999,Stationary traffic from Piestewa Fwy S to E Pierson St due to roadwork.,1634.0,E Camelback Rd,R,Phoenix,Maricopa,AZ,85016-3902,US,US/Mountain,KPHX,2021-08-23 14:51:00,101.0,101.0,13.0,28.63,10.0,VAR,5.0,0.0,Fair,True,False,False,False,False,False,False,False,True,False,False,False,False,Night,Night,Night,Night
C-2254441,2,2020-11-07 14:25:00.000000000,2020-11-07 22:45:03.000000000,26.304,-80.092977,26.305044,-80.093463,0.0781626179618,Stationary traffic on US-1 N - FL-869 - FL-5 from N Federal Hwy / NE 54th St to SE 6th Ave due to roadwork.,1060.0,S Federal Hwy,L,Deerfield Beach,Broward,FL,33441-7033,US,US/Eastern,KPMP,2020-11-07 14:20:00,77.0,77.0,82.0,29.85,10.0,E,20.0,0.0,Cloudy,False,False,False,False,False,False,False,False,False,False,False,False,False,Day,Day,Day,Day
C-2254442,2,2021-10-28 17:04:16.000000000,2021-10-28 17:24:16.000000000,29.405667,-95.03732,29.402373,-95.033218,0.335803217093,Stationary traffic on FM-2004 from Holland Rd (I-45 Frontage) to I-45/FM-1764/Mall of Mainland Pkwy (I-45 Frontage) due to roadwork.,6508.0,Gulf Fwy,L,La Marque,Galveston,TX,77568-3087,US,US/Central,KGLS,2021-10-28 16:53:00,79.0,79.0,21.0,29.78,10.0,NW,35.0,0.0,Fair / Windy,False,False,False,False,False,False,False,False,False,False,False,True,False,Day,Day,Day,Day
C-2254443,2,2021-01-08 17:00:00.000000000,2021-01-08 23:45:00.000000000,29.400669,-95.245016,29.401029,-95.245646,0.0453522084626,Construction on TX-35 NB near FM-1462 Construction. Right lane closed.,,E FM 1462 Rd,R,Alvin,Brazoria,TX,77511,US,US/Central,KLVJ,2021-01-08 16:53:00,53.0,53.0,52.0,30.23,10.0,NNW,6.0,0.0,Fair,False,False,False,False,False,False,False,False,False,False,False,True,False,Day,Day,Day,Day
C-2254444,2,2021-07-09 02:36:00.000000000,2021-07-09 03:54:30.000000000,32.814574,-96.644929,32.820495,-96.633563,0.7764909414040001,Stationary traffic on I-30 E - R L Thornton Fwy E - US-67 N from Gus Thomasson Rd exit [56A] to exit [56B] due to roadwork.,,I-30 E,R,Mesquite,Dallas,TX,75150,US,US/Central,KHQZ,2021-07-09 02:35:00,75.0,75.0,89.0,29.54,10.0,W,3.0,0.0,Fair,False,False,False,False,False,False,False,False,False,False,False,False,False,Night,Night,Night,Night
C-2254445,2,2020-01-05 16:42:03.000000000,2020-01-05 23:42:00.000000000,45.25352,-119.86306,45.27927,-119.9218,3.36522113042,Between OR-207 and Dalzell Rd - Maintenance work.,67796.0,Condon Hwy,R,Heppner,Morrow,OR,97836,US,US/Pacific,KHRI,2020-01-05 16:53:00,45.0,37.0,68.0,29.62,10.0,WSW,20.0,0.0,Fair,False,False,False,False,False,False,False,False,False,False,False,False,False,Night,Day,Day,Day
C-2254446,2,2018-05-22 08:32:02.000000000,2018-05-22 22:03:12.000000000,34.021053,-84.48909499999998,34.014799,-84.494382,0.527632031628,Between Trickum Rd NE and Piedmont Rd NE - Construction work.,2883.0,Sandy Plains Rd,L,Marietta,Cobb,GA,30066-4552,US,US/Eastern,KRYY,2018-05-22 08:48:00,72.0,,84.0,29.31,10.0,ESE,9.2,,Mostly Cloudy,False,False,True,False,False,False,False,False,False,False,False,True,False,Day,Day,Day,Day
C-2254447,2,2020-12-16 07:00:00.000000000,2021-03-12 04:00:00.000000000,33.498133,-112.099897,33.495025,-112.0999,0.214742417528,19TH AVE - Construction - SMALL VALVE REPLACEMENT 28-25-207LanesRestricted: NB&amp;#61;2 SB ALL WB ALL19TH AVE at HEATHERBRAE DRComments: ON 19TH AVE - FROM N. 19TH AVE - TO W. HEATHERBRAE - N 19TH AVE &amp;#38; W HEATHERBRAE DR SV#8,1899.0,W Heatherbrae Dr,L,Phoenix,Maricopa,AZ,85015-4745,US,US/Mountain,KPHX,2020-12-16 06:51:00,40.0,40.0,65.0,28.98,10.0,ESE,3.0,0.0,Fair,False,False,True,False,False,False,False,False,False,True,False,True,False,Night,Day,Day,Day
C-2254448,2,2021-07-17 12:41:25.000000000,2021-07-17 14:27:54.000000000,34.769685,-97.28782,34.784338,-97.294921,1.08968384456,Slow traffic on I-35 N from Kimberlin Rd/Exit 74 (I-35) to OK-145/Exit 79 (I-35) due to roadwork.,,I-35 N,R,Pauls Valley,Garvin,OK,73075,US,US/Central,KPVJ,2021-07-17 12:35:00,89.0,89.0,65.0,29.0,10.0,S,7.0,0.0,Partly Cloudy,False,False,False,False,False,False,False,False,False,False,False,False,False,Day,Day,Day,Day
C-2254449,2,2020-11-18 22:22:24.000000000,2020-11-18 23:39:10.000000000,35.632924,-87.831292,35.62556400000001,-87.834661,0.542583893757,Slow traffic on TN-13 from TN-438/Old TN-13 (TN-13) to US-412/TN-100/TN-20/E Main St (TN-13) due to roadwork.,1004.0,Lobelville Hwy,R,Linden,Perry,TN,37096-6014,US,US/Central,KMRC,2020-11-18 22:10:00,37.0,37.0,70.0,29.69,10.0,CALM,0.0,0.0,Fair,False,False,False,False,False,False,False,False,False,False,False,False,False,Night,Night,Night,Night
C-2254450,2,2020-12-31 13:49:00.000000000,2021-01-01 02:16:57.000000000,43.620627,-116.354626,43.619397,-116.353658,0.0978098270727,Slow traffic on ID-55 from E River Valley St to N Records Way / N Records Ave due to roadwork.,1631.0,N Eagle Rd,R,Meridian,Ada,ID,83646-6536,US,US/Mountain,KMAN,2020-12-31 13:55:00,37.0,32.0,100.0,27.5,10.0,SE,7.0,0.0,Fair,False,False,False,False,False,False,False,False,False,False,False,False,False,Day,Day,Day,Day
C-2254451,2,2016-10-04 16:30:02.000000000,2016-10-06 03:00:53.000000000,38.288473,-85.756869,38.25411,-85.74336,2.48476828437,Between Eastern Boulevard/Exit 2 and I-64/I-71/Exit 137 - Construction work.,,I-65 S,R,Clarksville,Clark,IN,47129,US,US/Eastern,KLOU,2016-10-04 16:53:00,82.0,,44.0,30.01,10.0,South,5.8,,Clear,False,False,False,False,False,False,False,False,False,False,False,False,False,Day,Day,Day,Day
C-2254452,4,2016-10-14 21:00:00.000000000,2016-10-17 05:00:00.000000000,42.38771,-83.43563,42.3868,-83.43496999999998,0.0713282486145,Ramp closed to M-14 Westbound - Closed due to roadwork.,,I-275 N,R,Plymouth,Wayne,MI,48170,US,US/Eastern,KYIP,2016-10-14 20:53:00,48.9,,83.0,30.25,10.0,SE,8.1,,Clear,False,False,False,False,True,False,False,False,False,False,False,False,False,Night,Night,Night,Night
C-2254453,2,2021-04-07 07:00:00.000000000,2021-04-07 17:00:00.000000000,47.571281,-122.662331,,,0.0,Intermittent lane closures due to utility work on WA-310 Kitsap Way both ways at Morgan Rd.,1101.0,Morgan Rd NW,L,Bremerton,Kitsap,WA,98312-2630,US,US/Pacific,KPWT,2021-04-07 06:56:00,41.0,41.0,89.0,29.54,10.0,CALM,0.0,0.0,Cloudy,False,False,True,False,False,False,False,False,False,False,False,False,False,Day,Day,Day,Day
C-2254454,4,2019-06-22 03:27:39.000000000,2019-06-22 08:27:00.000000000,30.63789,-95.50856,30.691311,-95.548361,4.38396219796,Closed between FM-1374/TX-150/Exit 103 and FM-1374/Exit 114 - Closed due to roadwork.,,I-45 N,R,Huntsville,Walker,TX,77340,US,US/Central,KUTS,2019-06-22 03:53:00,82.0,82.0,85.0,29.51,8.0,S,7.0,0.0,Cloudy,False,False,False,False,False,False,False,False,False,False,False,False,False,Night,Night,Night,Night
C-2254455,2,2020-11-28 23:27:59.000000000,2020-11-29 00:47:39.000000000,35.87013599999999,-80.705577,35.90734600000001,-80.622117,5.33250149688,Stationary traffic on I-40 E from US-64/Exit 162 (I-40) to US-64/Exit 168 (I-40) due to roadwork.,,I-40 E,R,Mocksville,Davie,NC,27028,US,US/Eastern,KEXX,2020-11-28 23:35:00,42.0,42.0,99.0,29.37,10.0,CALM,0.0,0.0,Fair,False,False,False,False,False,False,False,False,False,False,False,False,False,Night,Night,Night,Night
C-2254456,2,2020-03-02 09:01:00.000000000,2020-03-03 15:01:00.000000000,37.85213,-122.28673,37.85429,-122.27106,0.867808637009,Between I-580/I-80/Eastshore Fwy and Adeline St - Maintenance work. Lane closed.,3000.0,San Pablo Ave,R,Berkeley,Alameda,CA,94702-2428,US,US/Pacific,KOAK,2020-03-02 08:53:00,61.0,61.0,17.0,30.1,10.0,N,10.0,0.0,Fair,False,False,True,False,False,False,False,False,True,False,False,True,False,Day,Day,Day,Day
C-2254457,2,2020-03-30 13:04:24.000000000,2020-04-01 15:00:00.000000000,39.63729,-84.22183000000003,39.63863,-84.22797,0.3395641961199999,At I-75 - Roadwork. Roadway reduced to 1 lane.,,Mall Park Rd,R,Dayton,Montgomery,OH,45459,US,US/Eastern,KMGY,2020-03-30 12:53:00,52.0,52.0,50.0,29.08,10.0,W,17.0,0.0,Mostly Cloudy,False,False,False,False,False,False,False,False,False,False,False,True,False,Day,Day,Day,Day
C-2254458,2,2020-11-05 12:12:30.000000000,2020-11-05 18:07:01.000000000,25.732678,-80.254005,25.726591,-80.261691,0.636982482293,Slow traffic on US-1 from Douglas Rd/37th Ave (US-1) to Le Jeune Rd/42nd Ave (US-1) due to roadwork.,3707.0,S Dixie Hwy,R,Miami,Miami-Dade,FL,33133,US,US/Eastern,KMIA,2020-11-05 11:56:00,82.0,82.0,76.0,30.06,10.0,ENE,15.0,0.0,Light Rain,False,False,True,False,False,False,False,False,False,False,False,True,False,Day,Day,Day,Day
C-2254459,2,2021-11-01 17:08:30.000000000,2021-11-01 19:45:49.000000000,30.251142,-81.743055,30.248417,-81.743812,0.193624897345,Slow traffic on FL-21 - FL-134 from Hyram Ave to Jammes Rd due to roadwork.,6199.0,Hyram Ave,R,Jacksonville,Duval,FL,32210-7813,US,US/Eastern,KNIP,2021-11-01 16:53:00,72.0,72.0,66.0,30.09,10.0,NE,9.0,0.0,Mostly Cloudy,False,False,True,False,False,False,False,False,False,False,False,False,False,Day,Day,Day,Day
C-2254461,2,2021-09-26 18:42:33.000000000,2021-09-26 19:02:33.000000000,40.764738,-73.982201,40.765418,-73.983811,0.0964674721171999,Slow traffic from Broadway to 8th Ave due to roadwork.,1728.0,Broadway,R,New York,New York,NY,10019-5902,US,US/Eastern,KNYC,2021-09-26 18:51:00,69.0,,39.0,29.82,10.0,,,0.0,Fair,True,False,True,False,False,False,False,False,False,False,False,True,False,Day,Day,Day,Day
C-2254462,2,2021-10-27 15:55:04.000000000,2021-10-27 18:14:32.000000000,26.951176,-80.085145,26.95235,-80.085853,0.0920931827314,Stationary traffic on US-1 N - FL-A1A Alt - FL-811 - FL-A1A - FL-5 from Jupiter Cove Dr to N Old Dixie Hwy due to roadwork.,,N US Highway 1,R,Jupiter,Palm Beach,FL,33469,US,US/Eastern,KSUA,2021-10-27 15:47:00,86.0,86.0,35.0,29.82,7.0,NW,12.0,0.0,Fair,False,False,False,False,False,False,False,False,False,False,False,False,False,Day,Day,Day,Day
C-2254463,3,2018-03-08 21:30:00.000000000,2018-03-09 05:30:00.000000000,37.479008,-76.917015,,,0.0,Intermittent lane closures due to bridge maintenance work on I-64 Eastbound at Exit 220 VA-33 Eltham Rd.,,I-64 W,R,Lanexa,New Kent,VA,23089,US,US/Eastern,KFYJ,2018-03-08 21:35:00,38.8,33.8,51.0,29.9,10.0,WNW,6.9,,Clear,False,False,False,False,False,False,False,False,False,False,False,False,False,Night,Night,Night,Night
C-2254464,3,2020-07-24 21:00:00.000000000,2020-07-25 06:00:00.000000000,41.548649,-83.605469,,,1.27999997139,Entry ramp to I-75 Southbound from US-23 Southbound closed due to construction work.,,US-23 N,R,Perrysburg,Wood,OH,43551,US,US/Eastern,KTDZ,2020-07-24 20:53:00,77.0,77.0,60.0,29.45,10.0,E,5.0,0.0,Fair,False,False,False,False,False,False,False,False,False,False,False,False,False,Night,Day,Day,Day
C-2254465,2,2020-06-30 19:25:06.000000000,2020-07-03 02:19:29.000000000,43.087123,-77.611917,43.087133,-77.611517,0.0201958278159,Roadwork on NY 252 eastbound between Mile Marker 243011014 (Chili) and Mile Marker 25243011016 (Chili) Emergency excavation of diesel fuel impacted soil off shoulder of Route 252 EB. Not currently scheduled,1007.0,Jefferson Rd,R,Rochester,Monroe,NY,14623-3138,US,US/Eastern,KROC,2020-06-30 19:54:00,72.0,72.0,64.0,29.37,10.0,NE,12.0,0.0,Partly Cloudy,False,False,False,False,False,False,False,False,False,False,False,False,False,Day,Day,Day,Day
C-2254466,4,2021-11-14 08:32:30.000000000,2021-11-15 23:58:27.000000000,47.637847,-121.93098,47.587139,-121.926219,3.5106003459199995,Closed road from NE Tolt Hill Rd to SE 24th St due to roadwork.,3398.0,W Snoqualmie River Rd NE,R,Carnation,King,WA,98014-8103,US,US/Pacific,KRNT,2021-11-14 08:31:00,59.0,59.0,96.0,29.92,2.0,S,12.0,0.0,Fog,False,False,False,False,False,False,False,False,False,False,False,False,False,Day,Day,Day,Day
C-2254467,2,2021-06-15 11:37:00.000000000,2021-06-15 18:18:05.000000000,39.763705,-86.343858,39.763699,-86.33254000000002,0.601114334839,Slow traffic on US-36 E - US-36 W from IN-267 (US-36) to Raceway Rd (Rockville Rd/US-36) due to roadwork.,10083.0,E US Highway 36,R,Avon,Hendricks,IN,46123-7986,US,US/Eastern,KIND,2021-06-15 11:54:00,76.0,76.0,40.0,29.21,10.0,N,18.0,0.0,Fair,False,False,False,False,False,False,False,False,False,False,False,False,False,Day,Day,Day,Day
C-2254468,2,2021-07-06 14:04:30.000000000,2021-07-07 00:57:31.000000000,44.747162,-109.212584,44.704618,-109.216479,2.94572242334,Roadwork on Black and White Rd (WY-120) from CR-7UH/Monument Hill Rd (WY-120) to WY-120.,,Belfry Hwy,R,Cody,Park,WY,82414,US,US/Mountain,KCOD,2021-07-06 13:56:00,85.0,85.0,30.0,25.0,10.0,E,8.0,0.0,Fair,False,False,False,False,False,False,False,False,False,False,False,False,False,Day,Day,Day,Day
C-2254469,4,2017-07-28 04:38:43.000000000,2017-07-28 10:40:13.000000000,39.900332,-75.62539699999998,39.900403,-75.619918,0.290460094435,Closed at Creek Rd - Closed due to roadwork.,2099.0,W Street Rd,L,West Chester,Chester,PA,19382-8812,US,US/Eastern,KOQN,2017-07-28 04:35:00,72.0,72.0,100.0,29.16,0.25,CALM,0.0,0.0,Fog,False,False,True,False,False,False,True,False,False,False,False,False,False,Night,Night,Night,Day
C-2254470,2,2021-06-19 07:00:00.000000000,2021-06-19 19:45:00.000000000,36.929138,-78.06309499999998,36.928744,-78.063728,0.0443104049158,Construction on VA-645 SB near DUNDAS RD Drive with caution.,4301.0,Dundas Rd,R,Kenbridge,Lunenburg,VA,23944,US,US/Eastern,KAVC,2021-06-19 06:55:00,71.0,71.0,75.0,29.52,10.0,SSW,9.0,0.0,Fair,False,False,False,False,False,False,False,False,False,False,False,False,False,Day,Day,Day,Day
C-2254471,2,2020-10-06 13:30:30.000000000,2020-10-06 20:55:30.000000000,40.147186,-75.308648,40.152112,-75.305127,0.387839341087,Queuing traffic on US-202 from Germantown Pike (DeKalb Blvd/US-202) to DeKalb Pike/Swede Rd (DeKalb St/US-202) due to roadwork.,3206.0,Dekalb Pike,R,Norristown,Montgomery,PA,19401-1528,US,US/Eastern,KLOM,2020-10-06 13:35:00,69.0,69.0,49.0,29.75,10.0,SSW,12.0,0.0,Mostly Cloudy,False,False,False,False,False,False,False,False,False,False,False,True,False,Day,Day,Day,Day
C-2254472,2,2020-11-25 16:21:30.000000000,2020-11-25 19:09:00.000000000,38.226157,-78.225689,38.223667,-78.214294,0.641990412878,Stationary traffic on VA-231 - VA-20 from US-33/Spotswood Trl (Barboursville) (North) (Constitution Hwy/VA-20) to US-15/S Madison Rd (Caroline St/VA-20) due to roadwork.,8561.0,Constitution Hwy,R,Somerset,Orange,VA,22972-2426,US,US/Eastern,KOMH,2020-11-25 16:15:00,54.0,54.0,62.0,29.69,10.0,S,3.0,0.0,Cloudy,False,False,False,False,False,False,False,False,False,False,False,False,False,Day,Day,Day,Day
C-2254473,2,2019-01-02 09:00:00.000000000,2019-01-04 15:00:00.000000000,38.588006,-77.305932,38.57109000000001,-77.31898000000002,1.36482645632,At Old Stage Coach Rd - Maintenance work. Lane blocked.,,River Ridge Blvd,R,Dumfries,Prince William,VA,22026,US,US/Eastern,KNYG,2019-01-02 08:56:00,43.0,,89.0,30.36,10.0,Calm,,,Overcast,False,False,True,False,False,False,False,False,False,False,False,True,False,Day,Day,Day,Day
C-2254474,2,2021-05-26 15:58:00.000000000,2021-05-26 17:19:30.000000000,41.111056,-85.17348199999998,41.11748400000001,-85.179413,0.540899992837,Stationary traffic on IN-930 from Pa Railroad to Hatfield Rd due to roadwork.,2412.0,Goshen Rd,R,Fort Wayne,Allen,IN,46808-1439,US,US/Eastern,KFWA,2021-05-26 15:54:00,75.0,75.0,69.0,29.16,10.0,WSW,12.0,0.0,Mostly Cloudy,False,False,False,False,False,False,False,False,False,False,False,False,False,Day,Day,Day,Day
C-2254475,2,2021-12-13 07:44:00.000000000,2021-12-13 08:12:30.000000000,42.905777,-78.900188,42.903612,-78.898942,0.162335836499,Slow traffic from United States--Canada International Border (Peace Bridge Plz) to I-190/Niagara Trwy (Peace Bridge) due to roadwork.,,Peace Brg,R,Buffalo,Erie,NY,14213,US,US/Eastern,KBUF,2021-12-13 07:54:00,40.0,31.0,60.0,29.35,10.0,SW,17.0,0.0,Mostly Cloudy,False,False,False,False,False,False,False,False,False,False,False,False,False,Day,Day,Day,Day
C-2254476,2,2020-07-01 17:01:00.000000000,2020-07-02 01:44:00.000000000,37.397836,-122.027989,37.399726,-122.027469,0.133669493188,Construction on MATHILDA AVE NB near US-101 Construction. Expect long delays.,,N Mathilda Ave,R,Sunnyvale,Santa Clara,CA,94085,US,US/Pacific,KNUQ,2020-07-01 23:15:00,61.0,61.0,72.0,29.8,10.0,SSE,5.0,,Fair,False,False,False,False,False,False,False,False,False,False,False,True,False,Day,Day,Day,Day
C-2254477,2,2021-01-17 03:11:30.000000000,2021-01-17 03:48:00.000000000,31.771148,-106.446422,31.769573,-106.450635,0.270344536238,Stationary traffic on I-110 W from US-54/Patriot Fwy (I-110) to US-62/E Paisano Dr (I-110) due to roadwork.,,I-110 W,R,El Paso,El Paso,TX,79905,US,US/Mountain,KELP,2021-01-17 06:58:00,32.0,32.0,32.0,26.23,10.0,CALM,0.0,,Mostly Cloudy,False,False,False,False,True,False,False,False,False,False,False,True,False,Night,Night,Night,Night
C-2254478,2,2020-11-14 12:32:00.000000000,2020-11-14 23:53:28.000000000,27.867759000000003,-82.326543,27.871738,-82.327814,0.285673283136,Stationary traffic on FL-43 - US-301 N from Balm Riverview Rd to Commerce St due to roadwork.,8338.0,US Highway 301 S,R,Riverview,Hillsborough,FL,33578,US,US/Eastern,KTPF,2020-11-14 12:35:00,84.0,84.0,62.0,30.06,10.0,ESE,6.0,0.0,Mostly Cloudy,False,False,False,False,False,False,False,False,False,False,False,False,False,Day,Day,Day,Day
C-2254479,2,2020-07-27 14:30:00.000000000,2020-08-01 06:59:00.000000000,41.452285,-73.841548,41.467792,-73.822451,1.4580017793900002,Roadwork on NY 301 both directions between Dennytown Road (Cold Spring) and Taconic State Parkway (Putnam Valley) 20190882491 Monday July 27th 2020 thru Friday July 31st 2020 Monday thru Friday 07:30 AM thru 04:00 PM right shoulder closures,1237.0,Route 301,R,Putnam Valley,Putnam,NY,10579,US,US/Eastern,KSWF,2020-07-27 14:45:00,93.0,93.0,41.0,29.26,10.0,W,17.0,0.0,Fair,False,False,False,False,False,False,False,False,False,True,False,False,False,Day,Day,Day,Day
C-2254480,2,2021-12-06 15:39:00.000000000,2021-12-06 17:40:31.000000000,33.673635,-112.031079,33.672169,-112.031069,0.10129258514,Slow traffic from E Deer Valley (N Cave Creek Rd) to AZ-101 (N Cave Creek Rd) due to roadwork.,20734.0,N Cave Creek Rd,L,Phoenix,Maricopa,AZ,85024,US,US/Mountain,KDVT,2021-12-06 15:53:00,74.0,,19.0,28.36,10.0,,,0.0,Fair,False,False,True,False,False,False,False,False,False,False,False,True,False,Day,Day,Day,Day
C-2254481,2,2021-10-07 12:08:00.000000000,2021-10-07 20:40:48.000000000,39.76371500000001,-86.34113,39.763001,-86.336865,0.231830725496,Slow traffic on US-36 E - US-36 W from Shiloh Park Dr to Conrail Railroad due to roadwork.,10239.0,E US Highway 36,R,Avon,Hendricks,IN,46123-7985,US,US/Eastern,KIND,2021-10-07 11:54:00,70.0,70.0,76.0,29.29,10.0,SSE,10.0,0.0,Mostly Cloudy,False,False,False,False,False,False,False,False,False,False,False,False,False,Day,Day,Day,Day
C-2254482,2,2020-07-18 14:00:00.000000000,2020-07-18 22:45:00.000000000,36.999537,-80.186587,36.999572,-80.185525,0.0586518650725999,Construction on US-221 NB near STUART RD Drive with caution.,5006.0,Floyd Hwy N,R,Copper Hill,Floyd,VA,24079,US,US/Eastern,KBCB,2020-07-18 13:55:00,88.0,88.0,52.0,27.96,10.0,WNW,5.0,0.0,Fair,False,False,False,False,False,False,False,False,False,False,False,False,False,Day,Day,Day,Day
C-2254483,2,2021-03-01 07:01:00.000000000,2021-03-01 18:46:00.000000000,39.150928,-123.542696,39.160275,-123.566755,1.4417513300799998,Construction on CA-128 WB near W LIMITS PHILO Expect long delays.,499.0,Highway 128,R,Philo,Mendocino,CA,95466,US,US/Pacific,KUKI,2021-03-01 06:56:00,35.0,35.0,85.0,29.47,10.0,CALM,0.0,0.0,Fair,False,False,False,False,False,False,False,False,False,False,False,False,False,Day,Day,Day,Day
C-2254484,2,2021-12-20 14:19:00.000000000,2021-12-20 16:38:59.000000000,33.859653,-117.894848,33.859192,-117.889384,0.315114582553,Slow traffic from S Acacia Ave to N State College Blvd due to roadwork.,2032.0,E Orangethorpe Ave,R,Fullerton,Orange,CA,92831-5327,US,US/Pacific,KFUL,2021-12-20 13:53:00,65.0,65.0,33.0,29.98,9.0,VAR,3.0,0.0,Fair,False,False,False,False,False,False,False,False,False,False,False,False,False,Day,Day,Day,Day
C-2254485,2,2019-05-14 23:13:28.000000000,2019-05-15 05:01:00.000000000,32.766499,-117.15126,,,0.0,One lane closed due to construction work on Camino Del Rio both ways at I-8.,,Camino del Rio N,R,San Diego,San Diego,CA,92108,US,US/Pacific,KMYF,2019-05-14 23:06:00,60.0,60.0,83.0,29.55,10.0,WNW,3.0,0.0,Mostly Cloudy,False,False,False,False,False,False,False,False,False,False,False,False,False,Night,Night,Night,Night
C-2254487,2,2021-06-10 17:30:25.000000000,2021-06-11 01:59:23.000000000,43.168936,-89.776213,43.162511,-89.768052,0.605158704257,Roadwork on CR-KP (Mazomanie) (E Commercial St/US-14) from WI-78/Mills St (State St/US-14) to US-14 E - WI-78 - US-14 W.,10315.0,US Highway 14,L,Mazomanie,Dane,WI,53560-9704,US,US/Central,KC29,2021-06-10 17:35:00,92.0,92.0,35.0,28.88,10.0,ESE,3.0,0.0,Fair,False,False,False,False,False,False,False,False,False,False,False,False,False,Day,Day,Day,Day
C-2254488,2,2021-03-15 07:18:30.000000000,2021-07-02 19:07:30.000000000,39.162,-84.515579,39.15323,-84.539249,1.4054731564899998,Slow traffic on I-75 S from Mitchell Ave/Exit 6 (I-75) to I-74/US-52/US-27/Exit 4 (I-75) due to roadwork.,,I-75 S,R,Cincinnati,Hamilton,OH,45232,US,US/Eastern,KLUK,2021-07-02 06:16:00,65.0,65.0,90.0,29.44,10.0,NNE,5.0,0.0,Mostly Cloudy,False,False,False,False,True,False,False,False,False,False,False,False,False,Night,Night,Day,Day
C-2254489,2,2021-06-21 11:45:08.000000000,2021-06-21 18:13:10.000000000,40.7022,-73.866794,40.716217,-73.825587,2.36555083618,Slow traffic from Myrtle Ave exit [5] to Grand Central Pkwy W exit [8W] due to roadwork.,,Jackie Robinson Pkwy N,R,Ridgewood,Queens,NY,11385,US,US/Eastern,KLGA,2021-06-21 11:51:00,83.0,83.0,63.0,29.69,10.0,SSW,14.0,0.0,Mostly Cloudy,False,False,False,False,True,False,False,False,False,False,False,False,False,Day,Day,Day,Day
C-2254490,4,2021-04-01 10:42:00.000000000,2021-12-01 23:59:00.000000000,29.424992,-98.48655,29.425038,-98.485709,0.0507113518644,Closed road from Alamo Plz / Blum St to Bonham due to roadwork.,513.0,Alamo Plz,L,San Antonio,Bexar,TX,78205,US,US/Central,KSSF,2021-11-28 08:53:00,54.0,54.0,83.0,29.55,10.0,CALM,0.0,0.0,Fair,False,False,False,False,False,False,False,False,False,False,False,False,False,Day,Day,Day,Day
C-2254491,2,2021-06-30 16:06:19.000000000,2021-06-30 16:37:05.000000000,40.04685300000001,-78.50873299999998,40.054121,-78.510814,0.514090993641,Slow traffic on US-220 Bus S - US-220 Bus N from US-30 (Overpass) (US-220 Bus) to I-99/US-220 (US-220 Bus) due to roadwork.,4136.0,Business 220,R,Bedford,Bedford,PA,15522-7739,US,US/Eastern,KHMZ,2021-06-30 16:02:00,81.0,81.0,54.0,28.46,10.0,NW,17.0,0.0,Fair,False,False,False,False,False,False,False,False,False,False,False,False,False,Day,Day,Day,Day
C-2254492,2,2020-09-30 08:00:00.000000000,2020-10-23 08:45:00.000000000,33.494921000000005,-112.139157,33.494861,-112.130947,0.4730736289769999,Construction on INDIAN SCHOOL RD near INDIAN SCHOOL RD Allow extra time.,,W Indian School Rd,R,Phoenix,Maricopa,AZ,85019,US,US/Mountain,KGEU,2020-09-30 07:56:00,70.0,70.0,28.0,28.81,10.0,N,5.0,0.0,Fair,False,False,False,False,False,False,False,False,False,False,False,False,False,Day,Day,Day,Day
C-2254493,2,2020-05-08 09:49:23.000000000,2020-05-08 15:30:00.000000000,41.59821,-71.65887,41.59828,-71.65885,0.00494570531059,At RI-102/Exit 5 - Construction work.,,I-95 N,R,West Greenwich,Washington,RI,02817,US,US/Eastern,KOQU,2020-05-08 09:50:00,54.0,54.0,33.0,29.8,10.0,NW,12.0,,Cloudy,False,False,False,False,True,False,False,False,False,False,False,False,False,Day,Day,Day,Day
C-2254494,2,2020-08-28 13:23:00.000000000,2020-08-29 09:03:15.000000000,31.516697,-92.712994,31.512712,-92.710821,0.303633664156,Roadwork on LA-8 from Main St / Palm St to Highway 8.,2398.0,2nd St,R,Colfax,Grant,LA,71417,US,US/Central,KAEX,2020-08-28 13:01:00,82.0,82.0,74.0,29.79,10.0,SSW,9.0,0.0,Fair,False,False,False,False,False,False,False,False,False,False,False,False,False,Day,Day,Day,Day
C-2254495,2,2019-03-02 23:02:13.000000000,2019-04-02 09:04:11.000000000,25.732861,-80.34833,25.7326,-80.359371,0.6874434933140001,Between 94th Ave and 102nd Ave - Construction work.,9441.0,SW 40th St,R,Miami,Miami-Dade,FL,33165-4033,US,US/Eastern,KMIA,2019-03-06 20:53:00,60.1,,64.0,30.29,10.0,North,5.8,,Partly Cloudy,False,False,False,False,False,False,False,False,False,False,False,False,False,Night,Night,Night,Night
C-2254496,2,2021-07-20 11:19:30.000000000,2021-10-17 00:43:30.000000000,35.149114000000004,-106.685142,35.148587,-106.687578,0.14235704236,Slow traffic on NM-448 from Winter Haven Dr NW to Dellyne Ave NW due to roadwork.,3995.0,Montano Rd NW,L,Albuquerque,Bernalillo,NM,87120,US,US/Mountain,KAEG,2021-07-20 11:49:00,82.0,82.0,39.0,24.45,10.0,SSE,12.0,0.0,Partly Cloudy,False,False,False,False,False,False,False,False,False,False,False,False,False,Day,Day,Day,Day
C-2254497,2,2020-10-14 03:00:00.000000000,2020-10-14 13:45:00.000000000,40.705963,-74.24548399999998,40.707445,-74.245189,0.103555641733,Construction on GARDEN STATE PKWY NB near I-78 Construction. Expect long delays.,,Garden State Pkwy N,R,Hillside,Union,NJ,07205,US,US/Eastern,KEWR,2020-10-14 02:51:00,51.0,51.0,83.0,29.9,10.0,W,8.0,0.0,Fair,False,False,False,False,False,False,False,False,False,False,False,False,False,Night,Night,Night,Night
C-2254498,2,2021-05-06 06:10:30.000000000,2021-05-06 20:22:02.000000000,25.841986,-80.12111800000002,25.845316,-80.12031,0.235503220081,Slow traffic on FL-A1A from FL-A1A/Indian Creek Dr (Miami Beach) (North) (FL-A1A) to FL-934/71st St (FL-A1A) due to roadwork.,5937.0,Collins Ave,R,Miami Beach,Miami-Dade,FL,33140-2259,US,US/Eastern,KMIA,2021-05-06 05:53:00,77.0,77.0,88.0,30.02,10.0,CALM,0.0,0.0,Fair,False,False,False,False,False,False,False,False,False,True,False,False,False,Night,Night,Day,Day
C-2254499,2,2021-12-07 07:30:00.000000000,2021-12-07 12:00:00.000000000,30.145203,-90.449806,,,0.0,Lane closed due to emergency repairs on I-55 Northbound at Exit 1 US-51.,,I-55 N,R,LA Place,St. John the Baptist,LA,70068,US,US/Central,KMSY,2021-12-07 07:53:00,60.0,60.0,93.0,30.08,6.0,NE,7.0,0.0,Cloudy,False,False,False,False,False,False,False,False,False,False,False,False,False,Day,Day,Day,Day
C-2254500,2,2021-11-12 17:53:34.000000000,2021-11-12 18:24:00.000000000,34.012059,-118.40428,34.003493,-118.411019,0.70659268448,Stationary traffic from Overland Ave (Culver Blvd) to I-405/Sawtelle Blvd/San Diego Fwy (Culver Blvd) due to roadwork.,,Coombs Ave,R,Culver City,Los Angeles,CA,90230,US,US/Pacific,KSMO,2021-11-12 17:51:00,73.0,73.0,38.0,29.83,10.0,CALM,0.0,0.0,Fair,False,False,True,False,False,False,False,False,False,True,False,True,False,Night,Night,Night,Day
C-2254501,4,2021-07-22 07:00:00.000000000,2021-07-22 15:00:00.000000000,40.343808,-75.337126,40.34813,-75.334191,0.336247514411,Closed road from Clymer Ave to Lonely Rd due to roadwork.,299.0,W Branch Rd,R,Sellersville,Bucks,PA,18960-3013,US,US/Eastern,KUKT,2021-07-22 06:55:00,61.0,61.0,88.0,29.53,10.0,CALM,0.0,0.0,Fair,False,False,False,False,False,False,False,False,False,False,False,False,False,Day,Day,Day,Day
C-2254502,2,2021-07-20 16:11:27.000000000,2021-07-20 16:38:36.000000000,30.160436,-92.044459,30.156492,-92.048366,0.358800490686,Slow traffic from Camellia Blvd (Kaliste Saloom Rd/LA-3095) to LA-3073/Ambassador Caffery Pkwy (Kaliste Saloom Rd/LA-3095) due to roadwork.,2311.0,Kaliste Saloom Rd,R,Lafayette,Lafayette,LA,70508-6807,US,US/Central,KLFT,2021-07-20 15:53:00,81.0,,82.0,29.85,10.0,,,0.05,Mostly Cloudy,False,False,False,False,False,False,False,False,False,False,False,False,False,Day,Day,Day,Day
C-2254503,2,2020-02-04 09:00:00.000000000,2020-02-04 15:00:00.000000000,35.749763,-83.994675,,,0.0,Intermittent lane closures due to construction work on US-129 both ways at US-321 Lamar Alexander Pkwy.,,W Lamar Alexander Pkwy,R,Maryville,Blount,TN,37801,US,US/Eastern,KTYS,2020-02-04 09:05:00,57.0,57.0,81.0,28.95,10.0,WSW,12.0,0.0,Cloudy,False,False,False,False,False,False,False,False,False,False,False,True,False,Day,Day,Day,Day
C-2254504,2,2020-10-27 15:00:00.000000000,2020-10-28 02:45:00.000000000,36.664606,-78.132501,36.707326,-78.11578100000001,3.09363923477,Construction on I-85 NB near MM 0 Drive with caution.,,I-85 N,R,La Crosse,Mecklenburg,VA,23950,US,US/Eastern,KAVC,2020-10-27 14:55:00,65.0,65.0,86.0,29.74,10.0,CALM,0.0,0.0,Cloudy,False,False,False,False,False,False,False,False,False,False,False,False,False,Day,Day,Day,Day
C-2254506,2,2019-02-10 10:01:47.000000000,2019-02-14 10:01:41.000000000,40.88921,-73.8152,40.91464000000001,-73.81231,1.7635157005500002,Between US-1/Boston Rd/Exit 7 and Lincoln Ave/Exit 12 - Construction work.,,Hutchinson River Pkwy N,R,Pelham,Westchester,NY,10803,US,US/Eastern,KLGA,2019-02-10 09:51:00,27.0,19.5,49.0,30.65,10.0,NW,6.9,,Partly Cloudy,False,False,False,False,True,False,False,False,False,False,False,False,False,Day,Day,Day,Day
C-2254507,3,2019-09-24 08:01:35.000000000,2019-09-28 08:01:34.000000000,26.20823,-80.25229,26.218588,-80.252551,0.71585248815,Between McNab Rd and 78th St - Construction work. Left lane blocked.,,W McNab Rd,R,Fort Lauderdale,Broward,FL,33321,US,US/Eastern,KFXE,2019-09-24 07:53:00,73.0,73.0,84.0,29.89,10.0,NW,6.0,0.0,Partly Cloudy,False,False,True,False,False,False,False,False,False,False,False,True,False,Day,Day,Day,Day
C-2254508,2,2021-11-22 07:11:00.000000000,2021-11-22 10:03:31.000000000,41.135636,-85.120209,41.133221,-85.12268900000002,0.2109456803819999,Slow traffic from Bethany Ln to Offerle Ave due to roadwork.,6177.0,N Clinton St,L,Fort Wayne,Allen,IN,46825-4907,US,US/Eastern,KGWB,2021-11-22 07:35:00,32.0,25.0,69.0,29.17,10.0,W,8.0,0.0,Mostly Cloudy,False,False,False,False,False,False,False,False,False,False,False,False,False,Night,Day,Day,Day
C-2254509,2,2021-09-13 14:09:30.000000000,2021-09-13 17:31:45.000000000,42.480298,-83.084676,42.475828,-83.08450699999999,0.308967633285,Stationary traffic from I-696 (Dequindre Rd) to E 9 Mile Rd (Dequindre Rd) due to roadwork.,25448.0,Dequindre Rd,R,Warren,Macomb,MI,48091-1349,US,US/Eastern,KDET,2021-09-13 14:24:00,70.0,70.0,68.0,29.47,10.0,N,8.0,0.0,Thunder in the Vicinity,False,False,True,False,False,False,False,False,True,False,False,False,False,Day,Day,Day,Day
C-2254510,2,2021-12-28 20:27:00.000000000,2021-12-29 00:19:14.000000000,47.630367,-122.326246,47.635851,-122.323072,0.406707765991,Roadwork on Fairview Ave/Mercer St/Exit 167 (I-5 Exp) from Lakeview Blvd/Exit 168 (I-5 Exp) to I-5 N - I-5 S.,,I-5 N,R,Seattle,King,WA,98102,US,US/Pacific,KBFI,2021-12-28 20:53:00,27.0,20.0,78.0,29.75,10.0,N,6.0,0.0,Cloudy,False,False,False,False,False,False,False,False,False,False,False,False,False,Night,Night,Night,Night
C-2254511,2,2020-04-17 09:21:21.000000000,2020-04-17 15:00:00.000000000,38.54632,-76.08612,38.50202,-76.1526,4.72043272705,At MD-335/Church Creek-Golden Hill Rd - Roadwork. Single alternate lane traffic.,1886.0,Race St,R,Cambridge,Dorchester,MD,21613-3014,US,US/Eastern,KCGE,2020-04-17 09:20:00,48.0,46.0,40.0,30.34,10.0,SE,6.0,0.0,Fair,False,False,False,False,False,False,False,False,False,False,False,True,False,Day,Day,Day,Day
C-2254512,2,2021-08-26 12:46:00.000000000,2021-08-26 13:21:30.000000000,42.596255,-114.135923,42.596253,-114.133307,0.133056430436,Stationary traffic on ID-25 from N Middleton Ave to N Brooks Ave due to roadwork.,101.0,Middleton Ave,R,Hazelton,Jerome,ID,83335,US,US/Mountain,KJER,2021-08-26 12:53:00,72.0,72.0,27.0,25.98,9.0,W,10.0,0.0,Fair,True,False,False,False,False,False,False,False,False,False,False,False,False,Day,Day,Day,Day
C-2254513,2,2018-02-28 09:02:06.000000000,2018-02-28 15:02:06.000000000,40.316487,-75.099716,40.31391,-75.10553,0.354293654664,At PA-313/Swamp Rd - Construction work.,3776.0,Route 202,L,Mechanicsville,Bucks,PA,18934-9527,US,US/Eastern,KDYL,2018-02-28 08:54:00,44.1,40.8,,30.11,10.0,SW,5.8,,Clear,False,False,False,False,False,False,False,False,False,False,False,True,False,Day,Day,Day,Day
C-2254514,2,2020-09-29 14:00:00.000000000,2020-09-30 02:45:00.000000000,42.900313,-78.217259,42.901553,-78.192149,1.27378022921,Construction on US-20 EB near BROWNS MILL RD Right shoulder closed.,4098.0,Broadway Rd,R,Alexander,Genesee,NY,14005-9781,US,US/Eastern,KBUF,2020-09-29 13:54:00,63.0,63.0,56.0,29.05,10.0,WSW,12.0,0.0,Mostly Cloudy,False,False,False,False,False,False,False,False,False,False,False,False,False,Day,Day,Day,Day
C-2254516,2,2020-12-21 13:09:30.000000000,2020-12-22 01:04:30.000000000,43.668954,-116.354402,43.662988,-116.354567,0.412293826545,Stationary traffic on ID-55 from ID-44 Byp/S Eagle Rd (ID-55) to US-20/US-26/Chinden Blvd (ID-55) due to roadwork.,2818.0,S Eagle Rd,R,Eagle,Ada,ID,83616,US,US/Mountain,KBOI,2020-12-21 12:53:00,54.0,54.0,66.0,27.01,10.0,ESE,12.0,0.0,Fair,False,False,True,False,False,False,False,False,False,False,False,True,False,Day,Day,Day,Day
C-2254517,2,2020-10-02 03:01:00.000000000,2020-10-02 13:44:00.000000000,34.15935,-118.466256,34.112125,-118.335776,8.144272295139999,Lane closure due to K-Rail Installation between Hollywood Freeway Route 101 and Highland Ave,,US-101 S,R,Sherman Oaks,Los Angeles,CA,91403,US,US/Pacific,KVNY,2020-10-02 02:51:00,73.0,73.0,39.0,29.04,10.0,CALM,0.0,0.0,Fair,False,False,False,False,False,False,False,False,False,False,False,False,False,Night,Night,Night,Night
C-2254518,2,2020-12-01 17:14:30.000000000,2020-12-02 02:51:36.000000000,33.494021999999994,-112.099909,33.495026,-112.100624,0.0806811535802,Slow traffic from W Fairmount Ave to N 20th Ave due to roadwork.,4031.0,N 19th Ave,R,Phoenix,Maricopa,AZ,85015-5302,US,US/Mountain,KPHX,2020-12-01 16:51:00,70.0,70.0,15.0,28.77,10.0,W,7.0,0.0,Fair,True,False,False,False,False,False,False,False,True,True,False,False,False,Day,Day,Day,Day
C-2254519,2,2019-04-24 09:02:45.000000000,2019-04-28 09:02:39.000000000,26.75986,-80.10863,26.75471,-80.10899,0.356523593239,Between 45th St and Shiloh Dr - Roadwork. Lane blocked.,5603.0,N Military Trl,R,West Palm Beach,Palm Beach,FL,33407-1841,US,US/Eastern,KPBI,2019-04-24 08:53:00,75.0,75.0,57.0,30.03,10.0,E,8.0,0.0,Partly Cloudy,False,False,False,False,False,False,False,False,False,False,False,True,False,Day,Day,Day,Day
C-2254520,2,2020-11-06 17:00:00.000000000,2020-11-06 23:45:00.000000000,43.154178,-77.537802,43.160848,-77.53904200000002,0.465071657527,Construction on NY-590 NB near BROWNCROFT BLVD Construction. Shoulder closed.,,Sea Breeze Expy N,R,Rochester,Monroe,NY,14610,US,US/Eastern,KROC,2020-11-06 16:54:00,64.0,64.0,52.0,29.57,10.0,W,14.0,0.0,Mostly Cloudy,False,False,False,False,False,False,False,False,False,False,False,False,False,Night,Day,Day,Day
C-2254522,2,2021-11-24 09:09:00.000000000,2021-11-24 11:14:14.000000000,35.161488,-101.883867,35.164151000000004,-101.883906,0.1840089632189999,Stationary traffic from Canyon Dr (N Western St) to SW 45th Ave (N Western St) due to roadwork.,4598.0,S Western St,R,Amarillo,Randall,TX,79109-8042,US,US/Central,KAMA,2021-11-24 08:53:00,56.0,56.0,45.0,26.14,10.0,WSW,15.0,0.0,Fair,False,False,False,False,False,False,False,False,False,False,False,False,False,Day,Day,Day,Day
C-2254523,4,2021-09-17 20:00:00.000000000,2021-09-20 05:00:00.000000000,39.698034,-75.602899,39.697524,-75.602519,0.0406176930666,Construction on DE-141 SB near EXIT 3B Road closed. Take alternate route.,,DE-141 S,R,New Castle,New Castle,DE,19720,US,US/Eastern,KILG,2021-09-17 19:51:00,75.0,75.0,79.0,30.05,10.0,NE,12.0,0.0,Cloudy,False,False,False,False,False,False,False,False,False,False,False,False,False,Night,Night,Day,Day
C-2254524,2,2020-11-14 22:07:30.000000000,2020-11-15 02:48:53.000000000,29.577158,-95.175299,29.53702800000001,-95.1385,3.5467653840699995,Roadwork on Clear Lake City Blvd from FM-518 exit [23] to I-45 N - I-45 S.,,I-45 S,R,Friendswood,Harris,TX,77546,US,US/Central,KLVJ,2020-11-14 21:53:00,75.0,75.0,87.0,29.87,10.0,S,12.0,0.0,Fair,False,False,False,False,False,False,False,False,False,False,False,False,False,Night,Night,Night,Night
C-2254525,2,2020-09-13 20:32:00.000000000,2020-09-13 20:53:00.000000000,42.070811,-120.31641299999998,42.066097,-120.315895,0.326788230548,Stationary traffic on US-395 from Crane Creek Rd (US-395) to State Line Rd/CA--OR State Border (US-395) due to construction work.,13999.0,Highway 395,R,Lakeview,Lake,OR,97630-9221,US,US/Pacific,KLKV,2020-09-13 20:53:00,65.0,65.0,24.0,25.31,10.0,SE,9.0,0.0,Fair,False,False,False,False,False,False,False,False,False,False,False,False,False,Night,Night,Night,Day
C-2254526,2,2020-10-28 23:46:30.000000000,2020-10-29 00:31:00.000000000,45.605094,-122.412492,45.602409,-122.407013,0.3233589787599999,Stationary traffic on WA-500 from NW Lacamas Ln to NE 23rd Ave due to roadwork.,248.0,NW Lake Rd,R,Camas,Clark,WA,98607-9528,US,US/Pacific,KTTD,2020-10-28 23:53:00,44.0,44.0,85.0,30.16,10.0,CALM,0.0,0.0,Fair,False,False,True,False,False,False,False,False,False,False,False,False,False,Night,Night,Night,Night
C-2254527,2,2020-11-01 12:59:30.000000000,2020-11-02 04:28:04.000000000,40.742918,-73.917929,40.740941,-73.917238,0.141306163516,Slow traffic on NY-25 from 46th St to 47th Ave due to roadwork.,4634.0,Queens Blvd,R,Sunnyside,Queens,NY,11104-1712,US,US/Eastern,KNYC,2020-11-01 12:51:00,52.0,52.0,89.0,29.82,4.0,VAR,3.0,0.04,Light Rain,False,False,False,False,False,False,True,False,True,False,False,True,False,Day,Day,Day,Day
C-2254528,4,2021-09-26 08:15:00.000000000,2021-09-26 14:00:00.000000000,33.882609,-118.349643,33.885054,-118.352083,0.219377175802,Construction on I-405 NB near CA-107 Use alternate exit ramp.,,I-405 N,R,Lawndale,Los Angeles,CA,90260,US,US/Pacific,KHHR,2021-09-26 07:53:00,64.0,64.0,84.0,29.96,10.0,CALM,0.0,0.0,Cloudy,False,False,True,False,True,False,False,False,False,False,False,True,False,Day,Day,Day,Day
C-2254529,2,2021-12-15 12:35:30.000000000,2021-12-15 14:40:17.000000000,38.434527,-119.452856,38.273611,-119.286713,14.3056505012,Roadwork on Topaz Ln (US-395) from CA-182 (US-395) to US-395 N - US-395 S.,,US Highway 395,R,Coleville,Mono,CA,96107,US,US/Pacific,KBAN,2021-12-15 12:35:00,37.0,31.0,45.0,25.23,10.0,S,9.0,0.0,Cloudy,False,False,False,False,False,False,False,False,False,False,False,False,False,Day,Day,Day,Day
C-2254530,2,2021-09-23 18:33:30.000000000,2021-09-23 20:38:22.000000000,37.307703,-76.75313299999998,37.30562000000001,-76.751411,0.172248152504,Slow traffic from New Point Rd to Kendale Ln due to roadwork.,4741.0,Longhill Rd,L,Williamsburg,James City,VA,23188-1530,US,US/Eastern,KJGG,2021-09-23 18:35:00,70.0,70.0,88.0,29.88,10.0,ESE,3.0,0.0,Mostly Cloudy,False,False,False,False,False,False,False,False,False,False,False,False,False,Day,Day,Day,Day
C-2254531,2,2020-08-26 12:00:09.000000000,2020-08-27 01:28:18.000000000,36.281996,-98.318903,36.275419,-98.31906,0.454511553645,Roadwork on OK-58 from N2630 Rd to Highway 8.,,OK-58,R,Ames,Major,OK,73718,US,US/Central,,,,,,,,,,,,False,False,False,False,False,False,False,False,False,False,False,False,False,Day,Day,Day,Day
C-2254532,3,2018-11-27 09:00:00.000000000,2018-11-27 16:00:00.000000000,35.311943,-80.75846899999998,,,0.0,Left lane closed and right hand shoulder closed due to maintenance work on I-85 Northbound at NC-24 W.T. Harris Blvd.,,W W.T. Harris Blvd,R,Charlotte,Mecklenburg,NC,28262,US,US/Eastern,KJQF,2018-11-27 08:50:00,35.6,,75.0,29.87,10.0,Calm,,,Clear,False,False,False,False,True,False,False,False,False,False,False,False,False,Day,Day,Day,Day
C-2254533,2,2019-01-07 05:30:26.000000000,2019-01-18 23:59:00.000000000,33.93018,-83.30570999999998,,,2.0,Lane closed due to construction work on US-78 Lexington Rd both ways between Midway Rd and Woodgrove Dr.,4438.0,Lexington Rd,R,Athens,Clarke,GA,30605-2502,US,US/Eastern,KAHN,2019-01-07 05:51:00,43.0,41.3,89.0,30.24,10.0,East,3.5,,Clear,False,False,True,False,False,False,False,False,False,False,False,False,False,Night,Night,Night,Night
C-2254534,2,2021-07-08 12:32:34.000000000,2021-12-27 16:07:00.000000000,26.244545,-80.19084699999998,26.24564,-80.186295,0.292059834583,Slow traffic from Banks Rd to NW 15th St due to roadwork.,4916.0,Coconut Creek Pkwy,R,Coconut Creek,Broward,FL,33063-3910,US,US/Eastern,KFXE,2021-07-08 12:53:00,85.0,85.0,80.0,30.09,10.0,SE,12.0,0.0,Light Rain,False,False,False,False,False,False,False,False,False,False,False,False,False,Day,Day,Day,Day
C-2254535,4,2020-10-28 05:01:00.000000000,2020-10-28 13:15:00.000000000,33.547279,-117.672387,33.551262,-117.672697,0.275777428437,Full closure due to Concrete Pour between Avery Pkwy and Santa Ana Fwy Freeway I-5,,Avery Pkwy,R,Mission Viejo,Orange,CA,92692,US,US/Pacific,KSNA,2020-10-28 04:53:00,56.0,56.0,42.0,30.0,6.0,NNE,5.0,0.0,Haze,False,False,False,False,True,False,False,False,False,False,False,False,False,Night,Night,Night,Night
C-2254536,3,2021-03-23 04:47:21.000000000,2021-12-02 06:00:00.000000000,38.652908,-82.183189,,,0.0,Road closed due to construction work on OH-7 both ways between CR-162 Westbranch Rd and CR-158 Sunnyside Dr. Detour in operation - SR 7-SR 218-SR 553-SR 7.,15899.0,State Route 7 S,R,Crown City,Gallia,OH,45623,US,US/Eastern,KHTS,2021-03-23 04:51:00,53.0,53.0,50.0,29.2,10.0,E,5.0,0.0,Fair,False,False,False,False,False,False,False,False,False,False,False,False,False,Night,Night,Night,Night
C-2254539,2,2021-05-28 14:48:46.000000000,2021-05-28 17:04:25.000000000,41.888681,-87.632611,41.886844,-87.631326,0.143103426379,Slow traffic from W Kinzie St to N Clark St due to roadwork.,350.0,N La Salle Dr,L,Chicago,Cook,IL,60654-5108,US,US/Central,KMDW,2021-05-28 14:53:00,48.0,40.0,77.0,29.31,5.0,NE,24.0,0.0,Light Drizzle / Windy,True,False,True,False,False,False,False,False,True,False,False,True,False,Day,Day,Day,Day
C-2254540,3,2020-06-01 10:35:45.000000000,2020-06-05 10:33:55.000000000,44.9813,-93.27017,44.98207,-93.26909,0.0749424076474,At Washington Ave - Construction work.,296.0,Hennepin Ave,R,Minneapolis,Hennepin,MN,55401,US,US/Central,KMIC,2020-06-01 10:53:00,78.0,78.0,54.0,28.92,10.0,S,18.0,0.0,Fair,False,False,True,False,False,False,False,False,True,False,False,True,False,Day,Day,Day,Day
C-2254541,2,2021-09-28 09:00:00.000000000,2021-09-28 23:59:59.000000000,41.324985,-95.957228,41.325516,-95.957376,0.0374836733748,Lane closed on US-75 S - US-75 N from Martin Ave (US-75) to State St (US-75) due to roadwork.,7217.0,N 30th St,R,Omaha,Douglas,NE,68112-2857,US,US/Central,KOMA,2021-09-28 08:52:00,67.0,67.0,68.0,28.82,10.0,SE,6.0,0.0,Mostly Cloudy,False,False,False,False,False,False,False,False,False,False,False,False,False,Day,Day,Day,Day
C-2254542,2,2021-03-31 00:00:00.000000000,2021-10-29 00:45:00.000000000,41.514319,-112.061694,41.529939,-112.065314,1.0953651748,Construction on I-15 near I-15 Allow extra time.,,I-15 N,R,Brigham City,Box Elder,UT,84302,US,US/Mountain,KBMC,2021-03-31 00:15:00,29.0,29.0,63.0,26.02,10.0,CALM,0.0,,Fair,False,False,False,False,False,False,False,False,False,False,False,False,False,Night,Night,Night,Night
C-2254543,2,2021-03-19 08:01:00.000000000,2021-03-19 14:46:00.000000000,35.0697,-119.402116,35.083812,-119.401647,0.975406912519,One-Way Traffic closure due to Crack Seal Operation between Route 166 and Cadet Road,243.0,Westside Hwy,L,Maricopa,Kern,CA,93252,US,US/Pacific,KBFL,2021-03-19 07:54:00,56.0,56.0,72.0,29.64,10.0,CALM,0.0,0.0,Mostly Cloudy,False,False,False,False,False,False,False,False,False,False,False,False,False,Day,Day,Day,Day
C-2254544,2,2021-09-21 09:17:00.000000000,2021-09-21 11:18:49.000000000,25.748356,-80.335763,25.746905,-80.335719,0.100291940401,Slow traffic on County Hwy-913 - FL-973 from US-41/Tamiami Trl/SW 8th St (Galloway Rd/SW 87th Ave/FL-973) to FL-976/SW 40th St/Bird Rd (Galloway Rd/SW 87th Ave/FL-973) due to roadwork.,2302.0,SW 87th Ave,R,Miami,Miami-Dade,FL,33165-2011,US,US/Eastern,KMIA,2021-09-21 08:53:00,83.0,83.0,85.0,30.0,10.0,VAR,3.0,0.0,Mostly Cloudy,False,False,True,False,False,False,False,False,False,False,False,False,False,Day,Day,Day,Day
C-2254545,2,2021-09-27 01:48:49.000000000,2021-09-29 00:00:30.000000000,47.918512,-120.211872,47.911566,-120.213847,0.488559948579,Roadwork from Dinghy Rd to Cove Heights Rd.,11942.0,S Lakeshore Rd,R,Chelan,Chelan,WA,98816-9359,US,US/Pacific,KEAT,2021-09-27 01:55:00,63.0,63.0,65.0,28.36,10.0,NE,6.0,0.0,Fair,False,False,False,False,False,False,False,False,False,False,False,False,False,Night,Night,Night,Night
C-2254546,2,2020-05-01 07:01:10.000000000,2020-05-03 17:00:00.000000000,44.11855,-87.63051999999998,44.1084,-87.64385,0.963886266401,At Maritime Dr - Roadwork. Left lane closed.,1502.0,Mirro Dr,L,Manitowoc,Manitowoc,WI,54220,US,US/Central,KMTW,2020-05-01 06:56:00,39.0,39.0,79.0,29.31,10.0,CALM,0.0,0.0,Fair,False,False,True,False,False,False,False,False,False,False,False,False,False,Day,Day,Day,Day
C-2254547,2,2020-11-13 09:47:30.000000000,2020-11-13 10:32:30.000000000,35.019574,-81.89349200000002,35.028295,-81.868803,1.5213556967299997,Slow traffic on I-85 N from US-221/Exit 78 (I-85) to SC-110/Exit 83 (I-85) due to roadwork.,,I-85 N,R,Spartanburg,Spartanburg,SC,29307,US,US/Eastern,KSPA,2020-11-13 09:55:00,63.0,63.0,94.0,29.22,7.0,CALM,0.0,0.0,Cloudy,False,False,False,False,True,False,False,False,False,False,False,False,False,Day,Day,Day,Day
C-2254548,2,2017-05-16 10:56:42.000000000,2017-05-16 15:00:00.000000000,37.41437,-121.88018999999998,37.41448,-121.879809,0.0222471210082,At I-680/Sinclair Fwy/Dempsey Rd - Roadwork. Right lane blocked.,,Montague Expy,R,Milpitas,Santa Clara,CA,95035,US,US/Pacific,KSJC,2017-05-16 10:53:00,60.1,,62.0,30.05,10.0,Variable,5.8,,Overcast,False,False,False,False,True,False,False,False,False,False,False,False,False,Day,Day,Day,Day
C-2254549,2,2021-10-05 16:05:30.000000000,2021-10-05 16:26:30.000000000,28.031852,-82.056031,28.027238,-82.055799,0.3191108883549999,Stationary traffic from I-4 (County Line Rd) to US-92/New Tampa Hwy (County Line Rd) due to roadwork.,,Great Oak Dr,R,Lakeland,Polk,FL,33810,US,US/Eastern,KLAL,2021-10-05 15:50:00,90.0,90.0,43.0,29.7,10.0,SE,7.0,0.0,Partly Cloudy,False,False,True,False,False,False,False,False,False,False,False,True,False,Day,Day,Day,Day
C-2254550,2,2020-10-21 02:00:00.000000000,2020-10-21 12:00:00.000000000,34.281879,-83.429163,34.299762,-83.402635,1.95445521883,Lane closed on I-85 from US-441/GA-15/Exit 149 (I-85) to GA-63/Martin Bridge Rd/Exit 154 (I-85) due to roadwork.,1701.0,Highway 164,R,Commerce,Banks,GA,30529-6737,US,US/Eastern,K19A,,,,,,,,,,,False,False,False,False,False,False,False,False,False,False,False,False,False,Night,Night,Night,Night
C-2254551,4,2020-05-18 07:00:00.000000000,2020-08-22 16:39:47.000000000,45.00598,-93.236835,45.005985,-93.235525,0.0639961668026,Construction on 18TH AVE EB near JOHNSON Expect delays.,1600.0,18th Ave NE,R,Minneapolis,Hennepin,MN,55418-4714,US,US/Central,KMIC,2020-05-18 06:53:00,52.0,52.0,66.0,29.08,10.0,NNE,12.0,0.0,Cloudy,False,False,True,False,False,False,False,False,False,False,False,True,False,Day,Day,Day,Day
C-2254552,4,2019-09-13 04:02:57.000000000,2019-09-13 09:02:17.000000000,47.77188,-122.32031,47.77382,-122.31869,0.153707461549,Ramp closed to WA-104/NE 205th St/244th St SW - Closed due to roadwork.,,I-5 N,R,Seattle,King,WA,98155,US,US/Pacific,KPAE,2019-09-13 03:53:00,60.0,60.0,90.0,29.44,10.0,S,9.0,0.0,Partly Cloudy,False,False,False,False,True,False,False,False,False,False,False,False,False,Night,Night,Night,Night
C-2254553,4,2021-07-16 19:01:00.000000000,2021-11-20 13:00:40.000000000,34.032307,-117.757719,34.031247,-117.759129,0.10900579382,Full closure due to K-Rail Installation between Rio Rancho Rd and Chino Valley Freeway Route 71,,Rio Rancho Rd,R,Pomona,Los Angeles,CA,91766,US,US/Pacific,KPOC,2021-07-16 16:47:00,88.0,88.0,33.0,28.82,10.0,W,12.0,,Fair,False,False,False,False,False,False,False,False,False,False,False,False,False,Day,Day,Day,Day
C-2254554,2,2021-04-12 12:58:30.000000000,2021-04-12 13:36:30.000000000,41.532497,-81.11585600000002,41.525906,-81.112617,0.4852346151870001,Slow traffic on OH-608 from US-322/Mayfield Rd (Old State Rd/OH-608) to CR-14/Burton Windsor Rd (Old State Rd/OH-608) due to roadwork.,12428.0,Old State Rd,R,Huntsburg,Geauga,OH,44046-8793,US,US/Eastern,KCGF,2021-04-12 13:08:00,52.0,52.0,88.0,28.76,7.0,NW,7.0,0.0,Mostly Cloudy,False,False,False,False,False,False,False,False,False,False,False,False,False,Day,Day,Day,Day
C-2254555,2,2018-02-01 05:25:39.000000000,2018-02-01 06:00:00.000000000,40.53492,-74.375023,,,0.0,One lane closed due to construction work on NJ-27 Middlesex Ave both ways at Bridge St.,1.0,Bridge St,L,Metuchen,Middlesex,NJ,08840-2278,US,US/Eastern,KLDJ,2018-02-01 05:35:00,32.0,,66.0,30.01,10.0,Calm,,,Overcast,False,False,False,False,False,False,False,False,False,False,False,True,False,Night,Night,Night,Night
C-2254556,2,2019-05-09 09:03:30.000000000,2019-05-13 09:03:17.000000000,32.760718,-96.774539,32.737668,-96.766382,1.66164693065,Between Lamar St/Exit 283 and Overton Rd/Exit 281 - Roadwork during the day time.,1707.0,Pennsylvania Ave,L,Dallas,Dallas,TX,75215-3240,US,US/Central,KDAL,2019-05-09 08:53:00,68.0,68.0,87.0,29.33,5.0,NE,6.0,0.0,Mostly Cloudy,False,False,False,False,False,False,False,False,False,False,False,False,False,Day,Day,Day,Day
C-2254557,2,2020-06-28 08:52:28.000000000,2020-06-29 07:18:16.000000000,38.8225,-77.01658,38.84485,-77.00721999999998,1.62433242143,Between Chesapeake St/WB Exit 1 and Malcolm X Ave/Exit 2 - Roadwork. Right lane closed.,,Laboratory Rd SE,R,Washington,District of Columbia,DC,20032,US,US/Eastern,KDCA,2020-06-28 08:52:00,82.0,82.0,60.0,29.8,10.0,VAR,3.0,0.0,Mostly Cloudy,False,False,False,False,False,False,False,False,False,False,False,False,False,Day,Day,Day,Day
C-2254558,2,2020-05-20 20:25:04.000000000,2020-05-22 07:00:00.000000000,36.98285,-121.96039,36.98387,-121.93382,1.46815804805,Between 41st Ave and Park Ave - Roadwork. Roadway reduced to 1 lane.,,State Highway 1,R,Capitola,Santa Cruz,CA,95010,US,US/Pacific,KWVI,2020-05-20 20:53:00,58.0,58.0,78.0,29.93,10.0,SSE,5.0,0.0,Fair,False,False,False,False,True,False,False,False,False,False,False,False,False,Night,Day,Day,Day
C-2254559,3,2019-10-10 04:21:48.000000000,2019-10-11 06:00:00.000000000,39.805729,-86.274109,,,0.509999990463,Exit ramp from I-465 clockwise at Exits 16 16A 16B to I-74 Westbound closed due to construction.,,I-74 W,R,Indianapolis,Marion,IN,46224,US,US/Eastern,KEYE,2019-10-10 04:16:00,58.0,,97.0,29.22,5.0,,,0.0,Cloudy,False,False,False,False,False,False,False,False,False,False,False,False,False,Night,Night,Night,Night
C-2254560,2,2021-06-08 01:50:30.000000000,2021-06-08 02:22:00.000000000,40.732723,-73.993788,40.731743,-73.991438,0.140439617259,Stationary traffic from University Pl to Broadway due to roadwork.,49.0,University Pl,R,New York,New York,NY,10003-4512,US,US/Eastern,KJRB,2021-06-08 01:51:00,79.0,,72.0,29.95,10.0,,,0.0,Fair,True,False,True,False,False,False,False,False,False,False,False,True,False,Night,Night,Night,Night
C-2254561,2,2020-07-14 15:00:00.000000000,2020-07-14 21:45:00.000000000,39.640129,-84.969828,39.640127,-84.967875,0.103912457329,Construction on IN-44 EB near N 425 W Drive with caution.,2231.0,W State Road 44,R,Liberty,Union,IN,47353-8453,US,US/Eastern,KHAO,2020-07-14 14:53:00,89.0,89.0,40.0,29.41,10.0,VAR,5.0,0.0,Mostly Cloudy,False,False,False,False,False,False,False,False,False,False,False,False,False,Day,Day,Day,Day
C-2254562,2,2021-10-26 18:06:00.000000000,2021-10-26 20:46:09.000000000,33.491681,-112.168948,33.494867,-112.168886,0.2201606212229999,Stationary traffic from W Clarendon Ave to W Indian School Rd due to roadwork.,3672.0,N 51st Ave,L,Phoenix,Maricopa,AZ,85031-3005,US,US/Mountain,KGEU,2021-10-26 17:58:00,75.0,75.0,19.0,28.78,10.0,W,15.0,0.0,Fair,False,False,True,False,False,False,False,False,False,False,False,True,False,Night,Night,Day,Day
C-2254563,4,2017-03-07 21:01:17.000000000,2017-03-08 03:01:17.000000000,42.063916,-88.080667,42.059523,-88.044866,1.86138319655,Between Roselle Rd and Meacham Rd - Roadwork.,,Jane Addams Memorial Tollway E,R,Schaumburg,Cook,IL,60195,US,US/Central,KPWK,2017-03-07 20:52:00,43.0,35.7,56.0,29.94,10.0,SSW,15.0,,Clear,False,False,False,False,False,False,False,False,False,False,False,False,False,Night,Night,Night,Night
C-2254564,2,2021-09-23 20:10:00.000000000,2021-09-23 21:11:00.000000000,40.127445,-77.352837,40.092165,-77.412367,3.97967716699,Slow traffic on I-81 S from PA-233/Exit 37 (I-81) to PA-174/Exit 29 (I-81) due to roadwork.,,I-81 S,R,Newville,Cumberland,PA,17241,US,US/Eastern,KCXY,2021-09-23 19:56:00,63.0,63.0,56.0,29.6,10.0,W,8.0,0.0,Cloudy,False,False,False,False,False,False,False,False,False,False,False,False,False,Night,Night,Night,Day
C-2254565,2,2018-12-30 23:04:51.000000000,2018-12-31 05:01:00.000000000,32.751411,-117.154823,,,0.0,Entry ramp to CA-163 Northbound from Washington St closed due to construction work.,1024.0,Pascoe St,R,San Diego,San Diego,CA,92103-2323,US,US/Pacific,KSAN,2018-12-30 22:51:00,57.9,,67.0,29.97,10.0,SE,13.8,,Mostly Cloudy,False,False,False,False,False,False,False,False,False,False,False,False,False,Night,Night,Night,Night
C-2254566,4,2020-06-09 08:44:46.000000000,2020-06-10 08:44:46.000000000,43.32253,-88.00624,43.32366,-88.14984,7.218504658810001,Closed between WI-143/CR-NN/Washington Ave and CR-Y/Granville Rd - Closed due to roadwork. Broken down vehicle.,7707.0,State Road 60,R,Cedarburg,Ozaukee,WI,53012,US,US/Central,KETB,2020-06-09 08:35:00,72.0,72.0,57.0,28.84,10.0,SE,3.0,0.0,Fair,False,False,True,False,False,False,False,False,False,True,False,True,False,Day,Day,Day,Day
C-2254567,2,2021-12-24 15:06:00.000000000,2021-12-24 15:27:00.000000000,41.42582700000001,-84.871236,41.427501,-84.871285,0.1156902382069999,Stationary traffic on IN-1 from CR-40 (IN-1) to US-6 (IN-1) due to roadwork.,451.0,S Broadway St,R,Butler,DeKalb,IN,46721-1431,US,US/Eastern,KGWB,2021-12-24 15:15:00,52.0,52.0,71.0,28.7,10.0,S,7.0,0.0,Cloudy,False,False,True,False,False,False,True,False,False,False,False,False,False,Day,Day,Day,Day
C-2254568,4,2017-05-11 23:59:00.000000000,2017-05-12 04:00:00.000000000,47.23403,-122.4279,47.23524000000001,-122.42555,0.138362591764,Ramp closed to I-5/WA-7 - Closed due to roadwork.,,I-5 N,R,Tacoma,Pierce,WA,98404,US,US/Pacific,KTCM,2017-05-11 23:58:00,43.5,40.9,100.0,30.02,10.0,SSE,4.6,,Partly Cloudy,False,False,False,False,False,False,False,False,False,False,False,False,False,Night,Night,Night,Night
C-2254569,4,2020-06-15 21:51:29.000000000,2020-06-16 02:49:22.000000000,47.81796,-116.78715,47.81848,-116.78796,0.0519916065235,Closed at US-95 - Closed due to roadwork.,,N Government Way,R,Hayden,Kootenai,ID,83835,US,US/Pacific,KCOE,2020-06-15 21:56:00,52.0,52.0,89.0,27.51,10.0,SSE,6.0,0.0,Cloudy,False,False,False,False,False,False,False,False,False,False,False,False,False,Night,Night,Day,Day
C-2254570,2,2021-10-21 13:14:30.000000000,2021-10-21 15:54:35.000000000,40.006731,-86.00433000000002,40.000897,-86.005368,0.406817427665,Stationary traffic on IN-37 from Greenfield Ave to Herriman Blvd due to roadwork.,,State Road 37 N,R,Noblesville,Hamilton,IN,46060,US,US/Eastern,KTYQ,2021-10-21 13:15:00,54.0,54.0,70.0,28.97,10.0,W,17.0,0.0,Cloudy,False,False,False,False,False,False,False,False,False,False,False,False,False,Day,Day,Day,Day
