ID,Severity,Start_Time,End_Time,Start_Lat,Start_Lng,End_Lat,End_Lng,Distance(mi),Description,Number,Street,Side,City,County,State,Zipcode,Country,Timezone,Airport_Code,Weather_Timestamp,Temperature(F),Wind_Chill(F),Humidity(%),Pressure(in),Visibility(mi),Wind_Direction,Wind_Speed(mph),Precipitation(in),Weather_Condition,Amenity,Bump,Crossing,Give_Way,Junction,No_Exit,Railway,Roundabout,Station,Stop,Traffic_Calming,Traffic_Signal,Turning_Loop,Sunrise_Sunset,Civil_Twilight,Nautical_Twilight,Astronomical_Twilight
C-2139089,2,2019-10-19 20:30:53,2020-09-19 06:59:59,41.195155,-73.686501,41.195071,-73.68634399999998,0.010015585771,Bridge rehabilitation on I-684 northbound between Exit 4 - NY 172 - Mount Kisco - Bedford (Bedford) and Exit 5 - Saw Mill River Parkway (NB Entrance Ramp / SB Exit Ramp) (Bedford) D264124 Monday September 14th 2020 thru Friday September 18th 2020 Monday thru Friday 07:00 AM thru 03:30 PM various lane closures Monday September 21st 2020 thru Friday September 25th 2020 Monday thru Friday 07:00 AM thru 03:30 PM various lane closures,,I-684 S,R,Mount Kisco,Westchester,NY,10549,US,US/Eastern,KHPN,2019-10-19 20:56:00,47.0,47.0,83.0,29.55,10.0,CALM,0.0,0.0,Fair,False,False,False,False,False,False,False,False,False,False,False,False,False,Night,Night,Night,Night
C-2139090,2,2020-09-18 02:00:00,2020-09-18 14:45:00,33.588715,-86.849304,33.64603,-86.981018,8.55081426804,Construction on I-22 WB near MM 93 Allow extra time.,,AL-4 W,R,Birmingham,Jefferson,AL,35207,US,US/Central,KBHM,2020-09-18 01:53:00,70.0,70.0,81.0,29.23,10.0,CALM,0.0,0.0,Partly Cloudy,False,False,False,False,False,False,False,False,False,False,False,False,False,Night,Night,Night,Night
C-2139091,2,2021-10-18 10:54:30,2021-10-18 11:14:30,41.690907,-87.700797,41.691947,-87.70084,0.0718913970574,Stationary traffic from W 115th St (Kedzie Ave) to W 103rd St (Kedzie Ave) due to roadwork.,11124.0,S Kedzie Ave,R,Chicago,Cook,IL,60655-2330,US,US/Central,KMDW,2021-10-18 10:53:00,64.0,64.0,41.0,29.48,10.0,SSW,7.0,0.0,Fair,False,False,False,False,False,False,False,False,True,False,False,False,False,Day,Day,Day,Day
C-2139092,2,2021-03-02 09:37:00,2021-12-26 03:41:30,39.121445,-119.760535,39.144995,-119.746645,1.78935410825,Slow traffic on I-580 N - US-395 N - US-50 E from Snyder Ave to exit [3] due to roadwork.,,I-580 N,R,Carson City,Carson City,NV,89701,US,US/Pacific,KCXP,2021-12-26 03:15:00,27.0,14.0,74.0,24.92,2.0,SW,17.0,0.0,Light Snow,False,False,False,False,False,False,False,False,False,False,False,False,False,Day,Day,Day,Day
C-2139093,2,2020-08-17 03:00:00,2020-08-18 13:45:00,35.557981,-82.550969,35.55877299999999,-82.543758,0.409001208389,South of Asheville / Mile Marker 49 to 50 Both Directions. Contractor will have lane closures in place on I-40 between MM 49 and MM 50. Expect a single lane closure in either direction between 7PM - 6AM. Lane closures will be placed nightly while crews work to complete work on the bridges over Biltmore Estate (Approach Rd). Work is under contract with GLF Construction Co.,513.0,Approach Rd,R,Asheville,Buncombe,NC,28803,US,US/Eastern,KAVL,2020-08-17 02:54:00,66.0,66.0,93.0,27.79,8.0,NNW,5.0,0.0,Fair,False,False,False,False,False,False,False,False,False,False,False,False,False,Night,Night,Night,Night
C-2139094,2,2021-04-17 06:26:00,2021-12-09 17:57:27,26.167237,-80.112617,26.167547,-80.100466,0.7538121735719999,Slow traffic on FL-816 from US-1/FL-5/N Federal Hwy (NE 31st St/E Oakland Park Blvd/FL-816) to FL-A1A/N Ocean Blvd (NE 31st St/E Oakland Park Blvd/FL-816) due to roadwork.,3098.0,NE 26th Ter,R,Fort Lauderdale,Broward,FL,33306,US,US/Eastern,KFXE,2021-04-17 06:53:00,70.0,70.0,93.0,29.88,10.0,CALM,0.0,0.0,Fair,False,False,False,False,False,False,False,False,False,False,False,True,False,Night,Night,Day,Day
C-2139095,3,2021-04-16 04:20:10,2021-04-16 17:00:00,39.77108,-76.667564,,,0.0,Lane closed due to construction work on I-83 both ways at Exit 4 PA-851 Forrest Ave.,,I-83 S,R,Shrewsbury,York,PA,17361,US,US/Eastern,KTHV,2021-04-16 03:53:00,41.0,41.0,73.0,29.26,10.0,WNW,3.0,0.0,Cloudy,False,False,False,False,False,False,False,False,False,False,False,False,False,Night,Night,Night,Night
C-2139096,2,2020-10-07 18:25:14,2020-10-08 19:12:37,38.202327,-75.70654,38.200857,-75.71276,0.352665505574,Construction on MD-363 WB near OCEAN HWY Expect long delays.,30159.0,Deal Island Rd,R,Princess Anne,Somerset,MD,21853-2863,US,US/Eastern,KSBY,2020-10-07 18:54:00,72.0,72.0,61.0,29.7,10.0,SW,8.0,0.0,Fair,False,False,False,False,False,False,False,False,False,False,False,False,False,Day,Day,Day,Day
C-2139097,2,2021-11-17 12:11:00,2021-11-17 14:14:45,41.028056,-115.387755,40.985206,-115.434549,3.83644763876,Roadwork - on I-80 in both directions between Exit 310 - Osino and Exit 333 - Deeth Starr Valley in Elko County Nevada. 24 hour lane closures with the speed limit reduced to 55 miles per hour with delays of up to 10 minutes. There is a 14 foot width limit and periodic on and off ramp closures with flaggers. Decrease speed and move over for highway workers and equipment.,,I-80 W,R,Deeth,Elko,NV,89823,US,US/Pacific,K9BB,2021-11-17 11:56:00,39.0,36.0,32.0,25.08,10.0,N,5.0,0.0,Fair,False,False,False,False,False,False,False,False,False,False,False,False,False,Day,Day,Day,Day
C-2139098,2,2021-12-01 15:44:37,2021-12-01 17:32:20,25.850429,-80.31441,25.847059,-80.313313,0.242630562053,Stationary traffic on US-27 S - FL-25 from W 32nd St to W 12th Ave / NW 74th St due to roadwork.,3204.0,W 16th Ave,L,Hialeah,Miami-Dade,FL,33012,US,US/Eastern,KOPF,2021-12-01 15:53:00,78.0,78.0,48.0,30.11,10.0,ESE,6.0,0.0,Fair,False,False,False,False,False,False,False,False,True,False,False,False,False,Day,Day,Day,Day
C-2139099,2,2017-09-11 09:25:29,2017-09-30 06:02:27,41.42808,-78.533714,41.42808,-78.529193,0.234211939181,At Beechwood Rd - Roadwork. Lane blocked.,1252.0,Brusselles St,L,Saint Marys,Elk,PA,15857-1902,US,US/Eastern,KDUJ,2017-09-11 09:53:00,55.0,,69.0,30.37,10.0,East,4.6,,Clear,False,False,False,False,False,False,False,False,False,False,False,False,False,Day,Day,Day,Day
C-2139100,4,2021-01-31 04:00:00,2021-01-31 14:00:00,32.458688,-84.929112,32.467268,-84.929582,0.5934543872070001,I-185 N - GA-411 N is closed from Saint Marys Rd/Exit 3 (I-185) to Buena Vista Rd/Exit 4 (I-185) due to roadwork.,,GA-411 N,R,Columbus,Muscogee,GA,31907,US,US/Eastern,KCSG,2021-01-31 04:07:00,54.0,54.0,69.0,29.52,10.0,S,9.0,0.0,Cloudy,False,False,False,False,True,False,False,False,False,False,False,False,False,Night,Night,Night,Night
C-2139101,2,2020-08-21 03:00:00,2020-08-21 15:45:00,38.903692,-77.943931,38.907582,-77.99376099999998,2.69266773613,Construction on I-66 WB near MM 15 Drive with caution.,,I-66 W,R,Delaplane,Fauquier,VA,20144,US,US/Eastern,KOKV,2020-08-21 02:55:00,64.0,64.0,88.0,29.23,10.0,S,3.0,0.0,Fair,False,False,False,False,True,False,False,False,False,False,False,False,False,Night,Night,Night,Night
C-2139102,4,2021-10-20 21:01:00,2021-10-21 05:46:00,37.391975,-122.169186,37.38835200000001,-122.16416,0.372542272549,Construction on I-280 SB near PAGE MILL RD Use alternate exit ramp.,,I-280 S,R,Los Altos,Santa Clara,CA,94022,US,US/Pacific,KNUQ,2021-10-20 20:55:00,64.0,64.0,83.0,30.02,10.0,ESE,9.0,0.0,Cloudy,False,False,False,False,True,False,False,False,False,True,False,False,False,Night,Night,Night,Night
C-2139103,2,2020-10-06 17:59:30,2020-10-06 22:39:32,43.389248,-72.559908,43.393821,-72.536673,1.20862665052,Queuing traffic on VT-131 from VT-103 (VT-131) to VT-106 (VT-131) due to roadwork.,3917.0,VT Route 131,R,Cavendish,Windsor,VT,05142,US,US/Eastern,KVSF,2020-10-06 17:54:00,62.0,62.0,65.0,29.29,10.0,S,9.0,0.0,Fair,False,False,False,False,False,False,False,False,False,False,False,False,False,Day,Day,Day,Day
C-2139104,2,2021-04-19 00:00:00,2021-09-03 00:45:00,39.70618,-105.204071,39.709768,-105.204621,0.249625022721,Construction on US-40 EB near GOLDEN Allow extra time.,18440.0,W Colfax Ave,R,Golden,Jefferson,CO,80401,US,US/Mountain,KBJC,2021-04-19 00:15:00,41.0,36.0,49.0,24.39,10.0,SW,7.0,0.0,Fair,False,False,False,False,False,False,False,False,False,False,False,False,False,Night,Night,Night,Night
C-2139105,2,2020-12-23 16:44:00,2020-12-23 23:30:00,37.83495,-122.48438,37.806988,-122.475524,1.99153583588,Lane closure due to Maintenance Operation between GGBridge North Anchorage House and Golden Gate Br T/Plaza,,CA-1 S,R,Sausalito,Marin,CA,94965,US,US/Pacific,KSFO,2020-12-23 16:56:00,56.0,56.0,53.0,30.2,10.0,ESE,6.0,0.0,Mostly Cloudy,True,False,False,False,False,False,False,False,False,False,False,False,False,Day,Day,Day,Day
C-2139106,2,2021-10-05 07:00:00,2021-10-28 16:44:26,43.108481,-76.258199,43.111871,-76.280788,1.16323791831,Construction on I-690 WB near VAN VLECK RD Construction. Left lane closed.,,I-690 W,R,Syracuse,Onondaga,NY,13209,US,US/Eastern,KSYR,2021-10-05 06:58:00,58.0,58.0,100.0,29.7,10.0,E,3.0,0.0,Light Rain,False,False,False,False,False,False,False,False,False,False,False,False,False,Night,Day,Day,Day
C-2139107,4,2017-04-04 07:01:56,2021-12-23 16:31:30,33.464478,-117.67292,33.4701,-117.6755,0.415934423916,Closed at Doheny Park Rd - Closed due to roadwork.,34284.0,Camino Capistrano,L,Capistrano Beach,Orange,CA,92624-1104,US,US/Pacific,KNXF,2017-04-04 06:56:00,59.0,,78.0,30.25,7.0,NE,3.5,,Overcast,False,False,False,False,False,False,False,False,False,False,False,False,False,Day,Day,Day,Day
C-2139108,4,2020-05-15 00:01:00,2020-05-15 11:59:00,41.42862,-73.80383,41.42924,-73.80428,0.04877029106,Closed at RT-301 - Closed due to roadwork. Ramp restrictions.,,Taconic State Pkwy N,R,Putnam Valley,Putnam,NY,10579,US,US/Eastern,KSWF,2020-05-15 00:45:00,61.0,61.0,63.0,29.49,10.0,CALM,0.0,0.0,Mostly Cloudy,False,False,False,False,False,False,False,False,False,False,False,False,False,Night,Night,Night,Night
C-2139109,2,2021-03-01 03:41:30,2021-12-17 16:59:39,33.296717,-93.215678,33.297507,-93.233788,1.04728858601,Stationary traffic on US-82 E - US-82 W from US-79/CR-47/Columbia Road 47 (US-82) to N Washington St/Columbia Road 13 (US-82) due to roadwork.,3099.0,Chaffin Ln,R,Magnolia,Columbia,AR,71753-4357,US,US/Central,KELD,2021-10-20 11:53:00,,,,29.86,,,,0.0,,False,False,False,False,False,False,False,False,False,False,False,False,False,Night,Night,Night,Night
C-2139110,2,2021-06-09 16:04:30,2021-06-09 16:30:30,41.629282,-84.75925,41.62778,-84.727554,1.6402287327,Slow traffic on Ohio Tpke E - I-90 E - I-80 E from OH-49/Exit 2 (I-90/I-80) to CR-15/Exit 13 (I-90/I-80) due to roadwork.,,I-80 E,R,Edon,Williams,OH,43518,US,US/Eastern,KANQ,2021-06-09 15:55:00,84.0,84.0,62.0,28.97,10.0,SE,7.0,0.0,Fair,False,False,False,False,False,False,False,False,False,False,False,False,False,Day,Day,Day,Day
C-2139111,4,2020-06-07 20:46:31,2020-06-11 20:44:56,40.44788,-80.00035,40.44527,-79.99904000000002,0.193041114001,Closed between Anderson St and Fort Duquesne Blvd - Closed due to roadwork.,498.0,Anderson St,R,Pittsburgh,Allegheny,PA,15212-5802,US,US/Eastern,KAGC,2020-06-07 20:53:00,69.0,69.0,45.0,28.69,10.0,NNW,6.0,0.0,Fair,False,False,True,False,False,False,False,False,False,False,False,True,False,Day,Day,Day,Day
C-2139112,2,2016-10-18 21:01:47,2016-10-19 03:01:47,41.93213,-87.69615999999998,41.87455,-87.6456,4.7526553967,Between California Ave/Exit 46A and I-290/Eisenhower Exy/Exit 51H/51I - Roadwork.,2700.0,W Diversey Ave,R,Chicago,Cook,IL,60618,US,US/Central,KORD,2016-10-18 20:51:00,61.0,,62.0,29.9,10.0,WNW,5.8,,Clear,False,False,True,False,False,False,False,False,False,False,False,True,False,Night,Night,Night,Night
C-2139113,2,2020-06-02 07:11:00,2020-06-03 15:00:00,47.34493,-122.85852,47.32718,-122.89007,1.92003177146,At E Grapeview Loop Rd - Roadwork.,15471.0,E State Route 3,L,Allyn,Mason,WA,98524,US,US/Pacific,KPWT,2020-06-02 06:56:00,48.0,48.0,93.0,29.68,10.0,CALM,0.0,0.0,Fair,False,False,False,False,False,False,False,False,False,False,False,False,False,Day,Day,Day,Day
C-2139114,2,2016-09-02 08:01:00,2016-09-02 14:01:00,36.64538,-121.57677,36.6309,-121.54271,2.13701298503,At Old Stage Rd - Construction work.,2246.0,Alisal Rd,R,Salinas,Monterey,CA,93908-9713,US,US/Pacific,KSNS,2016-09-02 07:53:00,54.0,,93.0,29.99,6.0,Calm,,,Overcast,False,False,False,False,False,False,False,False,False,False,False,False,False,Day,Day,Day,Day
C-2139115,2,2021-10-06 17:35:58,2021-10-06 17:55:58,25.846778,-80.266195,25.851714,-80.266411,0.341309482744,Stationary traffic on FL-953 from FL-934/E 25th St (FL-953) to FL-932/E 49th St (FL-953) due to roadwork.,2639.0,E 8th Ave,L,Hialeah,Miami-Dade,FL,33013,US,US/Eastern,KOPF,2021-10-06 17:53:00,85.0,85.0,67.0,30.0,10.0,ESE,8.0,0.0,Fair,False,False,False,False,False,False,False,False,True,False,False,True,False,Day,Day,Day,Day
C-2139116,2,2020-04-23 08:02:34,2020-04-25 17:00:00,41.78092,-88.37536999999998,41.79318,-88.37546999999998,0.8471009895620001,At I-88/IL-56/East-West Tollway - Resurfacing work during the day time.,2410.0,W Indian Trl,L,Aurora,Kane,IL,60506-1668,US,US/Central,KARR,2020-04-23 08:05:00,51.0,51.0,74.0,28.96,7.0,ESE,3.0,0.0,Mostly Cloudy,False,False,True,False,False,False,False,False,False,False,False,True,False,Day,Day,Day,Day
C-2139117,2,2021-11-05 15:15:15,2021-11-05 17:26:53,28.593131,-81.364094,28.592428,-81.365061,0.076163555205,Slow traffic on FL-424A - US-92 E - FL-426 - US-17 N - US-92 W - US-17 S from Harper St to Gene St due to roadwork.,592.0,Harper St,R,Winter Park,Orange,FL,32789,US,US/Eastern,KORL,2021-11-05 15:27:00,70.0,70.0,97.0,29.77,1.0,W,7.0,0.26,Heavy Rain,False,False,True,False,False,False,False,False,False,False,False,False,False,Day,Day,Day,Day
C-2139118,2,2021-02-08 09:01:00,2021-12-15 14:38:52,32.270736,-110.978042,32.271962,-110.978999,0.101495246887,Stationary traffic on AZ-77 from W Windsor St to N Fairview Ave due to roadwork.,3544.0,N Oracle Rd,R,Tucson,Pima,AZ,85705-3518,US,US/Mountain,KDMA,2021-12-15 12:58:00,52.0,52.0,57.0,27.28,10.0,W,3.0,0.0,Cloudy,False,False,False,False,False,False,False,False,False,False,False,False,False,Day,Day,Day,Day
C-2139119,2,2020-09-10 18:36:30,2020-09-10 21:33:30,26.346491,-80.118302,26.323061,-80.11649200000002,1.62273406115,Slow traffic on I-95 from Palmetto Park Rd/Exit 44 (I-95) to FL-810/Hillsboro Blvd/Exit 42 (I-95) due to roadwork.,,I-95 S,R,Boca Raton,Palm Beach,FL,33486,US,US/Eastern,KBCT,2020-09-10 18:53:00,85.0,85.0,72.0,29.95,10.0,ENE,6.0,0.0,Mostly Cloudy,False,False,False,False,False,False,False,False,False,False,False,False,False,Day,Day,Day,Day
C-2139120,2,2021-05-10 03:49:30,2021-10-15 17:45:00,33.326615999999994,-112.49141000000002,33.326577,-112.487047,0.251895524145,Arlington Rd FROM: Tuthill Rd TO: Tuthill Rd - restrictions - Road work flagging operations be prepared to stop,20465.0,W Arlington Rd,R,Buckeye,Maricopa,AZ,85326-4313,US,US/Mountain,KBXK,2021-10-01 07:55:00,63.0,63.0,59.0,28.89,8.0,NNW,5.0,0.0,,False,False,False,False,False,False,False,False,False,False,False,False,False,Night,Night,Night,Night
C-2139121,2,2021-06-18 18:28:33,2021-06-18 21:24:00,25.885498,-80.210753,25.88378,-80.211286,0.123239688896,Slow traffic on FL-924 - US-441 S from NW 121st St to NW 8th Ave due to roadwork.,12100.0,NW 7th Ave,L,North Miami,Miami-Dade,FL,33168-2527,US,US/Eastern,KOPF,2021-06-18 18:53:00,85.0,85.0,67.0,30.04,9.0,E,10.0,0.0,Fair,False,False,False,False,False,False,False,False,True,False,False,False,False,Day,Day,Day,Day
C-2139122,2,2021-04-14 06:35:00,2021-12-18 06:00:00,40.705901,-73.818329,40.704581,-73.817809,0.0951833696693999,Stationary traffic from Queens to Van Wyck Expy due to roadwork.,,Van Wyck Expy S,R,Jamaica,Queens,NY,11435,US,US/Eastern,KJFK,2021-04-14 06:51:00,46.0,42.0,89.0,30.07,10.0,WSW,7.0,0.0,Partly Cloudy,False,False,False,False,True,False,False,False,False,False,False,True,False,Day,Day,Day,Day
C-2139123,1,2020-03-31 05:03:41,2020-05-29 23:59:00,36.094101,-97.078194,,,0.0,Road closed due to paving repairs on 26th Ave both ways between Washington St and Walnut St.,1598.0,W 26th Ave,R,Stillwater,Payne,OK,74074,US,US/Central,KSWO,2020-03-31 04:53:00,51.0,51.0,89.0,29.01,9.0,N,8.0,0.01,Light Rain,False,False,False,False,False,False,False,False,False,False,False,False,False,Night,Night,Night,Night
C-2139124,2,2020-10-09 03:03:30,2020-10-09 03:55:00,39.847901,-75.384873,39.843724,-75.395964,0.655326844689,Slow traffic on I-95 from Kerlin St/5th St/Exit 5 (I-95) to US-322/Exit 2/Exit 3 (I-95) due to roadwork.,,I-95 S,R,Chester,Delaware,PA,19013,US,US/Eastern,KPHL,2020-10-09 02:54:00,50.0,50.0,74.0,30.18,10.0,CALM,0.0,0.0,Fair,False,False,False,False,False,False,False,False,False,False,False,False,False,Night,Night,Night,Night
C-2139125,2,2021-03-04 12:48:30,2021-03-04 17:36:46,43.934088,-70.335126,43.936593,-70.33456600000001,0.175307460562,Stationary traffic on Maine Tpke N - I-95 N from US-202 exit [63] to US-202 exit [75] due to roadwork.,,I-95 N,R,Gray,Cumberland,ME,04039,US,US/Eastern,KLEW,2021-03-04 12:56:00,31.0,19.0,31.0,29.25,10.0,NNW,18.0,0.0,Fair,False,False,False,False,False,False,False,False,False,False,False,False,False,Day,Day,Day,Day
C-2139126,2,2021-12-18 07:31:00,2021-12-18 10:53:30,34.759889,-92.26231,34.742625,-92.26336,1.19431723135,Stationary traffic on US-65 S - US-167 S - I-30 W from exit [141B] to exit [140B] due to roadwork.,,Bishop Lindsey Ave,R,North Little Rock,Pulaski,AR,72114,US,US/Central,KLIT,2021-12-18 07:53:00,59.0,59.0,96.0,29.7,4.0,CALM,0.0,0.07,Rain,False,False,False,False,False,False,False,False,False,False,False,False,False,Day,Day,Day,Day
C-2139127,4,2020-09-28 05:00:00,2020-11-02 13:45:00,33.706531,-112.115614,33.708055,-112.115943,0.106982900427,Construction on N BLACK CANYON FRONTAGE HWY NB near W CHARLOTTE DR Expect delays.,,N Black Canyon Hwy,R,Phoenix,Maricopa,AZ,85085,US,US/Mountain,KDVT,2020-09-28 04:53:00,76.0,76.0,21.0,28.24,10.0,NNE,10.0,0.0,Fair,False,False,False,False,False,False,False,False,False,False,False,False,False,Night,Night,Night,Day
C-2139128,2,2021-07-24 08:02:07,2021-08-20 05:01:29,48.135683,-106.598512,48.161022,-106.593151,1.76811532435,Construction on MT-24 EB near GLASGOW Expect delays.,,MT Highway 24 S,R,Glasgow,Valley,MT,59230,US,US/Mountain,KGGW,2021-07-24 07:53:00,66.0,66.0,40.0,27.7,4.0,CALM,0.0,0.0,Haze,False,False,False,False,False,False,False,False,False,False,False,False,False,Day,Day,Day,Day
C-2139129,2,2019-05-27 08:03:02,2019-05-31 08:02:29,42.13668300000001,-86.45728100000002,42.127604,-86.463778,0.710161474622,At Golf Rd - Construction work. Right lane blocked.,1304.0,N M 63,R,Benton Harbor,Berrien,MI,49022,US,US/Eastern,KBEH,2019-05-27 07:53:00,54.0,54.0,86.0,29.37,10.0,CALM,0.0,0.0,Fair,False,False,False,False,False,False,False,False,False,False,False,False,False,Day,Day,Day,Day
C-2139130,2,2021-12-24 11:45:00,2021-12-24 13:46:51,39.784308,-85.769225,39.785686,-85.769358,0.0954722475043999,Slow traffic on IN-9 from E 300 S (Greenfield) (CR-200/IN-9) to I-70 (N State St/IN-9) due to roadwork.,2.0,W South St,L,Greenfield,Hancock,IN,46140-2327,US,US/Eastern,KMQJ,2021-12-24 11:35:00,52.0,52.0,67.0,28.84,10.0,S,13.0,,Cloudy,False,False,True,False,False,False,False,False,False,False,False,False,False,Day,Day,Day,Day
C-2139131,2,2020-08-22 02:01:00,2020-08-22 13:01:00,34.211595,-118.848929,34.278594,-118.860547,4.676507075880001,Lane closure due to Pavement Rehabilitation between Janss Rd and New Los Angeles Ave,,E Avenida de Los Arboles,R,Thousand Oaks,Ventura,CA,91362,US,US/Pacific,KCMA,2020-08-22 01:55:00,71.0,71.0,78.0,29.71,4.0,CALM,0.0,0.0,Smoke,False,False,False,False,True,False,False,False,False,False,False,False,False,Night,Night,Night,Night
C-2139132,2,2021-04-10 06:37:00,2021-04-10 23:26:56,40.844561,-73.885302,40.84226500000001,-73.88474699999998,0.161269076619,Slow traffic from E 179th St to Honeywell Ave due to roadwork.,2041.0,Southern Blvd,L,Bronx,Bronx,NY,10460-1402,US,US/Eastern,KLGA,2021-04-10 06:51:00,53.0,53.0,77.0,30.03,10.0,ENE,3.0,0.0,Cloudy,False,False,False,False,False,False,False,False,False,True,False,True,False,Day,Day,Day,Day
C-2139133,2,2021-01-08 13:29:30,2021-01-09 03:48:37,26.318368,-80.09243599999998,26.319136,-80.09062,0.124356895786,Slow traffic on US-1 N - FL-810 - FL-5 from SE 9th Ave to NE Eller St due to roadwork.,840.0,E Hillsboro Blvd,R,Deerfield Beach,Broward,FL,33441-3557,US,US/Eastern,KPMP,2021-01-08 13:53:00,75.0,75.0,53.0,29.88,10.0,W,17.0,0.0,Mostly Cloudy,False,False,False,False,False,False,False,False,False,False,False,False,False,Day,Day,Day,Day
C-2139134,2,2021-06-28 06:49:18,2021-07-03 02:55:43,28.218822,-82.246491,28.218833,-82.24838199999998,0.115129495111,Roadwork on FL-54/Morris Bridge Rd (FL-54) from Foxwood Blvd/Ronnoch Blvd (FL-54) to FL-54.,,State Road 54,R,Wesley Chapel,Pasco,FL,33545,US,US/Eastern,KZPH,2021-06-28 06:55:00,73.0,73.0,100.0,29.93,7.0,CALM,0.0,0.0,Fair,False,False,False,False,False,False,False,False,False,False,False,False,False,Day,Day,Day,Day
C-2139135,2,2021-12-28 19:13:30,2021-12-28 19:34:00,34.048994,-117.309229,34.046532,-117.30786,0.187294304024,Slow traffic from E Valley Blvd (N Mount Vernon Ave) to I-215/Riverside Fwy (Mount Vernon Ave) due to roadwork.,1287.0,S Mount Vernon Ave,L,Colton,San Bernardino,CA,92324,US,US/Pacific,KSBD,2021-12-28 20:00:00,45.0,45.0,81.0,28.63,10.0,CALM,0.0,0.0,Drizzle,False,False,False,False,False,False,False,False,False,False,False,False,False,Night,Night,Night,Night
C-2139136,3,2019-10-10 09:55:38,2019-10-15 17:06:29,36.40234,-121.31972,36.39308,-121.33387,1.01421561006,Between US-101/El Camino Real and CR-G17/Arroyo Seco Rd - Construction work. Lane blocked.,36076.0,Arroyo Seco Rd,L,Soledad,Monterey,CA,93960-9505,US,US/Pacific,KSNS,2019-10-11 16:53:00,78.0,78.0,8.0,29.84,10.0,NW,10.0,0.0,Partly Cloudy,False,False,False,False,False,False,False,False,False,False,False,False,False,Day,Day,Day,Day
C-2139137,2,2021-08-02 10:24:07,2021-08-02 10:49:33,34.977765999999995,-90.813588,34.985453,-90.814534,0.533814241536,Stationary traffic on AR-1 from AR-1 Bus/Crowley's Ridge Pkwy (AR-1) to US-70/W Broadway Ave (AR-1) due to roadwork.,,State Highway 1,R,Forrest City,St. Francis,AR,72335,US,US/Central,KAWM,2021-08-02 10:53:00,81.0,81.0,67.0,29.82,8.0,E,6.0,0.0,Fair,False,False,False,False,False,False,False,False,False,False,False,False,False,Day,Day,Day,Day
C-2139138,2,2020-03-16 20:05:58,2020-04-15 21:08:48,40.29306,-80.16915,40.35101,-80.11714,4.85161638855,Between McClelland Rd/Exit 45 and PA-50/Exit 54 - Roadwork. Traffic problem.,,I-79 N,R,Canonsburg,Washington,PA,15317,US,US/Eastern,KAFJ,2020-03-16 19:53:00,47.0,44.0,68.0,28.89,10.0,SSW,6.0,0.0,Cloudy,False,False,False,False,True,False,False,False,False,False,False,False,False,Night,Night,Day,Day
C-2139139,2,2020-10-15 11:32:30,2020-10-16 00:34:08,27.869374,-82.32655600000002,27.871738,-82.327814,0.180507360119,Stationary traffic on FL-43 - US-301 N from Balm Riverview Rd to Commerce St due to roadwork.,,US Highway 301 S,R,Riverview,Hillsborough,FL,33578,US,US/Eastern,KTPF,2020-10-15 11:35:00,86.0,86.0,58.0,29.99,10.0,SSE,5.0,0.0,Fair,False,False,False,False,False,False,False,False,False,False,False,False,False,Day,Day,Day,Day
C-2139140,2,2021-05-14 09:00:00,2021-05-14 14:00:00,32.897496999999994,-96.469885,32.896697,-96.470105,0.0567291214744,Roadwork on TX-205/S Goliad St (Ridge Rd/FM-740) from I-30 (Ridge Rd/FM-740) to FM-740.,,E Interstate 30,R,Rockwall,Rockwall,TX,75087,US,US/Central,KF46,2021-05-14 08:55:00,61.0,61.0,67.0,29.66,10.0,SSE,5.0,0.0,Cloudy,False,False,False,False,False,False,False,False,False,False,False,True,False,Day,Day,Day,Day
C-2139141,2,2020-06-03 12:42:07,2020-07-30 11:27:06,41.48484000000001,-75.68178,41.39097,-75.73244,6.99651947979,Between Clarks Summit Toll Plaza and Keyser Ave/Exit 122 - Roadwork. Right lane closed.,,I-476 S,R,Clarks Summit,Lackawanna,PA,18411,US,US/Eastern,KAVP,2020-06-03 12:41:00,67.0,67.0,87.0,28.67,8.0,WSW,8.0,0.05,Light Rain,False,False,False,False,False,False,False,False,False,False,False,False,False,Day,Day,Day,Day
C-2139142,2,2021-08-06 18:03:23,2021-08-06 18:17:28,41.472077,-74.073617,41.483018,-74.079226,0.809794967788,Slow traffic on New York State Thruway N - I-87 N from NY-17/N Toll Vw/Exit 16 (I-87) to NY-17K/Exit 17 (I-87) due to roadwork.,,I-87 N,R,New Windsor,Orange,NY,12553,US,US/Eastern,KSWF,2021-08-06 17:45:00,86.0,86.0,43.0,29.57,20.0,SW,7.0,0.0,Fair,False,False,False,False,False,False,False,False,False,False,False,False,False,Day,Day,Day,Day
C-2139143,2,2021-09-09 23:28:30,2021-09-09 23:42:30,41.629362,-84.76048399999998,41.628899,-84.750694,0.5066116402499999,Slow traffic on Ohio Tpke E - I-90 E - I-80 E from Westgate Toll Booth (I-90/I-80) to CR-15/Exit 13 (I-90/I-80) due to roadwork.,,I-80 E,R,Edon,Williams,OH,43518,US,US/Eastern,KANQ,,,,,,,,,,,False,False,False,False,False,False,False,False,False,False,False,False,False,Night,Night,Night,Night
C-2139144,2,2018-11-08 21:02:12,2018-11-12 21:01:59,25.88974,-80.198172,25.88926,-80.20881,0.662079170956,At I-95/SR-9a - Construction work.,20.0,NE 125th St,R,North Miami,Miami-Dade,FL,33161-4501,US,US/Eastern,KOPF,2018-11-08 20:53:00,77.0,,84.0,30.03,10.0,East,3.5,,Clear,False,False,False,False,False,False,False,False,True,False,False,True,False,Night,Night,Night,Night
C-2139145,3,2019-01-07 00:15:43,2019-01-07 23:45:00,38.570862,-121.508324,,,0.7699999809270001,Exit ramp from I-5 Northbound at Exits 518 519A to Q St closed due to emergency repairs.,286.0,U St,R,Sacramento,Sacramento,CA,95818-1210,US,US/Pacific,KSAC,2019-01-07 00:11:00,50.0,,96.0,29.9,8.0,South,15.0,0.0,Overcast,False,False,False,False,False,False,False,False,False,False,False,False,False,Night,Night,Night,Night
C-2139146,2,2021-09-11 15:43:00,2021-09-11 16:29:00,41.717429,-87.701734,41.720689,-87.700556,0.23329372045,Slow traffic on US-12 E - US-20 E from W 97th St to S Troy Ave due to roadwork.,9671.0,S Kedzie Ave,L,Evergreen Park,Cook,IL,60805-3159,US,US/Central,KMDW,2021-09-11 15:53:00,88.0,88.0,45.0,29.21,10.0,SW,18.0,0.0,Mostly Cloudy,False,False,True,False,False,False,True,False,True,False,False,False,False,Day,Day,Day,Day
C-2139147,2,2021-09-29 14:26:00,2021-09-29 14:46:00,38.732185,-121.36458600000002,38.728825,-121.364626,0.232163900645,Stationary traffic from Baseline Rd (Walerga Rd) to Pfe Rd (Walerga Rd) due to roadwork.,9365.0,Walerga Rd,R,Roseville,Placer,CA,95747-9724,US,US/Pacific,KMCC,2021-09-29 14:35:00,81.0,81.0,17.0,29.81,10.0,WNW,9.0,0.0,Fair,False,False,True,False,False,False,False,False,False,True,False,True,False,Day,Day,Day,Day
C-2139148,2,2021-03-01 05:35:00,2021-03-01 15:51:11,28.077864,-80.602498,28.079794,-80.603877,0.157636625841,Stationary traffic on US-192 E - US-1 N - US-192 W - US-1 S - FL-5 from E Melbourne Ave to Depot Dr due to roadwork.,2067.0,S Harbor City Blvd,L,Melbourne,Brevard,FL,32901-5448,US,US/Eastern,KMLB,2021-03-01 05:53:00,70.0,70.0,100.0,30.03,10.0,S,7.0,0.0,Fair,True,False,False,False,False,False,False,False,False,False,False,False,False,Night,Night,Night,Day
C-2139149,2,2020-10-08 11:28:00,2020-10-08 16:35:30,40.806525,-73.92469100000002,40.80902,-73.922949,0.194979976087,Queuing traffic from New York--Bronx County Border (Willis Ave) to 3rd Ave (Willis Ave) due to roadwork.,,Willis Ave,R,Bronx,Bronx,NY,10454,US,US/Eastern,KLGA,2020-10-08 11:51:00,62.0,62.0,44.0,29.94,10.0,NW,18.0,0.0,Fair,False,False,False,False,False,False,False,False,True,False,False,True,False,Day,Day,Day,Day
C-2139150,2,2020-08-05 13:18:00,2020-09-02 13:55:00,44.890121,-96.94368,44.890115,-96.925252,0.902051293694,Construction on US-212 near I-29-WATERTOWN Construction. Expect long delays.,46308.0,US Highway 212,R,Watertown,Codington,SD,57201-7144,US,US/Central,KATY,2020-08-05 12:53:00,66.0,66.0,78.0,28.14,10.0,SSE,8.0,0.0,Cloudy,False,False,False,False,False,False,False,False,False,False,False,False,False,Day,Day,Day,Day
C-2139151,2,2021-03-10 07:38:00,2021-10-20 19:28:00,41.008583,-76.243325,41.025393,-76.088185,8.17073236372,Slow traffic on I-80 E from PA-339/Exit 242 (I-80) to PA-93/Exit 256 (I-80) due to roadwork.,,I-80 E,R,Nescopeck,Columbia,PA,18635,US,US/Eastern,KAVP,2021-03-10 07:54:00,42.0,42.0,58.0,29.42,10.0,CALM,0.0,0.0,Fair,False,False,False,False,False,False,False,False,False,False,False,False,False,Day,Day,Day,Day
C-2139152,2,2020-09-17 14:21:00,2020-09-18 00:21:24,39.95913,-75.605692,39.958806,-75.603472,0.119684386798,Queuing traffic on US-322 Bus W - US-322 Bus E - PA-162 from N Church St / S Church St to E Miner St / W Miner St due to roadwork.,99.0,W Market St,R,West Chester,Chester,PA,19382-3004,US,US/Eastern,KOQN,2020-09-17 14:15:00,72.0,72.0,69.0,29.32,10.0,WSW,5.0,0.0,Fair,True,False,True,False,False,False,False,False,False,False,False,True,False,Day,Day,Day,Day
C-2139153,2,2021-11-09 17:36:09,2021-11-09 19:37:45,27.916698,-82.798034,27.916664,-82.795813,0.135619003117,Slow traffic on County Hwy-416 - FL-686 from Howard Dr to Ridge Rd SW due to roadwork.,919.0,W Bay Dr,L,Largo,Pinellas,FL,33770,US,US/Eastern,KPIE,2021-11-09 17:53:00,70.0,70.0,71.0,30.14,10.0,NNW,7.0,0.0,Partly Cloudy,False,False,False,False,False,False,False,False,True,False,False,False,False,Day,Day,Day,Day
C-2139154,2,2021-05-04 09:21:17,2021-05-05 10:07:23,39.557859,-76.987923,39.555437,-76.988969,0.1763772922879999,Construction on MD-32 SB near MARGARET AVE Expect long delays.,598.0,Washington Rd,R,Westminster,Carroll,MD,21157-5658,US,US/Eastern,KDMW,2021-05-04 15:55:00,84.0,84.0,51.0,28.89,10.0,S,8.0,0.0,Partly Cloudy,False,False,False,False,False,False,False,False,False,False,False,False,False,Day,Day,Day,Day
C-2139155,2,2021-08-25 06:10:30,2021-08-25 07:23:30,29.787211,-95.041243,29.791559000000003,-95.051485,0.6836836769869999,Slow traffic on TX-330 Spur W from Bayway Dr/N Market Loop (TX-330 Spur) to I-10/East Fwy (TX-330 Spur) due to roadwork.,7014.0,Decker Dr,R,Baytown,Harris,TX,77520-1126,US,US/Central,KEFD,2021-08-25 05:50:00,79.0,79.0,89.0,29.95,10.0,CALM,0.0,,Fair,False,False,False,False,False,False,False,False,False,False,False,False,False,Night,Night,Day,Day
C-2139156,2,2021-04-15 05:06:00,2021-04-15 17:39:00,41.837701,-87.630362,41.863023,-87.644306,1.89105057587,Slow traffic on I-94 W - I-90 W - Dan Ryan Expy N from 35th St/Exit 55A (I-90/I-94) to Ruble St/Exit 52B (I-90/I-94) due to roadwork.,,Dan Ryan Expy N,R,Chicago,Cook,IL,60616,US,US/Central,KMDW,2021-04-15 05:15:00,40.0,35.0,63.0,29.34,10.0,WNW,7.0,0.0,Cloudy,False,False,False,False,True,False,False,False,False,False,False,False,False,Night,Night,Day,Day
C-2139157,2,2020-11-13 09:14:48,2021-12-28 19:39:00,28.080249,-80.602675,28.079198,-80.603163,0.0784744994231,Stationary traffic on US-192 E - US-192 W - US-1 N - US-1 S - FL-5 from Riverview Dr to E New Haven Ave due to roadwork.,1217.0,E Strawbridge Ave,R,Melbourne,Brevard,FL,32901-4713,US,US/Eastern,KMLB,2021-04-23 05:53:00,70.0,70.0,71.0,30.04,10.0,ENE,12.0,0.0,Fair,True,False,False,False,False,False,False,False,False,False,False,False,False,Day,Day,Day,Day
C-2139158,4,2020-10-18 13:01:00,2020-10-18 18:46:00,34.077690000000004,-118.291693,34.07803,-118.285963,0.3287595994009999,Construction on US-101 SB near VERMONT AVE Take alternate route.,364.0,N Vermont Ave,R,Los Angeles,Los Angeles,CA,90004-3511,US,US/Pacific,KCQT,2020-10-18 12:52:00,80.0,80.0,50.0,29.77,5.0,CALM,0.0,0.0,Fair,False,False,False,False,True,False,True,False,True,False,False,True,False,Day,Day,Day,Day
C-2139159,2,2020-09-22 12:44:53,2020-09-27 14:49:59,34.521173,-117.958101,34.521145000000004,-117.971223,0.747001752146,Roadwork on CA-138 from 96th St (CA-138) to 87th St (CA-138).,35083.0,96th St E,R,Littlerock,Los Angeles,CA,93543,US,US/Pacific,KPMD,2020-09-22 12:53:00,91.0,91.0,14.0,27.38,10.0,VAR,7.0,0.0,Fair,False,False,False,False,False,False,False,False,False,False,False,False,False,Day,Day,Day,Day
C-2139160,4,2019-07-26 22:05:45,2019-07-27 03:02:10,39.91421,-104.98852,39.91448,-104.9888,0.0238369696275,Ramp closed to I-25 Northbound - Closed due to roadwork.,,E 120th Ave,R,Denver,Adams,CO,80233,US,US/Mountain,KBJC,2019-07-26 22:11:00,77.0,77.0,36.0,24.56,10.0,ESE,6.0,0.0,Cloudy,False,False,True,False,False,False,False,False,False,False,False,False,False,Night,Night,Night,Day
C-2139161,3,2021-06-24 21:00:00,2021-06-25 05:30:00,25.788916,-80.2043,,,0.0,Three lanes blocked due to construction on I-95 Southbound at Exit 2 / I-395 .,,I-95 S,R,Miami,Miami-Dade,FL,33136,US,US/Eastern,KMIA,2021-06-24 20:53:00,82.0,82.0,79.0,30.06,10.0,NE,5.0,0.0,Cloudy,False,False,False,False,False,False,False,False,False,False,False,False,False,Night,Night,Day,Day
C-2139162,2,2020-09-22 13:03:30,2020-09-22 23:00:45,39.709401,-105.02508799999998,39.711072,-105.024377,0.121482823011,Slow traffic on CO-26 - CO-88 from W Dakota Ave to S Eliot St due to resurfacing work.,2901.0,W Dakota Ave,R,Denver,Denver,CO,80219,US,US/Mountain,KAPA,2020-09-22 12:53:00,81.0,81.0,17.0,24.29,10.0,CALM,0.0,0.0,Mostly Cloudy,False,False,False,False,False,False,False,False,True,False,False,False,False,Day,Day,Day,Day
C-2139163,2,2021-10-24 10:11:00,2021-10-24 18:59:00,41.888416,-87.64763,41.87155,-87.645286,1.17155166585,Slow traffic on I-94 E - I-90 E - Kennedy Expy E from Ohio St/Exit 50B (I-90/I-94) to Taylor St/Exit 52A (I-90/I-94) due to roadwork.,,I-90 E,R,Chicago,Cook,IL,60607,US,US/Central,KMDW,2021-10-24 10:25:00,47.0,43.0,77.0,29.29,10.0,E,9.0,0.02,Light Rain,False,False,False,False,False,False,False,False,False,False,False,False,False,Day,Day,Day,Day
C-2139164,2,2021-04-20 05:40:30,2021-12-22 15:19:37,33.538615,-112.114248,33.538539,-112.112267,0.114207234153,Slow traffic from N 35th Ave (W Glendale Ave) to I-17/N Black Canyon Hwy (W Glendale Ave) due to roadwork.,2598.0,W Glendale Ave,L,Phoenix,Maricopa,AZ,85051-6787,US,US/Mountain,KDVT,2021-10-16 15:53:00,89.0,89.0,11.0,28.34,10.0,SSE,12.0,0.0,Fair,False,False,True,False,False,False,False,False,True,False,False,True,False,Night,Day,Day,Day
C-2139165,2,2020-03-10 10:30:00,2020-03-10 17:30:00,38.7788,-120.25629,38.78515,-120.21386,2.32704603574,Between 35 Milestone Rd - Rt and Wrights Lake Rd - Lt - Maintenance work.,14658.0,US Highway 50,L,Kyburz,El Dorado,CA,95720,US,US/Pacific,KTVL,2020-03-10 10:53:00,47.0,43.0,39.0,23.9,10.0,E,9.0,0.0,Fair,False,False,False,False,False,False,False,False,False,False,False,False,False,Day,Day,Day,Day
C-2139166,2,2021-09-12 13:32:10,2021-09-12 15:42:52,40.59854,-73.96567399999998,40.597738,-73.966339,0.0654806533628,Stationary traffic on Ocean Pkwy from Avenue T to E 5th St due to roadwork.,,Ocean Pkwy,R,Brooklyn,Kings,NY,11223,US,US/Eastern,KJRB,2021-09-12 13:51:00,80.0,80.0,54.0,29.95,10.0,CALM,0.0,0.0,Fair,False,False,False,False,False,False,False,False,False,False,False,False,False,Day,Day,Day,Day
C-2139167,2,2021-02-12 04:37:30,2021-02-13 15:57:26,25.946072,-80.147246,25.947573,-80.148077,0.1158497442599999,Slow traffic on US-1 N - FL-860 - FL-5 from NE 183rd St to W Dixie Hwy due to roadwork.,18403.0,Biscayne Blvd,L,Aventura,Miami-Dade,FL,33160-2107,US,US/Eastern,KHWO,2021-02-12 04:53:00,69.0,69.0,93.0,29.98,10.0,CALM,0.0,0.0,Fair,False,False,False,False,False,False,False,False,False,False,False,False,False,Night,Night,Night,Night
C-2139168,2,2021-04-22 06:41:00,2021-04-22 21:47:51,33.624165000000005,-112.099679,33.625640999999995,-112.100408,0.11026959871,Slow traffic from W Mandalay Ln to N 22nd Ave due to roadwork.,,N 19th Ave,R,Phoenix,Maricopa,AZ,85023,US,US/Mountain,KDVT,2021-04-22 06:53:00,59.0,59.0,28.0,28.18,10.0,E,5.0,0.0,Fair,True,False,False,False,False,False,False,False,True,False,False,False,False,Day,Day,Day,Day
C-2139169,3,2020-06-28 03:37:12,2020-07-02 03:35:24,42.01348,-88.1834,42.01868,-88.1983,0.845050129255,At Streamwood - Roadwork.,2.0,E Irving Park Rd,L,Streamwood,Cook,IL,60107-2953,US,US/Central,KDPA,2020-06-28 03:42:00,69.0,69.0,93.0,28.97,1.0,CALM,0.0,0.0,Fog,False,False,False,False,False,False,False,False,False,False,False,True,False,Night,Night,Night,Day
C-2139170,2,2021-07-13 07:00:00,2021-07-13 19:45:00,37.137576,-76.898299,37.14454600000001,-76.919739,1.2752943545200002,On VA-10 (Colonial Trl W) in the County of Surry from Idlewild Ln; Martin Luther King Hwy; Swanns Point Rd; Rt. 646N/S (Surry County); VA-40E/W to Hollybush Rd; Rt. 618N/S (Surry County) motorists can expect potential delays in this area from 07/13/21 at 7:00 AM until 07/13/21 at 7:00 PM due to paving operations. The east through lanes are alternating closures. The west through lanes are alternating closures.,3378.0,Colonial Trl W,R,Spring Grove,Surry,VA,23881,US,US/Eastern,KAKQ,2021-07-13 06:54:00,76.0,76.0,94.0,30.12,10.0,SSW,3.0,0.0,Fair,False,False,False,False,False,False,False,False,False,False,False,False,False,Day,Day,Day,Day
C-2139171,2,2021-02-22 06:07:00,2021-02-22 07:22:30,39.664858,-75.775012,39.666151,-75.775035,0.0893461664075,Slow traffic on DE-896 - DE-4 from Conrail to Christina Mill Dr due to roadwork.,298.0,Christina Pkwy,L,Newark,New Castle,DE,19711,US,US/Eastern,KILG,2021-02-22 05:51:00,30.0,22.0,64.0,30.18,10.0,S,9.0,0.0,Fair,False,False,False,False,False,False,False,False,False,False,False,False,False,Night,Night,Day,Day
C-2139172,4,2021-06-02 06:07:03,2021-06-09 21:59:00,29.945458,-90.075949,29.945588,-90.075819,0.0118850539362999,Closed road from Pontchartrain Expy W to Howard Ave / O'Keefe Ave due to roadwork.,,Howard Ave,R,New Orleans,Orleans,LA,70113,US,US/Pacific,KAUD,2021-06-02 05:55:00,79.0,79.0,94.0,30.02,7.0,S,6.0,0.0,Cloudy,False,False,False,False,False,False,False,False,False,False,False,True,False,Day,Day,Day,Day
C-2139173,2,2020-06-09 07:00:00,2020-06-09 15:00:00,42.51975,-73.68842,42.51975,-73.68842,0.0,At US-9/US-20/Exit 11 - Construction work.,,I-90 W,R,Castleton on Hudson,Rensselaer,NY,12033,US,US/Eastern,KALB,2020-06-09 06:51:00,63.0,63.0,56.0,29.65,10.0,SSE,5.0,0.0,Mostly Cloudy,False,False,False,False,False,False,False,False,False,False,False,False,False,Day,Day,Day,Day
C-2139174,2,2020-10-23 19:34:50,2020-10-23 20:42:38,26.262677000000004,-97.869268,26.259217,-97.863778,0.41577447246,Stationary traffic on TX-107 from Jill Ave/Mile 1 Rd (Mile 16 1/2 Rd/TX-107) to Santa Rosa Blvd (Santa Cruz Ave/TX-107) due to roadwork.,1315.0,E Highway 107,R,Edcouch,Hidalgo,TX,78538,US,US/Central,KT65,,,,,,,,,,,False,False,False,False,False,False,False,False,False,False,False,False,False,Night,Night,Day,Day
C-2139175,2,2020-04-22 06:49:48,2020-04-22 16:00:00,41.32282,-72.88481,41.31857,-72.89853000000002,0.7701248450020001,At Willow St/Exit 7 - Roadwork. Two lanes closed.,,I-91 N,R,New Haven,New Haven,CT,06513,US,US/Eastern,KHVN,2020-04-22 06:53:00,37.0,30.0,52.0,29.76,10.0,WNW,9.0,0.0,Fair,False,False,False,False,True,False,False,False,False,False,False,False,False,Day,Day,Day,Day
C-2139176,2,2021-11-01 12:52:00,2021-11-01 14:56:45,33.481224,-112.073866,33.479343,-112.073869,0.1299648371649999,Slow traffic from Indian School Rd (N Central Ave) to McDowell Rd (N Central Ave) due to roadwork.,3000.0,N Central Ave,L,Phoenix,Maricopa,AZ,85012-2769,US,US/Mountain,KPHX,2021-11-01 12:51:00,80.0,80.0,23.0,28.85,10.0,SSE,6.0,0.0,Partly Cloudy,False,False,False,False,False,False,True,False,True,True,False,False,False,Day,Day,Day,Day
C-2139177,4,2021-01-23 18:28:10,2021-01-31 07:59:00,34.191897999999995,-84.537768,34.190411,-84.537973,0.103407778295,Closed road from Liberty Rd to Preston Glen Cir due to roadwork.,211.0,Liberty Rd,L,Canton,Cherokee,GA,30114,US,US/Eastern,KCNI,2021-01-23 18:35:00,48.0,46.0,37.0,28.86,10.0,NW,6.0,0.0,Partly Cloudy,False,False,False,False,False,False,False,False,False,False,False,False,False,Night,Night,Day,Day
C-2139178,2,2021-09-28 17:42:04,2021-09-28 18:02:04,30.537676,-84.230432,30.542175,-84.228122,0.339889723661,Stationary traffic on US-319 N - FL-61 from Killarney Way (US-319) to Kerry Forest Pkwy (US-319) due to roadwork.,5019.0,Thomasville Rd,R,Tallahassee,Leon,FL,32312-3803,US,US/Eastern,KTLH,2021-09-28 17:53:00,84.0,84.0,58.0,29.87,10.0,S,7.0,0.0,Mostly Cloudy,False,False,True,False,False,False,False,False,False,False,False,True,False,Day,Day,Day,Day
C-2139179,2,2021-02-19 08:00:00,2021-02-19 15:45:00,42.426506,-72.107084,42.428372,-72.108407,0.14551677967,Construction on BROAD ST near HIGH ST Expect delays.,136.0,Broad St,R,Barre,Worcester,MA,01005-9259,US,US/Eastern,KORE,2021-02-19 07:52:00,23.0,17.0,85.0,29.62,1.0,N,5.0,0.0,Light Snow,False,False,False,False,False,False,False,False,False,False,False,False,False,Day,Day,Day,Day
C-2139180,2,2019-09-03 00:00:00,2019-09-27 00:00:00,47.859539,-122.269653,,,0.579999983311,Intermittent lane closures due to construction on Manor Way both ways between 156th St and 153rd St.,15409.0,Manor Way,L,Lynnwood,Snohomish,WA,98087-2440,US,US/Pacific,KPAE,2019-09-03 00:53:00,60.0,60.0,83.0,29.39,10.0,VAR,5.0,0.0,Fair,False,False,False,False,False,False,False,False,False,False,False,False,False,Night,Night,Night,Night
C-2139181,2,2021-06-28 12:47:16,2021-12-23 14:46:32,29.968328000000003,-90.104802,29.969494,-90.107443,0.177423416388,Slow traffic on US-61 N from S Jefferson Davis Pkwy (US-61) to I-10 (New Orleans) (US-61) due to roadwork.,4013.0,Tulane Ave,R,New Orleans,Orleans,LA,70119-6829,US,US/Pacific,KAUD,2021-12-09 13:21:00,79.0,79.0,82.0,29.96,10.0,SSW,13.0,0.0,Mostly Cloudy,False,False,False,False,False,False,False,False,False,False,False,False,False,Day,Day,Day,Day
C-2139182,2,2021-06-13 21:25:36,2021-06-15 02:48:15,39.381515,-76.737939,39.39587,-76.687722,2.85910927671,Construction on I-695 NB near EXIT 20 Expect long delays.,,I-695 N,R,Pikesville,Baltimore County,MD,21208,US,US/Eastern,KDMH,,,,,,,,,,,False,False,False,False,True,False,False,False,False,False,False,False,False,Night,Night,Day,Day
C-2139183,2,2021-10-26 17:12:30,2021-10-26 17:35:30,33.406717,-112.060192,33.406695,-112.073273,0.754487993471,Slow traffic from S 16th St (E Broadway Rd) to S Central Ave (Broadway Rd) due to roadwork.,899.0,E Broadway Rd,R,Phoenix,Maricopa,AZ,85040-2202,US,US/Mountain,KPHX,2021-10-26 16:51:00,75.0,75.0,21.0,28.74,10.0,W,17.0,0.0,Fair,True,False,True,False,False,False,False,False,False,True,False,True,False,Day,Day,Day,Day
C-2139184,2,2021-09-02 14:20:00,2021-09-02 14:40:00,39.573716,-106.08586,39.578056,-106.092815,0.4765623903779999,Stationary traffic on CO-9 from CR-980/Swan Mountain Rd (CO-9) to I-70/US-6 (Summit Blvd/CO-9) due to roadwork.,500.0,S Summit Blvd,L,Frisco,Summit,CO,80443,US,US/Mountain,KCCU,2021-09-02 13:53:00,58.0,58.0,60.0,20.93,10.0,N,8.0,0.0,Cloudy,False,False,False,False,False,False,False,False,False,False,False,False,False,Day,Day,Day,Day
C-2139185,1,2020-06-12 22:00:00,2020-06-15 05:00:00,33.773087,-118.036324,,,0.4900000095369999,Road closed due to bridge maintenance work on Garden Grove Blvd both ways from Bolsa Chica Rd to I-405.,5403.0,Garden Grove Blvd,L,Westminster,Orange,CA,92683-1884,US,US/Pacific,KSLI,2020-06-12 13:58:00,72.0,72.0,56.0,30.0,10.0,SSW,9.0,0.0,Fair,False,False,False,False,False,False,False,False,False,False,False,False,False,Night,Night,Night,Night
C-2139186,2,2018-12-12 10:28:00,2018-12-16 10:27:23,39.99279,-79.90964,40.01413,-79.943061,2.3027812411,Between US-40/Redstone Way and PA-88/Low Hill Rd - Roadwork.,,Mon-Fayette Expy N,R,Brownsville,Fayette,PA,15417,US,US/Eastern,KAGC,2018-12-12 10:53:00,33.1,25.5,64.0,30.15,10.0,SSE,9.2,,Clear,False,False,False,False,False,False,False,False,False,False,False,False,False,Day,Day,Day,Day
C-2139187,2,2021-04-27 04:12:08,2021-04-28 04:57:09,26.081551,-80.161101,26.081659,-80.163048,0.121056259594,Construction on I-595 WB near EXIT 10B Allow extra time.,,I-595 W,R,Fort Lauderdale,Broward,FL,33315,US,US/Eastern,KFLL,2021-04-27 03:53:00,76.0,76.0,74.0,30.01,10.0,E,10.0,0.0,Mostly Cloudy,False,False,False,False,False,False,False,False,False,False,False,False,False,Night,Night,Night,Night
C-2139188,2,2020-10-08 12:52:30,2020-10-08 14:45:30,33.218685,-96.821127,33.221311,-96.819543,0.203231577987,Stationary traffic from US Highway 380 W / E University Dr to W 1st St due to roadwork.,,E University Dr,R,Frisco,Collin,TX,75033,US,US/Central,KADS,2020-10-08 12:51:00,82.0,82.0,45.0,29.37,10.0,S,3.0,0.0,Fair,False,False,False,False,False,False,False,False,False,False,False,False,False,Day,Day,Day,Day
C-2139189,2,2019-02-05 21:32:14,2019-02-10 21:31:10,25.8088,-80.25040600000001,25.80885,-80.24838000000003,0.126067522018,At NW 32nd Ave - Construction work.,3291.0,NW 36th St,R,Miami,Miami-Dade,FL,33142-5035,US,US/Eastern,KMIA,2019-02-05 21:53:00,71.1,,78.0,30.12,10.0,Calm,,,Partly Cloudy,False,False,False,False,False,False,False,False,True,False,False,True,False,Night,Night,Night,Night
C-2139190,2,2021-12-21 14:16:00,2021-12-21 14:36:30,27.846964,-82.689351,27.838218,-82.683138,0.7136175021179999,Slow traffic on US-19 S from CR-611/49th St (US-19) to Haines Rd (US-19) due to roadwork.,8192.0,US Highway 19 N,L,Pinellas Park,Pinellas,FL,33781-1743,US,US/Eastern,KPIE,2021-12-21 13:53:00,69.0,69.0,84.0,29.72,10.0,NW,15.0,0.0,Cloudy,False,False,True,False,False,False,False,False,False,False,False,False,False,Day,Day,Day,Day
C-2139191,2,2021-10-21 17:00:44,2021-10-21 17:23:04,34.623459000000004,-92.501743,34.62355,-92.499149,0.147621553312,Stationary traffic on AR-183 - AR-5 from Office Park Dr to I-30 W due to roadwork.,5435.0,Highway 5 N,L,Bryant,Saline,AR,72022,US,US/Central,KLIT,2021-10-21 16:53:00,77.0,77.0,30.0,29.8,10.0,NW,14.0,0.0,Mostly Cloudy,False,False,False,False,False,False,False,False,False,False,False,False,False,Day,Day,Day,Day
C-2139192,2,2021-05-31 00:00:00,2021-06-04 23:59:59,43.157721,-77.538849,43.207321,-77.548675,3.46260466935,Safety improvements on NY 590 between City of Rochester and Town of Irondequoit Line (Rochester) and Exit 10A - NY 104 (Irondequoit) Both directions Mobile operations within workzone. Alternating Right / Left lane closures as necessary Wednesday June 2nd 2021 thru Friday June 11th 2021 Monday thru Friday 08:00 AM thru 04:00 PM All lanes open,,Sea Breeze Expy N,R,Rochester,Monroe,NY,14609,US,US/Eastern,KROC,2021-05-31 00:54:00,49.0,49.0,86.0,29.64,10.0,CALM,0.0,0.0,Partly Cloudy,False,False,False,False,True,False,False,False,False,False,False,False,False,Night,Night,Night,Night
C-2139193,2,2020-09-24 04:00:00,2020-09-24 12:45:00,33.591095,-83.625065,33.563334999999995,-83.503935,7.23178718646,Construction on I-20 EB near MM 109 Construction. Left lane closed.,,GA-402 E,R,Rutledge,Morgan,GA,30663,US,US/Eastern,K9A1,2020-09-24 03:56:00,62.0,62.0,96.0,28.9,10.0,CALM,0.0,0.0,Fair,False,False,False,False,False,False,False,False,False,False,False,False,False,Night,Night,Night,Night
C-2139194,2,2020-01-01 23:49:00,2020-01-02 01:50:29,38.712706,-120.838461,38.712706,-120.838461,0.0,At Missouri Flat Rd - Lane control signs not working.,,El Dorado Fwy W,R,Placerville,El Dorado,CA,95667,US,US/Pacific,KPVF,2020-01-01 23:55:00,45.0,41.0,76.0,27.38,10.0,ENE,7.0,0.0,Fair,False,False,False,False,False,False,False,False,False,False,False,False,False,Night,Night,Night,Night
C-2139195,2,2021-02-17 12:41:00,2021-02-17 16:17:34,37.641921,-86.48373199999996,37.638976,-86.466486,0.96525796128,Roadwork on KY-105/KY-2201 (KY-79) from KY-259 (KY-79) to KY-79.,3171.0,S Highway 79,R,Hardinsburg,Breckinridge,KY,40143-6918,US,US/Eastern,KFTK,2021-02-17 12:55:00,21.0,12.0,68.0,29.49,10.0,E,8.0,0.0,Cloudy,False,False,False,False,False,False,False,False,False,False,False,False,False,Day,Day,Day,Day
C-2139196,4,2020-06-16 00:43:13,2020-06-16 05:42:50,41.35424,-79.87255,41.21618,-79.97112,10.8251453606,Closed between Sandy Creek Rd/Debence Dr and I-80 - Closed due to roadwork.,1758.0,Pittsburgh Rd,L,Polk,Venango,PA,16342-5322,US,US/Eastern,KFKL,2020-06-16 00:56:00,57.0,57.0,89.0,28.72,10.0,NE,5.0,0.0,Fair,False,False,False,False,False,False,False,False,False,True,False,False,False,Night,Night,Night,Night
C-2139197,2,2020-10-30 13:29:30,2020-10-31 01:03:40,26.101185,-80.136902,26.100218,-80.135918,0.0905079780618,Slow traffic on US-1 S - FL-A1A - FL-5 from SE 16th Ct to Miami Rd due to roadwork.,1659.0,S Federal Hwy,L,Fort Lauderdale,Broward,FL,33316-2963,US,US/Eastern,KFLL,2020-10-30 13:53:00,87.0,87.0,69.0,29.91,10.0,SSE,10.0,0.0,Mostly Cloudy,False,False,True,False,False,False,False,False,False,False,False,False,False,Day,Day,Day,Day
C-2139198,4,2017-03-29 21:01:10,2017-03-30 03:01:10,32.88745,-117.22863999999998,32.88406,-117.22817,0.235808827092,Ramp closed to I-5/San Diego Fwy Southbound - Closed. Construction work.,,Genesee Ave,R,La Jolla,San Diego,CA,92093,US,US/Pacific,KMYF,2017-03-29 20:53:00,66.0,,40.0,30.03,10.0,North,3.5,,Clear,False,False,True,False,False,False,False,False,False,False,False,True,False,Night,Night,Night,Night
C-2139199,2,2021-10-12 18:06:31,2021-10-12 20:13:56,32.550538,-97.128335,32.549759,-97.129792,0.100486592289,Slow traffic on US-287 Bus S - US-287 Bus N - FM-157 - TX-496 from S Wisteria St to Price Mansfield Rd / Sentry Dr due to roadwork.,1147.0,Heritage Pkwy,R,Mansfield,Tarrant,TX,76063-2761,US,US/Central,KGKY,2021-10-12 17:53:00,88.0,88.0,59.0,29.12,10.0,SSE,14.0,0.0,Partly Cloudy,False,False,False,False,False,False,False,False,False,False,False,False,False,Day,Day,Day,Day
C-2139200,2,2021-11-09 14:25:00,2021-11-09 16:32:12,33.509233,-112.046391,33.508519,-112.047532,0.0821861376836,Stationary traffic from Piestewa Fwy S to E Pierson St due to roadwork.,1608.0,E Camelback Rd,L,Phoenix,Maricopa,AZ,85016,US,US/Mountain,KPHX,2021-11-09 14:51:00,81.0,81.0,18.0,28.83,10.0,W,6.0,0.0,Mostly Cloudy,True,False,False,False,False,False,False,False,True,False,False,False,False,Day,Day,Day,Day
C-2139201,2,2020-11-23 14:30:30,2020-11-24 00:39:30,26.441737,-80.069991,26.439683,-80.071374,0.165714520275,Stationary traffic on US-1 S - FL-5 from SE 10th St (US-1) to E Linton Blvd (US-1) due to roadwork.,,Banyan Tree Ln,R,Delray Beach,Palm Beach,FL,33483,US,US/Eastern,KBCT,2020-11-23 14:53:00,80.0,80.0,62.0,29.97,10.0,NNW,13.0,0.0,Partly Cloudy,False,False,False,False,False,False,False,False,False,False,False,True,False,Day,Day,Day,Day
C-2139202,2,2021-12-27 17:02:00,2021-12-27 19:41:26,33.859699,-117.887132,33.85968,-117.890708,0.2051789349909999,Slow traffic from Placentia Ave (Orangethorpe Ave) to Raymond Ave (Orangethorpe Ave) due to roadwork.,2453.0,E Orangethorpe Ave,L,Fullerton,Orange,CA,92831-5332,US,US/Pacific,KFUL,2021-12-27 17:00:00,54.0,54.0,86.0,29.81,10.0,SW,6.0,0.0,Cloudy,False,False,False,False,False,False,False,False,False,False,False,False,False,Night,Day,Day,Day
C-2139203,2,2021-09-30 08:35:53,2021-10-01 09:22:21,39.234466,-76.890362,39.234382,-76.890907,0.0297387783366,Construction on MD-108 WB near CEDAR LN Expect long delays.,10887.0,Clarksville Pike,L,Columbia,Howard,MD,21044-1338,US,US/Eastern,KFME,2021-09-30 08:35:00,50.0,50.0,100.0,30.0,10.0,CALM,0.0,,Fair,False,False,False,False,False,False,False,False,False,False,False,True,False,Day,Day,Day,Day
C-2139204,2,2021-04-14 04:58:30,2021-04-14 11:42:43,40.739879,-73.998719,40.737234,-74.000668,0.209306427257,Slow traffic from W 23rd St (7th Ave) to Bleecker St/Barrow St (7th Ave) due to roadwork.,201.0,W 16th St,R,New York,New York,NY,10011-6000,US,US/Eastern,KNYC,2021-04-14 04:51:00,49.0,49.0,83.0,29.96,10.0,NNW,3.0,0.0,Fair,True,False,True,False,False,False,True,False,True,False,False,True,False,Night,Night,Night,Day
C-2139205,2,2020-11-18 22:14:00,2020-11-19 15:53:20,33.956221,-94.953239,33.946753,-94.926384,1.67241185051,Roadwork on OK-98 (US-70) from NW Texas St (US-70) to US-70 W - US-70 E.,11296.0,W US Highway 70,L,Garvin,McCurtain,OK,74736-5304,US,US/Central,K4O4,2020-11-18 22:15:00,55.0,55.0,41.0,29.82,10.0,SE,8.0,0.0,Fair,False,False,False,False,False,False,False,False,False,False,False,False,False,Night,Night,Night,Night
C-2139206,3,2019-12-04 09:01:35,2019-12-08 09:01:05,33.78168,-118.35262,33.76285,-118.36993,1.63740068959,Between Palos Verdes Dr N and Crest Rd - Construction work. Roadway reduced to 1 lane.,26523.0,Crenshaw Blvd,R,Palos Verdes Peninsula,Los Angeles,CA,90274-4252,US,US/Pacific,KTOA,2019-12-04 08:47:00,55.0,55.0,94.0,29.82,8.0,ESE,8.0,,Light Rain,False,False,True,False,False,False,False,False,False,True,False,False,False,Day,Day,Day,Day
C-2139207,2,2019-06-21 07:02:12,2019-06-25 07:02:12,33.779949,-118.342266,33.779949,-118.342266,0.0,At Lariat Ln - Construction work.,26666.0,Rolling Hills Rd,L,Rolling Hills Estates,Los Angeles,CA,90274-4514,US,US/Pacific,KTOA,2019-06-21 06:50:00,63.0,63.0,82.0,29.8,10.0,VAR,7.0,,Mostly Cloudy,False,False,False,False,False,False,False,False,False,False,False,False,False,Day,Day,Day,Day
C-2139208,2,2021-07-31 13:26:34,2021-07-31 13:47:37,40.718419,-73.96161500000002,40.716734,-73.95891,0.183359342096,Slow traffic from Wythe Ave to Bedford Ave due to roadwork.,198.0,Wythe Ave,R,Brooklyn,Kings,NY,11249-3287,US,US/Eastern,KJRB,2021-07-31 13:51:00,75.0,75.0,38.0,29.87,10.0,CALM,0.0,0.0,Fair,True,False,True,False,False,False,False,False,True,True,False,True,False,Day,Day,Day,Day
C-2139209,2,2021-11-12 13:09:30,2021-11-12 13:31:00,29.718008,-95.427676,29.725296000000004,-95.427732,0.503564052909,Slow traffic from W Holcombe Blvd (Buffalo Speedway) to Bissonnet St (Buffalo Speedway) due to roadwork.,3199.0,Georgetown St,L,Houston,Harris,TX,77005-3031,US,US/Central,KMCJ,2021-11-12 12:53:00,78.0,78.0,50.0,30.05,10.0,WSW,9.0,0.0,Fair,False,False,False,False,False,False,False,False,False,True,False,True,False,Day,Day,Day,Day
C-2139210,2,2020-11-17 04:28:00,2020-11-17 05:06:30,29.95471,-90.366829,29.959401,-90.363873,0.369275741367,Slow traffic on I-310 N from River Rd (Destrehan) (I-310) to Airline Hwy (I-310) due to roadwork.,,I-310 N,R,Destrehan,St. Charles,LA,70047,US,US/Central,KMSY,2020-11-17 04:53:00,59.0,59.0,55.0,30.34,10.0,NNE,7.0,0.0,Fair,False,False,False,False,False,False,False,False,False,False,False,False,False,Night,Night,Night,Night
C-2139211,2,2021-08-25 08:16:00,2021-08-25 10:52:30,45.653323,-107.657254,45.672605,-107.621476,2.18166554866,Slow traffic on MT-313 - County Hwy-313 from Crow Street X Cutoff (MT-313) to CR-216A (MT-313) due to roadwork.,,State Highway 313,R,Crow Agency,Big Horn,MT,59022,US,US/Mountain,KM46,2021-08-25 07:53:00,53.0,53.0,71.0,27.44,10.0,NNE,8.0,0.0,Fair,False,False,False,False,False,False,False,False,False,False,False,False,False,Day,Day,Day,Day
C-2139212,2,2016-11-23 05:53:05,2016-11-23 13:00:00,33.881649,-117.581268,,,0.01,Entry ramp closed due to bridge maintenance work on CA-91 Eastbound at Lincoln Ave.,,Riverside Fwy E,R,Corona,Riverside,CA,92882,US,US/Pacific,KAJO,2016-11-23 05:51:00,39.2,,100.0,30.14,1.8,Calm,,,Clear,False,False,False,False,False,False,False,False,False,False,False,False,False,Night,Night,Day,Day
C-2139213,2,2020-09-09 12:36:30,2020-09-09 16:21:30,40.609557,-73.966302,40.609977,-73.962436,0.2048491128379999,Queuing traffic from Ocean Pkwy (Avenue P) to Coney Island Ave (Avenue P) due to roadwork.,701.0,Avenue P,L,Brooklyn,Kings,NY,11223-2221,US,US/Eastern,KJRB,2020-09-09 12:51:00,80.0,80.0,62.0,30.2,10.0,NNE,5.0,0.0,Fair,False,False,True,False,False,False,False,False,False,False,False,True,False,Day,Day,Day,Day
C-2139214,2,2021-05-26 13:38:51,2021-05-26 14:00:07,40.637598,-74.146947,40.638279,-74.144083,0.1573612898509999,Slow traffic from South Ave (Richmond Ter) to Clove Rd (Richmond Ter) due to roadwork.,2566.0,Richmond Ter,L,Staten Island,Richmond,NY,10303-2306,US,US/Eastern,KEWR,2021-05-26 13:51:00,87.0,87.0,53.0,29.93,10.0,S,14.0,0.0,Partly Cloudy,False,False,False,False,False,False,False,False,False,False,False,False,False,Day,Day,Day,Day
C-2139215,2,2017-05-31 00:02:40,2017-05-31 05:00:00,41.59236,-93.6708,41.59234,-93.76426,4.82945682357,Between 35th St and 50th St/Exit 1A - Construction work. Right lane closed.,,I-235 W,R,Des Moines,Polk,IA,50312,US,US/Central,KDSM,2017-05-31 00:54:00,59.0,,49.0,30.02,10.0,Calm,,,Partly Cloudy,False,False,False,False,False,False,False,False,False,False,False,False,False,Night,Night,Night,Night
C-2139216,2,2021-12-11 12:23:30,2021-12-11 12:50:07,25.684949,-80.400578,25.685901,-80.40190799999998,0.105757988901,Slow traffic on FL-94 from SW 89th Ter to SW 132nd Ave due to roadwork.,,SW 127th Ave,R,Miami,Miami-Dade,FL,33186,US,US/Eastern,KTMB,2021-12-11 12:53:00,,,,30.06,,,,0.0,,False,False,False,False,False,False,False,False,False,False,False,False,False,Day,Day,Day,Day
C-2139217,2,2020-10-27 20:40:30,2020-10-27 21:50:00,33.706531,-112.115614,33.708055,-112.115943,0.106982900427,Stationary traffic from W Corporate Center Dr to Deer Valley due to roadwork.,,N Black Canyon Hwy,R,Phoenix,Maricopa,AZ,85085,US,US/Mountain,KDVT,2020-10-27 20:53:00,57.0,57.0,24.0,28.42,10.0,SE,6.0,0.0,Fair,False,False,False,False,False,False,False,False,False,False,False,False,False,Night,Night,Night,Night
C-2139218,2,2019-10-02 10:01:51,2019-10-06 10:02:55,41.578417,-75.283998,41.591334,-75.393499,5.72895900904,At PA-296/Belmont St - Roadwork. Open.,2033.0,Roosevelt Hwy,L,Honesdale,Wayne,PA,18431-4166,US,US/Eastern,KMSV,2019-10-02 09:56:00,73.0,73.0,81.0,28.4,10.0,W,6.0,0.0,Mostly Cloudy,False,False,False,False,False,False,False,False,False,False,False,False,False,Day,Day,Day,Day
C-2139219,4,2021-05-09 18:00:00,2021-05-10 06:30:00,34.150915999999995,-84.40273,34.153021,-84.40533,0.207976394781,GA-140 is closed from Sugar Pike Rd (GA-140) to E Cherokee Dr (GA-140) due to roadwork.,8301.0,Hickory Flat Hwy,R,Woodstock,Cherokee,GA,30188-2169,US,US/Eastern,KRYY,2021-05-09 17:50:00,81.0,81.0,41.0,28.81,10.0,SSW,12.0,0.0,Fair,False,False,False,False,False,False,False,False,False,False,False,False,False,Day,Day,Day,Day
C-2139220,2,2019-08-26 09:04:55,2019-08-30 09:04:48,42.47395,-83.42139,42.450462,-83.345337,4.20254597515,Between I-96/I-275/I-696 and Grand River Ave - Construction work. Lane blocked.,,MI-5 E,R,Farmington,Oakland,MI,48335,US,US/Eastern,KVLL,2019-08-26 08:55:00,70.0,70.0,69.0,29.29,10.0,SE,8.0,0.0,Fair,False,False,False,False,False,False,False,False,False,False,False,False,False,Day,Day,Day,Day
C-2139221,2,2021-10-27 10:54:30,2021-10-27 11:14:30,30.566404,-92.073222,30.554835,-92.074448,0.802662927184,Slow traffic on LA-182 from US-167 (LA-182) to E Martin Luther King Jr Dr (N Main St/LA-182) due to roadwork.,8764.0,Highway 182,R,Opelousas,St. Landry,LA,70570-5603,US,US/Central,KOPL,2021-10-27 10:55:00,77.0,77.0,87.0,29.6,10.0,SE,15.0,0.0,Cloudy,False,False,False,False,False,False,False,False,False,False,False,False,False,Day,Day,Day,Day
C-2139223,2,2021-10-31 02:52:00,2021-11-01 01:23:44,29.60725,-82.027565,29.60761500000001,-82.026223,0.0844691199301,Roadwork on Gordon Chapel Rd (FL-20) from FL-21/CR-20A/F T McMeekin Hwy (FL-20) to FL-20.,1997.0,State Road 20,R,Hawthorne,Putnam,FL,32640-5412,US,US/Eastern,KGNV,2021-10-31 02:53:00,51.0,51.0,96.0,29.72,10.0,NW,5.0,0.0,Fair,False,False,False,False,False,False,False,False,False,False,False,False,False,Night,Night,Night,Night
C-2139224,2,2021-07-22 08:00:00,2021-12-11 23:31:01,40.755887,-74.00224200000002,40.758037,-74.004015,0.175151591019,Slow traffic on NY-9A from Dyer Ave to W 40 St exit [6] due to roadwork.,587.0,W 34th St,R,New York,New York,NY,10001-1303,US,US/Eastern,KNYC,2021-12-11 15:51:00,64.0,,78.0,29.54,10.0,,,0.0,Cloudy,True,False,True,False,False,False,False,False,False,False,False,True,False,Day,Day,Day,Day
C-2139225,4,2018-07-13 10:30:41,2018-07-13 15:30:22,34.207840000000004,-118.84941,34.208667,-118.849128,0.0593688083904999,At Avenida De Los Arboles - Exit ramp closed. Construction work.,,CA-23 N,R,Thousand Oaks,Ventura,CA,91362,US,US/Pacific,KCMA,2018-07-13 10:55:00,75.0,,64.0,30.05,10.0,West,8.1,,Clear,False,False,False,False,True,False,False,False,False,False,False,False,False,Day,Day,Day,Day
C-2139226,2,2021-11-10 08:31:00,2021-11-10 08:45:00,34.80542,-92.365893,34.800511,-92.37496,0.616163309468,Slow traffic on I-430 S from AR-100/Crystal Hill Rd/Exit 12 (I-430) to AR-10/Cantrell Rd/Exit 9 (I-430) due to roadwork.,,I-430 S,R,North Little Rock,Pulaski,AR,72118,US,US/Central,KLZK,2021-11-10 08:56:00,56.0,56.0,86.0,29.74,10.0,CALM,0.0,0.0,Fair,False,False,False,False,False,False,False,False,False,False,False,False,False,Day,Day,Day,Day
C-2139227,2,2017-06-21 08:00:22,2017-06-21 15:00:00,39.802788,-75.348541,,,0.0,Right lane closed due to construction work on US-322 Westbound at US-130.,,US-322 E,R,Bridgeport,Gloucester,NJ,08014,US,US/Eastern,KPHL,2017-06-21 07:54:00,73.9,,82.0,29.96,10.0,SW,9.2,,Scattered Clouds,False,False,False,False,True,False,False,False,False,False,False,False,False,Day,Day,Day,Day
C-2139228,2,2020-09-23 14:08:00,2020-09-24 00:45:00,37.380497,-77.346497,37.357446,-77.339099,1.64366443035,On I-295 in the County of Chesterfield from mile marker 17 to mile marker 18.2 motorists can expect potential delays in this area from 09/23/20 at 8:47 AM until 09/23/20 at 4:00 PM due to bridge work. The north left shoulder and left lane are closed. The south left shoulder and left lane are closed.,,I-295 S,R,Henrico,Henrico,VA,23231,US,US/Eastern,KRIC,2020-09-23 13:57:00,78.0,78.0,32.0,29.84,10.0,CALM,0.0,0.0,Fair,False,False,False,False,False,False,False,False,False,False,False,False,False,Day,Day,Day,Day
C-2139229,2,2020-10-28 04:05:18,2020-11-03 07:59:00,43.628435,-73.607582,43.626431,-73.60800400000002,0.140062476499,Bridge work on NY 9N both directions over Northwest Bay Brook (Bolton) Not currently scheduled,7004.0,Lake Shore Dr,R,Bolton Landing,Warren,NY,12814,US,US/Eastern,KGFL,2020-10-28 03:53:00,36.0,36.0,93.0,29.76,6.0,CALM,0.0,0.01,Wintry Mix,False,False,False,False,False,False,False,False,False,False,False,False,False,Night,Night,Night,Night
C-2139230,2,2019-07-16 07:03:59,2019-07-22 07:01:05,38.33216,-75.08986,38.33398,-75.09684,0.3986556585279999,At Harry W Kelly Memorial Bridge - Construction work. Lane blocked.,,Ocean Gtwy,R,Ocean City,Worcester,MD,21842,US,US/Eastern,KOXB,2019-07-16 06:53:00,73.0,73.0,90.0,30.09,10.0,CALM,0.0,0.0,Fair,False,False,False,False,False,False,False,False,False,False,False,False,False,Day,Day,Day,Day
C-2139231,2,2021-10-06 07:46:32,2021-10-06 08:22:20,29.887082,-96.424124,29.877937,-96.384787,2.43981514815,Slow traffic on FM-1094 from New Bremen Rd to Hinkel Rd due to roadwork.,19823.0,FM 1094,R,New Ulm,Austin,TX,78950-4945,US,US/Central,K11R,2021-10-06 07:55:00,60.0,60.0,92.0,29.75,10.0,CALM,0.0,0.0,Fair,False,False,False,False,False,False,False,False,False,False,False,False,False,Day,Day,Day,Day
C-2139232,2,2021-09-08 15:36:00,2021-09-08 17:41:33,41.92978,-87.845177,41.929126,-87.84591,0.0588349571782,Stationary traffic from Indian Boundary Rd to Richard St due to roadwork.,,Grand Ave,R,River Grove,Cook,IL,60171,US,US/Central,KORD,2021-09-08 15:51:00,76.0,76.0,40.0,29.08,10.0,NW,18.0,0.0,Mostly Cloudy,False,False,False,False,False,False,False,False,True,False,False,False,False,Day,Day,Day,Day
C-2139233,2,2021-04-30 11:15:35,2021-05-07 23:59:00,40.826429,-74.131332,40.82085900000001,-74.120532,0.683350483788,NJ DOT - STMC: construction on NJ 3 eastbound Park Ave (Rutherford) to West of NJ 17 (Rutherford) Not currently Scheduled,,NJ-3 E,R,Clifton,Passaic,NJ,07014,US,US/Eastern,KTEB,2021-04-30 10:51:00,65.0,65.0,40.0,29.46,10.0,WNW,21.0,0.0,Fair / Windy,False,False,False,False,True,False,False,False,False,False,False,False,False,Day,Day,Day,Day
C-2139234,2,2021-07-03 09:37:30,2021-07-03 09:59:30,40.765146,-81.47453399999998,40.773286,-81.456254,1.1096408149,Slow traffic on US-30 E - US-62 E from OH-627/Richville Dr (US-30/US-62) to Whipple Ave (US-30/US-62) due to roadwork.,,US-30 E,R,Canton,Stark,OH,44706,US,US/Eastern,KCAK,2021-07-03 09:51:00,68.0,68.0,63.0,28.67,10.0,NW,10.0,0.0,Fair,False,False,False,False,False,False,False,False,False,False,False,False,False,Day,Day,Day,Day
C-2139235,2,2020-11-12 18:06:20,2020-11-12 20:48:10,42.978633,-77.226923,42.978923,-77.234143,0.365514684975,Road maintenance operations left lane closed on I-90 - NYS Thruway westbound from Before Exit 43 (I-90) - Manchester (Rte 21) to After Exit 43 (I-90) - Manchester (Rte 21) until 11:30 AM 11/12/2020 [CARS CAD-203170114],,I-90 W,R,Shortsville,Ontario,NY,14548,US,US/Eastern,KPEO,2020-11-12 17:53:00,38.0,38.0,79.0,29.06,10.0,CALM,0.0,0.0,Fair,False,False,False,False,True,False,False,False,False,False,False,False,False,Night,Night,Night,Day
C-2139236,2,2021-09-14 07:18:30,2021-09-14 09:33:19,34.009224,-118.076628,34.011025,-118.080667,0.262675559912,Slow traffic on CA-19 from Durfee Ave to Las Posas St due to roadwork.,9289.0,Beverly Blvd,R,Pico Rivera,Los Angeles,CA,90660,US,US/Pacific,KEMT,2021-09-14 06:53:00,63.0,63.0,84.0,29.81,6.0,VAR,3.0,0.0,Haze,False,False,False,False,False,False,False,False,True,False,False,True,False,Day,Day,Day,Day
C-2139237,3,2019-03-20 03:44:25,2019-03-24 03:44:05,38.94205,-94.78071,38.94192,-94.8196,2.08995513567,Between I-435 and Woodland Rd - Construction work.,,KS-10 W,R,Lenexa,Johnson,KS,66219,US,US/Central,KOJC,2019-03-20 03:53:00,42.1,37.1,100.0,30.12,4.0,NNW,8.1,,Overcast,False,False,False,False,True,False,False,False,False,False,False,False,False,Night,Night,Night,Night
C-2139238,2,2019-09-19 06:55:35,2019-10-01 23:59:00,41.92315900000001,-87.825829,41.92299000000001,-87.83547,0.4957663280659999,At IL-171/N 1st Ave/N Thatcher Ave - Construction work.,8001.0,W Fullerton Ave,L,Elmwood Park,Cook,IL,60707,US,US/Central,KORD,2019-09-19 06:51:00,63.0,63.0,75.0,29.35,10.0,S,5.0,0.0,Fair,False,False,False,False,False,False,False,False,False,False,False,True,False,Day,Day,Day,Day
C-2139239,2,2021-12-01 17:16:55,2021-12-01 19:18:36,40.75648,-73.876058,40.756806,-73.87299,0.162143661696,Slow traffic on NY-25A from 82nd St (Northern Blvd/NY-25A) to 108th St (Northern Blvd/NY-25A) due to roadwork.,3300.0,92nd St,R,Jackson Heights,Queens,NY,11372-1844,US,US/Eastern,KLGA,2021-12-01 16:51:00,48.0,45.0,37.0,30.11,10.0,WSW,7.0,0.0,Mostly Cloudy,True,False,False,False,False,False,False,False,True,False,False,True,False,Night,Night,Day,Day
C-2139240,2,2021-11-10 07:00:00,2021-11-16 07:04:39,30.712395,-93.044376,30.719017,-93.047995,0.50552149313,Bridge Construction on LA-1147 All Directions near Blanchard Rd Starting 11/10/2021 7:00 AM,4559.0,Highway 1147,R,Deridder,Beauregard,LA,70634-8169,US,US/Central,KDRI,2021-11-10 06:55:00,54.0,54.0,94.0,29.9,10.0,CALM,0.0,0.0,Cloudy,False,False,False,False,False,False,False,False,False,False,False,False,False,Day,Day,Day,Day
C-2139241,2,2021-05-03 07:23:00,2021-05-03 22:57:00,41.62918300000001,-84.757026,41.628734,-84.74737900000002,0.499181696128,Slow traffic on Ohio Tpke E - I-90 E - I-80 E from OH-49/Exit 2 (I-90/I-80) to CR-15/Exit 13 (I-90/I-80) due to roadwork.,,I-80 E,R,Edon,Williams,OH,43518,US,US/Eastern,KANQ,2021-05-03 07:15:00,55.0,55.0,94.0,28.61,4.0,SE,5.0,0.0,Cloudy,False,False,False,False,False,False,False,False,False,False,False,False,False,Day,Day,Day,Day
C-2139242,2,2021-08-31 08:26:30,2021-08-31 08:54:30,30.163886,-98.08337,30.168041,-98.086823,0.3535023004029999,Stationary traffic on RM-150 from FM-3237 (RM-150) to RM-12 (RM-150) due to roadwork.,23398.0,FM 150 W,L,Dripping Springs,Hays,TX,78620,US,US/Central,KATT,2021-08-31 08:51:00,82.0,82.0,65.0,29.12,10.0,CALM,0.0,0.0,Fair,False,False,False,False,False,False,False,False,False,False,False,True,False,Day,Day,Day,Day
C-2139243,2,2021-12-16 12:27:30,2021-12-16 14:54:18,28.803035,-81.889543,28.803173,-81.886954,0.157041305737,Slow traffic on FL-44 from S Lone Oak Dr (FL-44) to US-441 (FL-44) due to roadwork.,900.0,Flamingo Dr,R,Leesburg,Lake,FL,34748-6610,US,US/Eastern,KLEE,2021-12-16 12:35:00,81.0,81.0,65.0,30.12,10.0,SE,8.0,0.0,Partly Cloudy,False,False,False,False,False,False,False,False,False,False,False,False,False,Day,Day,Day,Day
C-2139244,2,2019-07-03 07:01:52,2019-07-07 07:01:46,47.660949,-122.16411,47.64649,-122.16445,0.999147071917,At NE 40th St - Construction work. Lane blocked.,6009.0,132nd Ave NE,L,Kirkland,King,WA,98033-8615,US,US/Pacific,KBFI,2019-07-03 06:53:00,58.0,58.0,90.0,30.05,4.0,S,3.0,0.0,Cloudy,False,False,False,False,False,False,False,False,False,True,False,False,False,Day,Day,Day,Day
C-2139245,2,2017-08-08 20:00:00,2017-08-09 05:00:00,39.264423,-76.66857900000002,,,2.11999988556,Entry ramp to I-95 Northbound from S Caton Ave Southbound closed due to bridge maintenance work. Detour in operation - The detour will direct motorists to Washington Boulevard (US 1 ALT) to I-695 West (Outer Loop) to northbound I-95..,,I-95 N,R,Halethorpe,Baltimore City,MD,21227,US,US/Eastern,KBWI,2017-08-08 19:54:00,73.9,,71.0,30.06,10.0,Calm,,,Partly Cloudy,False,False,False,False,False,False,False,False,False,False,False,False,False,Day,Day,Day,Day
C-2139246,2,2021-11-19 14:46:30,2021-11-19 16:57:02,33.495204,-112.010903,33.495213,-112.012989,0.120195284625,Slow traffic from N 33rd St to E Monterosa St due to roadwork.,3269.0,E Indian School Rd,R,Phoenix,Maricopa,AZ,85018-5011,US,US/Mountain,KPHX,2021-11-19 14:51:00,80.0,80.0,13.0,28.78,10.0,SE,5.0,0.0,Mostly Cloudy,True,False,True,False,False,False,False,False,False,False,False,True,False,Day,Day,Day,Day
C-2139247,2,2021-05-03 10:07:20,2021-05-03 16:15:00,41.724282,-72.670923,41.727252,-72.666393,0.310931818275,Road Work on RT15 Northbound between Exits 85 and 87 (0.8 miles) in effect today until 3:30 pm. The left lane is closed. Reported Monday May 3 at 10:07 am.,,CT-15 N,R,Wethersfield,Hartford,CT,06109,US,US/Eastern,KHFD,2021-05-03 09:53:00,63.0,63.0,60.0,29.87,10.0,CALM,0.0,0.0,Fair,False,False,False,False,True,False,False,False,False,False,False,False,False,Day,Day,Day,Day
C-2139248,4,2021-07-09 08:00:00,2021-08-31 16:00:00,42.704554,-84.493864,42.703814,-84.497794,0.205989466198,Closed road from S Harrison Rd to Collins Rd due to roadwork.,2299.0,S Harrison Rd,L,East Lansing,Ingham,MI,48823-5251,US,US/Eastern,KLAN,2021-07-09 07:53:00,60.0,60.0,86.0,29.1,10.0,N,7.0,0.0,Cloudy,False,False,False,False,False,False,False,False,False,False,False,False,False,Day,Day,Day,Day
C-2139249,2,2021-06-18 11:18:30,2021-06-18 17:55:30,39.725125,-105.019002,39.736401,-105.01399,0.8233588635160001,Slow traffic on US-85 N - US-87 N - I-25 N - US-6 E from W 6th Avenue Fwy E to Colfax Ave (US-40) exit [210A] due to roadwork.,,US-6 E,R,Denver,Denver,CO,80204,US,US/Mountain,KBJC,2021-06-18 11:45:00,84.0,84.0,18.0,24.49,10.0,N,6.0,0.0,Mostly Cloudy,False,False,False,False,False,False,False,False,False,False,False,False,False,Day,Day,Day,Day
C-2139250,2,2021-03-13 09:56:08,2021-12-19 02:20:30,39.432324,-77.489672,39.419044,-77.481992,1.00495153093,Construction on I-70 EB near US-40 Expect delays.,,I-70 E,R,Frederick,Frederick,MD,21702,US,US/Eastern,KFDK,2021-05-25 06:47:00,57.0,57.0,94.0,29.96,5.0,CALM,0.0,0.0,Cloudy,False,False,False,False,False,False,False,False,False,False,False,False,False,Day,Day,Day,Day
C-2139251,2,2019-04-16 21:00:00,2019-04-17 05:00:00,33.908684,-84.35701800000002,,,0.0,Speed restriction due to construction work on GA-400 Northbound before I-285.,,GA-400 N,R,Atlanta,Fulton,GA,30342,US,US/Eastern,KPDK,2019-04-16 20:53:00,62.0,62.0,56.0,29.08,10.0,SSE,5.0,0.0,Fair,False,False,False,False,True,False,False,False,False,False,False,False,False,Night,Night,Day,Day
C-2139252,2,2021-07-23 15:50:17,2021-11-05 12:03:30,48.594051,-109.373954,48.590973,-109.395828,1.02199385304,Stationary traffic on US-2 W - US-2 E from Old Savoy Rd/Watkins Ln (US-2) to 14th Ave (US-2) due to roadwork.,39731.0,US Highway 2,L,Chinook,Blaine,MT,59523,US,US/Mountain,KHVR,2021-07-23 15:53:00,89.0,89.0,7.0,27.29,10.0,W,21.0,0.0,Fair / Windy,False,False,False,False,False,False,False,False,False,False,False,False,False,Day,Day,Day,Day
C-2139253,4,2021-09-04 12:33:48,2021-09-04 23:59:00,33.656876000000004,-84.44354,33.656868,-84.442092,0.0832783350655,Closed road from Jackson St to Adams St due to roadwork.,3599.0,Jackson St,R,Atlanta,Fulton,GA,30337-2835,US,US/Eastern,KATL,2021-09-04 12:52:00,79.0,79.0,47.0,28.99,10.0,VAR,5.0,0.0,Fair,False,False,False,False,False,False,False,False,False,False,False,False,False,Day,Day,Day,Day
C-2139254,2,2020-12-08 13:40:00,2020-12-09 00:55:00,40.387763,-80.04343100000001,40.395837,-80.033041,0.781124045904,Slow traffic on US-19 Trk N - US-19 Trk S from Bower Hill Rd (US-19 Trk/Washington Rd) to Pioneer Ave (US-19 Trk/W Liberty Ave) due to roadwork.,300.0,Washington Rd,R,South Hills,Allegheny,PA,15216-1628,US,US/Eastern,KAGC,2020-12-08 13:53:00,32.0,22.0,64.0,28.66,10.0,W,14.0,0.0,Cloudy,False,False,True,False,False,False,False,False,False,True,False,True,False,Day,Day,Day,Day
C-2139255,2,2021-09-29 14:18:30,2021-09-29 14:41:00,32.951974,-96.838784,32.954384999999995,-96.839315,0.1694050863679999,Slow traffic from Beltway Dr to Runyon Rd due to roadwork.,,Beltway Dr,R,Addison,Dallas,TX,75001,US,US/Central,KADS,2021-09-29 13:47:00,88.0,88.0,38.0,29.16,13.0,SSE,10.0,0.0,Mostly Cloudy,False,False,False,False,False,False,False,False,False,False,False,True,False,Day,Day,Day,Day
C-2139256,2,2020-11-13 17:43:00,2020-11-13 18:28:37,45.593879,-118.47867,45.596031,-118.516251,1.82298294463,Slow traffic on I-84 W - Old Oregon Trail Hwy No 6 - US-30 W - Old Oregon Trl from Emigrant Spring State Park/Exit 234 (I-84) to Poverty Flat Rd/Exit 224 (I-84) due to roadwork.,,I-84 W,R,Pendleton,Umatilla,OR,97801,US,US/Pacific,KPDT,2020-11-13 17:53:00,43.0,33.0,68.0,28.08,10.0,WSW,28.0,0.0,Fair / Windy,False,False,False,False,False,False,False,False,False,False,False,False,False,Night,Night,Night,Day
C-2139257,2,2021-05-26 15:51:36,2021-05-26 16:26:39,27.774035,-99.446833,27.758332,-99.439403,1.1762289818,Slow traffic on US-83 N - US-83 S from Camino Colombia Toll Road (US-83) to I-35 (US-83) due to roadwork.,15899.0,US Highway 83 N,R,Laredo,Webb,TX,78045-3631,US,US/Central,KLRD,2021-05-26 15:56:00,98.0,98.0,40.0,29.41,10.0,ESE,15.0,0.0,Mostly Cloudy,False,False,False,False,False,False,False,False,False,False,False,False,False,Day,Day,Day,Day
C-2139258,2,2021-05-27 04:11:36,2021-05-28 07:00:00,35.29007,-113.941109,,,0.0,Left lane closed due to maintenance work on AZ-66 Andy Devine Ave Eastbound at Brechler Dr.,5752.0,E Highway 66,L,Kingman,Mohave,AZ,86401,US,US/Mountain,KIGM,2021-05-27 03:51:00,60.0,60.0,19.0,26.52,10.0,SE,6.0,0.0,Fair,False,False,False,False,False,False,False,False,False,False,False,False,False,Night,Night,Night,Day
C-2139259,2,2019-05-27 22:01:32,2019-05-31 22:01:23,33.773063,-118.326096,33.773785,-118.324042,0.128082183408,At Montecillo Dr - Construction work.,2476.0,Palos Verdes Dr N,L,Palos Verdes Peninsula,Los Angeles,CA,90274,US,US/Pacific,KTOA,2019-05-27 19:48:00,61.0,61.0,55.0,29.89,10.0,WNW,3.0,,Fair,False,False,False,False,False,False,False,False,False,False,False,False,False,Night,Night,Night,Night
C-2139261,2,2021-11-04 21:01:00,2021-11-05 05:59:00,37.303233,-120.500536,37.303462,-120.50043,0.0168608134427999,Alternating Lanes closure due to Highway Construction between Route 140/Route 59 ( V Street ) and Franklin Slough,,CA-99 N,R,Merced,Merced,CA,95340,US,US/Pacific,KMCE,2021-11-04 20:53:00,60.0,60.0,69.0,29.92,10.0,NNW,8.0,0.0,Fair,False,False,False,False,False,False,False,False,False,False,False,False,False,Night,Night,Night,Night
C-2139262,2,2016-07-21 12:13:22,2016-07-21 15:00:00,37.23977,-121.99645,37.24027,-121.99735,0.0603675455311,At Quito Rd - Roadwork. Right lane blocked.,,Saratoga Los Gatos Rd,R,Los Gatos,Santa Clara,CA,95030,US,US/Pacific,KSJC,2016-07-21 11:53:00,71.1,,51.0,30.1,10.0,NW,8.1,,Partly Cloudy,False,False,False,False,True,False,False,False,False,True,False,True,False,Day,Day,Day,Day
C-2139263,2,2019-11-07 10:31:18,2019-11-07 17:31:00,44.17497,-122.21028,44.17501,-122.20981,0.0234541712103,At NF-19 - Maintenance work.,55014.0,McKenzie Hwy,R,Blue River,Lane,OR,97413-9715,US,US/Pacific,KEUG,2019-11-07 10:54:00,40.0,40.0,93.0,29.79,0.75,CALM,0.0,0.0,Fog,False,False,False,False,False,False,False,False,False,False,False,False,False,Day,Day,Day,Day
C-2139264,2,2020-01-09 18:48:07,2020-01-14 05:14:00,40.81978,-80.34083000000003,40.7912,-80.27028,4.18488593166,Between PA-60-TOLL/Exit 10 and Glendale Rd - Construction work. Right lane blocked.,,I-76 W,R,Wampum,Beaver,PA,16157,US,US/Eastern,KBVI,2020-01-10 05:35:00,50.0,50.0,40.0,28.87,10.0,SSW,14.0,,Cloudy,False,False,False,False,False,False,False,False,False,False,False,False,False,Night,Night,Night,Day
C-2139265,4,2016-10-25 05:01:15,2016-10-25 11:01:15,35.419388,-97.530221,35.423395,-97.53025,0.276862147179,Closed between 45th St and 41st St - Closed due to roadwork.,4609.0,S Western Ave,R,Oklahoma City,Oklahoma,OK,73109-3831,US,US/Central,KOKC,2016-10-25 04:52:00,62.1,,93.0,30.12,10.0,South,6.9,,Partly Cloudy,False,False,False,False,False,False,False,False,False,False,False,False,False,Night,Night,Night,Night
C-2139266,3,2019-07-08 23:01:05,2019-07-12 23:00:40,25.78267,-80.22375,25.783783,-80.26801400000002,2.75495397945,Between 17th Ave and SR-953/42nd Ave/Le Jeune Rd - Construction work.,,Dolphin Expy W,R,Miami,Miami-Dade,FL,33125,US,US/Eastern,KMIA,2019-07-08 22:53:00,77.0,77.0,88.0,29.99,10.0,CALM,0.0,0.0,Cloudy,False,False,False,False,False,False,False,False,False,False,False,False,False,Night,Night,Night,Night
C-2139267,3,2017-01-20 10:00:00,2017-01-20 14:00:00,41.885166,-71.378738,,,20.1,Right hand shoulder closed due to maintenance work on I-95 Southbound between Exit 9 US-1 Providence Hwy and Exit 29 US-1.,,Central Ave,R,Pawtucket,Providence,RI,02860,US,US/Eastern,KSFZ,2017-01-20 09:56:00,36.0,31.1,79.0,30.09,10.0,NNE,5.8,,Overcast,False,False,False,False,False,False,False,False,False,False,False,False,False,Day,Day,Day,Day
C-2139268,2,2021-04-23 00:00:00,2021-08-11 23:30:00,33.619654,-84.39891,33.633873,-84.400944,0.989383904164,Lane closed on I-75 N - GA-401 N from GA-331/Forest Pkwy/Exit 237 (I-75) to I-285/Exit 238 (South) (I-75) due to roadwork.,,GA-401 N,R,Forest Park,Clayton,GA,30297,US,US/Eastern,KATL,2021-04-23 00:52:00,53.0,53.0,41.0,29.06,10.0,NNW,6.0,0.0,Partly Cloudy,False,False,False,False,False,False,False,False,False,False,False,False,False,Night,Night,Night,Night
C-2139269,2,2020-10-23 23:00:00,2020-10-24 14:00:00,40.881886,-73.91671,,,4.46999979019,One lane closed due to construction work on NY-9A Henry Hudson Pkwy Northbound between George Washington Bridge and Henry Hudson Bridge.,,Henry Hudson Pkwy N,R,Bronx,Bronx,NY,10463,US,US/Eastern,KLGA,2020-10-23 22:51:00,65.0,65.0,78.0,30.04,10.0,SSW,7.0,0.0,Cloudy,False,False,False,False,True,False,False,False,False,False,False,False,False,Night,Night,Night,Night
C-2139270,2,2021-03-24 06:12:00,2021-03-24 22:01:19,26.934408,-82.307906,26.938087,-82.30436999999998,0.334747183474,Stationary traffic on FL-776 from Oriole Blvd to Belgrade Ter due to roadwork.,3025.0,S McCall Rd,L,Englewood,Charlotte,FL,34224-8640,US,US/Eastern,KVNC,2021-03-24 05:53:00,59.0,59.0,100.0,29.93,9.0,CALM,0.0,0.0,Fair,False,False,False,False,False,False,False,False,False,False,False,False,False,Night,Night,Night,Day
C-2139271,2,2021-03-22 17:55:10,2021-04-03 23:59:00,40.649705,-74.222443,40.649172,-74.223063,0.049117843442,NJ DOT - STMC: construction on US 1&amp;9 northbound South of Bayway Circle (Elizabeth) to South of CR 624/North Ave (Elizabeth) Not currently Scheduled,741.0,Carlton St,R,Elizabeth,Union,NJ,07202-3537,US,US/Eastern,KLDJ,2021-03-22 17:55:00,53.0,53.0,33.0,30.3,10.0,SSE,6.0,0.0,Fair,False,False,False,False,False,False,False,False,False,False,False,True,False,Day,Day,Day,Day
C-2139272,2,2019-07-06 07:00:00,2019-07-06 19:00:00,42.355492,-71.056534,,,0.15000000596,Road closed due to construction work on Franklin St Westbound from Pearl St to Federal St.,71.0,Federal St,R,Boston,Suffolk,MA,02110-1901,US,US/Eastern,KBOS,2019-07-06 06:54:00,79.0,79.0,77.0,29.94,10.0,SW,8.0,0.0,Mostly Cloudy,True,False,True,False,False,False,False,False,True,False,False,True,False,Day,Day,Day,Day
C-2139273,2,2021-05-28 01:42:00,2021-05-28 03:15:30,41.718583,-87.806379,41.737948,-87.824621,1.63555853015,Slow traffic on Tri State Tollway N - I-294 N from IL-50/Cicero Ave (I-294) to 82nd/83rd St Toll Plaza (I-294) due to roadwork.,,I-294 N,R,Bridgeview,Cook,IL,60455,US,US/Central,KMDW,2021-05-28 01:53:00,48.0,41.0,83.0,29.25,10.0,NNE,20.0,0.0,Light Drizzle,False,False,False,False,False,False,False,False,False,False,False,False,False,Night,Night,Night,Night
C-2139274,2,2020-12-12 22:42:10,2020-12-12 23:15:58,34.7681,-97.249823,34.755453,-97.251198,0.8773031017990001,Slow traffic on US-77 S - US-77 N from OK-145/Davis St (Oklahoma St/US-77) to OK-19/W Grant Ave (N Ash St/US-77) due to roadwork.,34001.0,E County Road 1550,R,Pauls Valley,Garvin,OK,73075-8708,US,US/Central,KPVJ,2020-12-12 22:35:00,37.0,32.0,84.0,29.02,10.0,NE,6.0,0.0,Fair,False,False,False,False,False,False,False,False,False,False,False,False,False,Night,Night,Night,Night
C-2139275,2,2021-03-30 05:21:03,2021-04-12 09:37:54,42.329374,-75.963313,42.329351,-75.963948,0.032474581785,Roadwork on South St (NY-206) from NY-26/NY-79/N Hickory St (E Main St/NY-206) to NY-206.,2697.0,E Main St,L,Whitney Point,Broome,NY,13862-7713,US,US/Eastern,KBGM,2021-03-30 04:53:00,30.0,24.0,72.0,28.49,10.0,SSE,6.0,0.0,Fair,False,False,False,False,False,False,False,False,False,False,False,False,False,Night,Night,Night,Day
C-2139276,2,2019-07-17 20:00:00,2019-07-18 05:00:00,33.912085999999995,-84.379356,,,26.8199996948,Intermittent lane closures due to construction work on US-19 Roswell Rd both ways between GA-13 and I-285 Exit 25.,,GA-407 E,R,Atlanta,Fulton,GA,30342,US,US/Eastern,KPDK,2019-07-17 19:53:00,80.0,80.0,69.0,29.0,10.0,WSW,7.0,0.0,Fair,False,False,False,False,False,False,False,False,False,False,False,False,False,Day,Day,Day,Day
C-2139277,2,2020-07-27 14:00:00,2020-08-15 12:09:03,42.120464,-98.019846,42.118341,-98.017773,0.181118113329,Construction on US-275 SB near D ST Construction. Expect long delays.,898.0,E Highway 275,R,Neligh,Antelope,NE,68756-2055,US,US/Central,KBVN,2020-07-27 13:55:00,81.0,81.0,51.0,28.21,10.0,ESE,6.0,0.0,Fair,False,False,False,False,False,False,False,False,False,False,False,False,False,Day,Day,Day,Day
C-2139279,2,2020-11-20 12:29:30,2020-11-21 03:44:35,33.523968,-112.136627,33.523975,-112.133081,0.204250395477,Slow traffic from N 43rd Ave (W Bethany Home Rd) to I-17/N Black Canyon Hwy (W Bethany Home Rd) due to roadwork.,3605.0,W Bethany Home Rd,L,Phoenix,Maricopa,AZ,85019-1939,US,US/Mountain,KGEU,2020-11-20 12:58:00,81.0,81.0,20.0,28.9,10.0,NNW,3.0,0.0,Fair,False,False,False,False,False,False,False,False,False,False,False,False,False,Day,Day,Day,Day
C-2139280,2,2020-10-30 12:30:00,2020-10-30 22:23:27,40.234173,-79.581889,40.241531,-79.57674499999997,0.576256125497,Slow traffic on US-119 from Burton Ave (US-119) to Fairview St (US-119) due to roadwork.,306.0,S 3rd St,L,Youngwood,Westmoreland,PA,15697-1629,US,US/Eastern,KLBE,2020-10-30 12:53:00,45.0,39.0,100.0,28.8,6.0,WSW,12.0,0.0,Light Drizzle,False,False,False,False,False,False,False,False,False,False,False,False,False,Day,Day,Day,Day
C-2139281,3,2018-11-27 23:59:49,2018-11-28 04:59:00,33.783974,-118.091644,,,20.8099994659,One lane closed due to electricity work on I-405 Southbound between Exits 36 37 37A I-110 and Exits 23 24 24A CA-22.,,I-405 S,R,Seal Beach,Orange,CA,90740,US,US/Pacific,KSLI,2018-11-27 23:58:00,53.2,,93.0,29.99,10.0,NE,3.5,,Clear,False,False,False,False,False,False,False,False,False,False,False,False,False,Night,Night,Night,Night
C-2139282,2,2021-11-03 14:32:00,2021-11-03 16:33:07,33.465931,-112.115402,33.464763,-112.11717,0.129990306639,Stationary traffic from I-17 S to I-10 W due to roadwork.,2605.0,W McDowell Rd,L,Phoenix,Maricopa,AZ,85009-2904,US,US/Mountain,KPHX,2021-11-03 14:51:00,83.0,83.0,19.0,28.77,10.0,CALM,0.0,0.0,Fair,False,False,False,False,False,False,False,False,False,False,False,False,False,Day,Day,Day,Day
C-2139283,2,2020-12-03 14:09:30,2020-12-04 01:28:06,41.186809,-74.032984,41.186176,-74.037791,0.253750262557,Slow traffic on US-202 E - US-202 W from CR-33/Main St/Oakley Blvd (Ramapo Rd/US-202) to Camp Hill Rd (US-202) due to roadwork.,328.0,Route 202,R,Pomona,Rockland,NY,10970-3107,US,US/Eastern,KHPN,2020-12-03 13:56:00,46.0,41.0,39.0,29.65,10.0,WSW,10.0,0.0,Fair,False,False,False,False,False,False,False,False,False,False,False,False,False,Day,Day,Day,Day
C-2139284,2,2021-07-01 15:49:07,2021-07-01 20:24:45,40.848793,-73.932478,40.849834,-73.934969,0.148738186412,Stationary traffic from 181st St/Amsterdam Ave (W 181st St) to US-9/Broadway (W 181st St) due to roadwork.,325.0,Audubon Ave,R,New York,New York,NY,10033-4204,US,US/Eastern,KNYC,2021-07-01 15:51:00,79.0,79.0,79.0,29.72,10.0,CALM,0.0,0.0,Mostly Cloudy,True,False,True,False,False,False,False,False,True,False,False,True,False,Day,Day,Day,Day
C-2139285,2,2021-04-27 05:00:00,2021-10-26 01:26:30,39.243131,-104.87847,39.228843,-104.878101,0.987404266422,Slow traffic on US-85 S - I-25 S - US-87 S from Spruce Mountain Rd/Exit 173 (I-25) to Greenland Rd/Exit 167 (I-25) due to roadwork.,,I-25 S,R,Larkspur,Douglas,CO,80118,US,US/Mountain,KMNH,2021-09-06 14:15:00,81.0,81.0,13.0,23.29,10.0,NE,6.0,0.0,Fair,False,False,False,False,False,False,False,False,False,False,False,False,False,Night,Night,Night,Day
C-2139286,2,2021-09-24 18:08:30,2021-09-24 20:10:57,39.757241,-105.025163,39.75848,-105.026015,0.0968323464298999,Slow traffic on US-287 N from W 28th Ave to N Grove St due to roadwork.,2798.0,Federal Blvd,R,Denver,Denver,CO,80211-4116,US,US/Mountain,KBJC,2021-09-24 18:47:00,68.0,68.0,30.0,24.55,10.0,VAR,3.0,0.0,Partly Cloudy,False,False,True,False,False,False,False,False,True,True,False,False,False,Day,Day,Day,Day
C-2139287,2,2021-01-26 16:17:33,2021-01-27 01:08:34,27.82099,-82.72431999999998,27.82149,-82.72842,0.252908386575,Slow traffic on FL-693 from 63rd Way N to 55th Ave N due to roadwork.,6361.0,54th Ave N,R,Saint Petersburg,Pinellas,FL,33709-1703,US,US/Eastern,KPIE,2021-01-26 15:53:00,74.0,74.0,85.0,29.99,10.0,SW,10.0,0.0,Cloudy,False,False,True,False,False,False,False,False,True,False,False,False,False,Day,Day,Day,Day
C-2139288,3,2018-08-27 20:00:00,2018-09-02 05:00:00,47.48283,-122.27176,47.42201,-122.28545,4.25065966919,Between Interurban Ave/Exit 156 and 200th St/Military Rd/Exit 151 - Construction work.,,I-5 S,R,Seattle,King,WA,98168,US,US/Pacific,KBFI,2018-08-27 19:53:00,71.1,,45.0,30.06,10.0,NW,3.5,,Partly Cloudy,False,False,False,False,False,False,False,False,False,False,False,False,False,Night,Day,Day,Day
C-2139290,2,2021-10-05 20:27:00,2021-10-06 21:15:17,25.93504,-80.215998,25.93193,-80.213088,0.280834205809,Construction on FL-826 EB near I-95 Expect delays.,,Florida's Tpke S,R,Miami,Miami-Dade,FL,33169,US,US/Eastern,KHWO,2021-10-05 20:53:00,81.0,81.0,74.0,30.01,10.0,E,6.0,0.0,Fair,False,False,False,False,True,False,False,False,False,False,False,False,False,Night,Night,Night,Night
C-2139291,3,2019-06-02 20:29:30,2019-10-18 02:56:31,42.02902,-91.70247,42.03015,-91.70893,0.340612608559,At Edgewood Rd NE - Roadwork.,,IA-100,R,Cedar Rapids,Linn,IA,52411,US,US/Central,KCID,2019-06-02 20:52:00,67.0,67.0,44.0,29.06,10.0,CALM,0.0,0.0,Fair,False,False,True,False,False,False,False,False,False,False,False,False,False,Day,Day,Day,Day
C-2139292,2,2021-12-15 03:26:18,2021-12-16 04:11:20,45.598204,-96.844542,45.80432,-96.506325,21.6604196271,Construction on MN-27 EB near MN-28 Allow extra time.,4901.0,State Highway 27,R,Browns Valley,Traverse,MN,56219-2506,US,US/Central,K8D3,2021-12-15 03:56:00,39.0,32.0,76.0,28.29,,SSE,10.0,0.0,,False,False,False,False,False,False,False,False,False,False,False,False,False,Night,Night,Night,Night
C-2139293,2,2021-06-20 13:09:00,2021-06-20 13:46:00,39.165176,-104.853054,39.185116,-104.850204,1.38615405084,Slow traffic on US-85 N - US-87 N - I-25 N from County Line Rd/Exit 163 (I-25) to Greenland Rd/Exit 167 (I-25) due to roadwork.,,I-25 N,R,Larkspur,Douglas,CO,80118,US,US/Mountain,KMNH,2021-06-20 13:15:00,73.0,73.0,33.0,23.15,10.0,N,3.0,0.0,Fair,False,False,False,False,False,False,False,False,False,False,False,False,False,Day,Day,Day,Day
C-2139294,2,2021-03-03 04:05:00,2021-12-28 17:09:29,39.828068,-100.534264,39.828435,-100.571805,1.99214395884,Slow traffic on US-36 E - US-36 W from US-83/N Antelope Ave (W Frontier Pkwy/US-36) to KS-117 (US-36) due to roadwork.,1.0,Morgan Dr,R,Oberlin,Decatur,KS,67749-2263,US,US/Central,KMCK,2021-06-30 08:53:00,67.0,67.0,87.0,27.47,2.0,E,3.0,0.0,Fog,False,False,False,False,False,False,False,False,False,False,False,False,False,Night,Night,Night,Night
C-2139295,2,2020-09-22 13:13:30,2020-09-22 17:55:02,26.455224,-80.204676,26.453789,-80.203902,0.11010398192,Stationary traffic on FL-7 - FL-806 - US-441 S from Tivoli Isles Blvd to Half Mile Rd due to resurfacing work.,14907.0,US Highway 441,L,Delray Beach,Palm Beach,FL,33446,US,US/Eastern,KBCT,2020-09-22 12:53:00,86.0,86.0,57.0,30.0,9.0,ENE,17.0,0.0,Partly Cloudy,False,False,False,False,False,False,False,False,False,False,False,False,False,Day,Day,Day,Day
C-2139296,2,2017-04-12 20:04:12,2017-04-12 23:59:00,40.19763,-74.66786,40.19986,-74.65951,0.466825243197,At Hamilton Square Rd/Exit 3 - Construction work.,,I-195 E,R,Trenton,Mercer,NJ,08691,US,US/Eastern,KTTN,2017-04-12 19:53:00,70.0,,28.0,30.16,10.0,West,8.1,,Clear,False,False,False,False,False,False,False,False,False,False,False,False,False,Night,Night,Day,Day
C-2139297,2,2021-07-30 20:08:19,2021-07-30 21:00:04,40.622646,-74.13849599999998,40.624238,-74.138269,0.110639024726,Stationary traffic from College Ave to Forest Ave due to roadwork.,54.0,Marianne St,R,Staten Island,Richmond,NY,10302-2507,US,US/Eastern,KEWR,2021-07-30 19:51:00,78.0,78.0,36.0,29.86,10.0,NW,15.0,0.0,Fair,False,False,True,False,False,False,False,False,True,True,False,False,False,Day,Day,Day,Day
C-2139298,2,2020-11-24 14:02:30,2020-11-25 02:43:20,33.583207,-112.202883,33.581641999999995,-112.201714,0.127358379208,Slow traffic from W Christy Dr to N 66th Ave due to roadwork.,10730.0,N 67th Ave,L,Peoria,Maricopa,AZ,85345,US,US/Mountain,KGEU,2020-11-24 13:58:00,71.0,71.0,16.0,28.8,10.0,E,7.0,0.0,Fair,False,False,False,False,False,False,False,False,True,True,False,False,False,Day,Day,Day,Day
C-2139299,2,2020-02-27 22:00:00,2020-02-28 05:00:00,41.35704000000001,-74.6936,41.35704000000001,-74.6936,0.0,At US-6/CR-15/Exit 1 - Roadwork. Right lane blocked.,,I-84 E,R,Port Jervis,Orange,NY,12771,US,US/Eastern,KFWN,2020-02-27 21:53:00,29.0,19.0,47.0,29.32,9.0,WSW,13.0,0.0,Partly Cloudy,False,False,False,False,False,False,False,False,False,False,False,False,False,Night,Night,Night,Night
C-2139300,2,2018-02-02 11:16:50,2018-02-02 13:00:00,37.81967,-121.99339,37.81967,-121.99339,0.0,At Diablo Rd - Entry ramp closed. Construction work.,,I-680 S,R,Danville,Contra Costa,CA,94526,US,US/Pacific,KCCR,2018-02-02 10:53:00,66.9,,47.0,30.18,10.0,NE,8.1,,Clear,False,False,False,False,False,False,False,False,False,False,False,False,False,Day,Day,Day,Day
C-2139301,2,2021-09-29 16:25:33,2021-09-29 18:59:22,26.092699,-80.138215,26.093791,-80.13651800000002,0.129541674383,Stationary traffic on US-1 N - FL-A1A - FL-84 - FL-5 from W State Road 84 / S Andrews Ave to SE 23rd St due to roadwork.,418.0,SE 24th St,R,Fort Lauderdale,Broward,FL,33316,US,US/Eastern,KFLL,2021-09-29 16:53:00,84.0,84.0,69.0,29.92,10.0,E,16.0,0.0,Fair,False,False,False,False,False,False,False,False,False,False,False,False,False,Day,Day,Day,Day
C-2139302,2,2021-12-21 17:02:10,2021-12-21 19:04:07,26.271973,-80.28231099999998,26.272866,-80.283247,0.084675153399,Slow traffic on FL-834 from NW 30th St to NW 118th Ave due to roadwork.,3337.0,Coral Ridge Dr,L,Coral Springs,Broward,FL,33065,US,US/Eastern,KFXE,2021-12-21 16:53:00,75.0,75.0,76.0,29.74,10.0,SW,15.0,0.0,Cloudy,False,False,False,False,False,False,False,False,False,False,False,False,False,Day,Day,Day,Day
C-2139303,2,2019-07-17 08:25:57,2019-07-21 08:26:22,39.778364,-76.670827,39.72102,-76.65485,4.05197829855,Between PA-216/Exit 8 and Pennsylvania/MD State Line - Roadwork. Open.,,I-83 S,R,New Freedom,York,PA,17349,US,US/Eastern,KTHV,2019-07-17 08:53:00,79.0,79.0,79.0,29.49,9.0,CALM,0.0,0.0,Fair,False,False,False,False,True,False,False,False,False,False,False,False,False,Day,Day,Day,Day
C-2139304,2,2021-12-01 13:11:30,2021-12-01 15:12:59,39.775219,-105.081366,39.777334,-105.081366,0.146132582347,Stationary traffic on CO-121 from W 38th Ave (Wadsworth Blvd/CO-121) to I-70 (Wadsworth Blvd/CO-121) due to roadwork.,4304.0,Wadsworth Blvd,R,Wheat Ridge,Jefferson,CO,80033-4622,US,US/Mountain,KBJC,2021-12-01 12:52:00,72.0,72.0,16.0,24.47,10.0,WNW,15.0,0.0,Partly Cloudy,False,False,False,False,False,False,False,False,True,False,False,False,False,Day,Day,Day,Day
C-2139305,2,2021-02-16 13:51:16,2021-02-16 19:08:42,32.280668,-96.088529,32.226477,-96.03433,4.90397063736,Roadwork on Forgotten Ln (TX-198) from FM-1214 (TX-198) to FM-90 - TX-198.,10931.0,State Highway 198,L,Mabank,Henderson,TX,75156-6205,US,US/Central,KF44,2021-02-16 13:55:00,19.0,19.0,54.0,29.71,10.0,CALM,0.0,0.0,Partly Cloudy,False,False,False,False,False,False,False,False,False,False,False,False,False,Day,Day,Day,Day
C-2139306,2,2021-12-15 14:40:21,2021-12-20 17:40:25,40.668377,-73.781538,40.666995,-73.780262,0.116574641759,Slow traffic from I-678/Van Wyck Expy (Rockaway Blvd) to NY-27/Conduit Ave (Rockaway Blvd) due to roadwork.,15384.0,Rockaway Blvd,R,Jamaica,Queens,NY,11434-3636,US,US/Eastern,KJFK,2021-12-15 14:51:00,52.0,52.0,63.0,30.49,10.0,SE,10.0,0.0,Cloudy,False,False,True,False,False,False,False,False,False,False,False,True,False,Day,Day,Day,Day
C-2139307,2,2016-08-31 21:01:57,2016-09-01 03:01:57,27.717440000000003,-82.38355,27.685283,-82.421806,3.22698854069,Between SR-674/Exit 240 and Hillsborough County Rest Area - Construction work.,,I-75 S,R,Ruskin,Hillsborough,FL,33570,US,US/Eastern,KMCF,2016-08-31 20:58:00,75.6,,100.0,29.93,6.0,SSE,4.6,0.23,Rain,False,False,False,False,False,False,False,False,False,False,False,False,False,Night,Night,Night,Day
C-2139308,2,2021-10-29 13:40:30,2021-10-29 14:00:30,41.236245,-85.85664399999997,41.237095,-85.85283199999998,0.20658683135,Slow traffic from Winona Ave (S Buffalo St/IN-15) to S Detroit St/E Market St (IN-15) due to roadwork.,282.0,S Buffalo St,L,Warsaw,Kosciusko,IN,46580-4301,US,US/Eastern,KASW,2021-10-29 13:35:00,54.0,54.0,94.0,28.61,2.0,N,6.0,0.0,Drizzle,False,False,True,False,False,False,True,False,False,False,False,True,False,Day,Day,Day,Day
C-2139309,2,2020-05-31 21:09:20,2020-06-04 21:11:47,39.9755,-76.69513,39.98974000000001,-76.73385999999998,2.27428560363,Between PA-124/Exit 18 and PA-181/Exit 22 - Roadwork. Lane blocked.,,I-83 S,R,York,York,PA,17402,US,US/Eastern,KTHV,2020-05-31 20:53:00,59.0,59.0,46.0,29.62,10.0,W,3.0,0.0,Fair,False,False,False,False,False,False,False,False,False,False,False,False,False,Night,Night,Day,Day
C-2139310,2,2021-06-28 17:09:23,2021-06-28 17:32:19,40.430115,-79.999122,40.431017,-80.001616,0.145220816889,Slow traffic on PA-837 from S 10th St (E Carson St/PA-837) to Smithfield St Bridge (Carson St/PA-837) due to roadwork.,138.0,E Carson St,R,Pittsburgh,Allegheny,PA,15219-1104,US,US/Eastern,KAGC,2021-06-28 16:53:00,90.0,90.0,45.0,28.86,10.0,S,10.0,0.0,Fair,False,False,True,False,False,False,False,False,False,False,False,True,False,Day,Day,Day,Day
C-2139311,2,2021-04-15 09:29:30,2021-12-31 11:49:00,33.437694,-112.169218,33.436775,-112.168502,0.0757372629613999,Stationary traffic from W Hadley St to S 49th Ave due to roadwork.,,S 51st Ave,R,Phoenix,Maricopa,AZ,85043,US,US/Mountain,KGEU,2021-10-05 13:41:00,82.0,82.0,51.0,28.75,10.0,N,14.0,0.0,Mostly Cloudy,False,False,False,False,False,False,False,False,False,False,False,False,False,Day,Day,Day,Day
C-2139312,2,2020-12-18 15:22:00,2020-12-18 18:10:00,33.478997,-112.073712,33.480262,-112.07367,0.087436683768,Stationary traffic from McDowell Rd (N Central Ave) to Thomas Rd (N Central Ave) due to roadwork.,2801.0,N Central Ave,R,Phoenix,Maricopa,AZ,85004-1020,US,US/Mountain,KPHX,2020-12-18 15:51:00,64.0,64.0,26.0,28.88,10.0,WSW,6.0,0.0,Fair,True,False,True,False,False,False,True,False,False,True,False,True,False,Day,Day,Day,Day
C-2139313,2,2021-11-04 15:06:02,2021-12-18 15:10:26,27.893373,-82.787025,27.894562,-82.786007,0.103021589888,Slow traffic on FL-688 - US-19 Alt N - FL-595 from Lark Dr to Honeyvine Mobile Home Park due to roadwork.,13257.0,Seminole Blvd,L,Largo,Pinellas,FL,33773,US,US/Eastern,KPIE,2021-11-04 14:53:00,76.0,76.0,74.0,30.0,10.0,NNE,5.0,0.0,Partly Cloudy,False,False,False,False,False,False,False,False,True,False,False,False,False,Day,Day,Day,Day
C-2139314,2,2018-12-06 07:42:59,2018-12-11 07:59:50,40.577157,-75.675027,40.57506,-75.652295,1.20172801715,At PA-100/Exit 49 - Roadwork. Lane blocked.,,I-78 W,R,Fogelsville,Lehigh,PA,18051,US,US/Eastern,KXLL,2018-12-07 07:15:00,32.0,27.5,64.0,30.34,10.0,WNW,4.6,,Clear,False,False,False,False,False,False,False,False,False,False,False,False,False,Day,Day,Day,Day
C-2139315,4,2020-02-02 08:15:00,2020-10-14 08:08:07,36.145789,-86.804866,36.147444,-86.806122,0.134114105825,Closed road from Vanderbilt Pl to West End Ave / 24th Ave N due to roadwork.,2300.0,Vanderbilt Pl,R,Nashville,Davidson,TN,37212,US,US/Central,KBNA,2020-02-02 07:53:00,44.0,41.0,60.0,29.32,10.0,SSW,6.0,0.0,Fair,False,False,True,False,False,False,False,False,False,False,False,False,False,Day,Day,Day,Day
C-2139316,2,2021-10-20 16:24:47,2021-10-20 18:26:49,26.165425,-80.15450799999998,26.16625,-80.155085,0.0673018927417,Slow traffic on FL-816 - FL-845 from NW 30th Ct to I-95 N due to roadwork.,,NW 9th Ave,R,Fort Lauderdale,Broward,FL,33311,US,US/Eastern,KFXE,2021-10-20 16:53:00,83.0,83.0,51.0,30.1,10.0,ENE,15.0,0.0,Fair,True,False,True,False,False,False,False,False,True,False,False,True,False,Day,Day,Day,Day
C-2139317,2,2021-08-26 00:00:01,2021-08-27 00:00:01,40.188292,-104.819415,40.188828,-104.819555,0.0377641013006,Bridge and guardrail work intersection construction near WCR 20,12998.0,US Highway 85,R,Fort Lupton,Weld,CO,80621,US,US/Mountain,KEIK,2021-08-26 00:15:00,65.0,65.0,72.0,24.98,10.0,NNW,3.0,0.0,Fair,False,False,True,False,False,False,True,False,False,False,False,False,False,Night,Night,Night,Night
C-2139318,2,2018-09-25 08:06:38,2018-09-25 16:06:00,44.138343,-122.613006,44.142731,-122.59575900000002,0.907324199548,At Goodpasture Rd - Maintenance work.,,McKenzie Hwy,R,Walterville,Lane,OR,97489,US,US/Pacific,KEUG,2018-09-25 07:54:00,44.1,,85.0,30.17,10.0,Calm,,,Clear,False,False,False,False,False,False,False,False,False,False,False,False,False,Day,Day,Day,Day
C-2139319,2,2020-06-02 11:20:59,2020-06-02 16:00:00,41.233234,-73.069374,,,0.0,Right lane closed due to construction on I-95 Governor John Davis Lodge Tpke Northbound at Exit 38 Milford Pkwy.,,I-95 S,R,Milford,New Haven,CT,06461,US,US/Eastern,KBDR,2020-06-02 10:52:00,64.0,64.0,58.0,30.0,10.0,SW,14.0,0.0,Fair,False,False,False,False,True,False,False,False,False,False,False,False,False,Day,Day,Day,Day
C-2139320,2,2017-05-24 11:01:17,2017-05-24 16:30:00,39.215119,-122.01492,39.16756,-122.1479,7.842700308160001,Between Jay St and I-5 - Maintenance work. Single alternate lane traffic.,233.0,10th St,R,Colusa,Colusa,CA,95932,US,US/Pacific,KMYV,2017-05-24 10:53:00,77.0,,42.0,29.76,10.0,South,11.5,,Clear,False,False,False,False,False,False,False,False,False,False,False,False,False,Day,Day,Day,Day
C-2139321,2,2021-01-05 23:55:17,2021-01-06 00:25:51,42.37392,-71.067625,42.372355,-71.065077,0.169139439569,Stationary traffic on MA-99 from Rutherford Ave (MA-99) to US-1/New Rutherford Ave (MA-99) due to roadwork.,,New Rutherford Ave,R,Charlestown,Suffolk,MA,02129,US,US/Eastern,KBOS,2021-01-05 23:54:00,31.0,22.0,85.0,29.87,10.0,NNW,10.0,0.0,Cloudy,False,False,True,False,False,False,False,False,False,False,False,True,False,Night,Night,Night,Night
C-2139322,2,2020-09-01 11:06:48,2020-09-04 07:58:51,39.523127,-104.862065,39.518272,-104.844532,0.992862983461,Roadwork from I-25 (Ridgegate Pkwy) to Meridian Village Pkwy/W Stepping Stone Cir (Ridgegate Pkwy).,,Ridgegate Pkwy,R,Parker,Douglas,CO,80134,US,US/Mountain,KAPA,2020-09-01 10:53:00,65.0,65.0,47.0,24.17,10.0,SE,5.0,0.0,Fair,False,False,False,False,False,False,False,False,False,False,False,False,False,Day,Day,Day,Day
