ID,Severity,Start_Time,End_Time,Start_Lat,Start_Lng,End_Lat,End_Lng,Distance(mi),Description,Number,Street,Side,City,County,State,Zipcode,Country,Timezone,Airport_Code,Weather_Timestamp,Temperature(F),Wind_Chill(F),Humidity(%),Pressure(in),Visibility(mi),Wind_Direction,Wind_Speed(mph),Precipitation(in),Weather_Condition,Amenity,Bump,Crossing,Give_Way,Junction,No_Exit,Railway,Roundabout,Station,Stop,Traffic_Calming,Traffic_Signal,Turning_Loop,Sunrise_Sunset,Civil_Twilight,Nautical_Twilight,Astronomical_Twilight
C-3176083,2,2021-12-23 22:14:00,2021-12-24 00:15:10,40.68309,-73.979118,40.68483,-73.979444,0.121429860214,Slow traffic from Dean St to 3rd Ave due to roadwork.,43.0,4th Ave,L,Brooklyn,Kings,NY,11217-1929,US,US/Eastern,KJRB,2021-12-23 21:51:00,34.0,34.0,48.0,30.07,10.0,E,3.0,0.0,Cloudy,True,False,True,False,False,False,False,False,True,False,False,True,False,Night,Night,Night,Night
C-3176084,2,2021-11-12 16:43:26,2021-11-12 18:49:40,32.550854,-97.127867,32.549093,-97.128682,0.1306042013269999,Slow traffic on US-287 Bus S - US-287 Bus N - FM-157 - TX-496 from S Wisteria St to Comal Dr due to roadwork.,1169.0,Heritage Pkwy,R,Mansfield,Tarrant,TX,76063-2761,US,US/Central,KGKY,2021-11-12 16:53:00,67.0,67.0,21.0,29.54,10.0,NNW,13.0,0.0,Fair,False,False,False,False,False,False,False,False,False,False,False,False,False,Day,Day,Day,Day
C-3176085,2,2020-12-21 11:56:00,2020-12-21 22:50:00,42.669671,-83.016542,42.669783,-83.01071999999998,0.295873443752,Slow traffic from Van Dyke Ave (23 Mile Rd) to Schoenherr Rd (23 Mile Rd) due to roadwork.,23.0,Mile Rd,R,Utica,Macomb,MI,48317,US,US/Eastern,KVLL,2020-12-21 11:55:00,37.0,30.0,82.0,28.91,7.0,SSW,9.0,0.0,Cloudy,False,False,False,False,False,False,False,False,False,False,False,True,False,Day,Day,Day,Day
C-3176086,2,2020-08-26 16:01:00,2020-08-26 22:46:00,38.221758,-122.247831,38.222882,-122.25476,0.384046466519,Lane closure due to Utility Work between (Jamieson Canyon) Lynch Rd West and Junction Airport Rd/Route 29/Jamieson Canyon,2295.0,Jameson Canyon Rd,R,American Canyon,Napa,CA,94503,US,US/Pacific,KAPC,2020-08-26 15:54:00,70.0,70.0,61.0,29.76,10.0,SSW,18.0,0.0,Smoke,False,False,False,False,False,False,False,False,False,False,False,False,False,Day,Day,Day,Day
C-3176087,2,2021-10-09 16:24:30,2021-10-09 18:25:51,41.900029,-88.340049,41.902926,-88.339811,0.200537485367,Stationary traffic from CR-41/Kaneville Rd/Keslinger Rd (Randall Rd) to Prairie St (Randall Rd) due to roadwork.,900.0,S Randall Rd,L,Saint Charles,Kane,IL,60174-1522,US,US/Central,KDPA,2021-10-09 16:52:00,77.0,77.0,58.0,29.03,10.0,SSE,6.0,0.0,Fair,False,False,False,False,False,False,False,False,False,False,False,False,False,Day,Day,Day,Day
C-3176088,2,2021-12-02 09:00:30,2021-12-02 09:15:00,39.971421,-75.123465,39.965111,-75.13769,0.870332158278,Slow traffic on I-95 S from Allegheny Ave/Exit 25 (I-95) to I-676/US-30/Exit 22 (I-95) due to roadwork.,,I-95 S,R,Philadelphia,Philadelphia,PA,19125,US,US/Eastern,KPNE,2021-12-02 08:54:00,49.0,45.0,77.0,29.73,10.0,SW,9.0,0.0,Fair,False,False,True,False,False,False,True,False,False,False,False,False,False,Day,Day,Day,Day
C-3176089,2,2021-08-25 16:32:00,2021-08-25 18:36:00,42.334767,-83.03061600000002,42.333017,-83.0348,0.2455378468719999,Slow traffic from Mt Elliott Ave (Jefferson Ave) to Chrysler Dr (Jefferson Ave) due to roadwork.,1510.0,E Jefferson Ave,R,Detroit,Wayne,MI,48207-3114,US,US/Eastern,KDET,2021-08-25 16:53:00,88.0,88.0,61.0,29.38,10.0,S,12.0,0.0,Fair,False,False,True,False,False,False,False,False,True,False,False,False,False,Day,Day,Day,Day
C-3176090,2,2021-10-04 17:58:11,2021-10-04 19:01:44,40.742889,-73.882829,40.740602,-73.879316,0.242465558801,Slow traffic from I-278/Brooklyn Queens Expy (Broadway) to NY-25/Queens Blvd (Broadway) due to roadwork.,,Broadway,R,Elmhurst,Queens,NY,11373,US,US/Eastern,KLGA,2021-10-04 17:51:00,67.0,67.0,87.0,29.95,6.0,ENE,14.0,0.04,Light Rain,True,False,True,False,False,False,True,False,True,False,False,True,False,Day,Day,Day,Day
C-3176091,2,2019-01-08 10:45:18,2019-01-12 10:44:45,34.208871,-117.086949,34.204122,-117.100733,0.853251651371,At Soutar Dr - Roadwork.,32893.0,Hilltop Blvd,R,Running Springs,San Bernardino,CA,92382,US,US/Pacific,KSBD,2019-01-08 10:50:00,59.0,,48.0,30.14,7.0,Calm,,,Overcast,False,False,False,False,False,False,False,False,False,True,False,False,False,Day,Day,Day,Day
C-3176092,2,2017-08-15 09:00:00,2017-12-18 15:01:20,42.962272,-87.987648,42.96254,-87.979262,0.4244223922339999,Between 60th St/Exit 7 and WI-36/Loomis Rd/Exit 8 - Construction work.,,US-41 S,R,Milwaukee,Milwaukee,WI,53220,US,US/Central,KMKE,2017-08-15 08:52:00,73.0,,76.0,29.91,10.0,East,8.1,,Partly Cloudy,False,False,False,False,False,False,False,False,False,False,False,False,False,Day,Day,Day,Day
C-3176093,2,2019-06-19 12:39:11,2019-06-23 12:38:34,42.804845,-86.043885,42.80529,-86.0384,0.279739102542,At 104th Ave - Roadwork. Left lane blocked.,,I-196 Bus E,R,Zeeland,Ottawa,MI,49464,US,US/Eastern,KBIV,2019-06-19 12:53:00,74.0,74.0,59.0,29.06,10.0,NNE,7.0,0.0,Mostly Cloudy,False,False,False,False,False,False,False,False,False,True,False,True,False,Day,Day,Day,Day
C-3176094,2,2020-07-15 06:27:00,2020-07-15 14:45:00,35.167887,-81.443774,35.158916999999995,-81.477475,2.00194373252,Construction on I-85 SB near EXIT 106 Construction. Left lane closed.,,I-85 S,R,Blacksburg,Cherokee,SC,29702,US,US/Eastern,KEHO,2020-07-15 06:35:00,71.0,71.0,95.0,29.19,10.0,NE,5.0,0.0,Fair,False,False,False,False,False,False,False,False,False,False,False,False,False,Day,Day,Day,Day
C-3176095,4,2020-11-21 13:30:00,2020-11-21 20:01:00,34.271925,-118.471959,34.291005,-118.467709,1.34044507418,Full closure due to Pavement Work between Rinaldi St and San Diego Freeway Route 405,,I-405 N,R,Mission Hills,Los Angeles,CA,91345,US,US/Pacific,KWHP,2020-11-21 13:50:00,81.0,81.0,14.0,28.98,10.0,E,3.0,,Fair,False,False,False,False,False,False,False,False,False,False,False,False,False,Day,Day,Day,Day
C-3176096,2,2020-06-28 22:35:50,2020-06-29 11:00:00,38.99962,-76.99544,38.99962,-76.99544,0.0,At MD-787/Flower Ave - Roadwork. Right lane closed.,,Piney Branch Rd,R,Silver Spring,Montgomery,MD,20903,US,US/Eastern,KCGS,2020-06-28 22:35:00,74.0,74.0,80.0,29.71,10.0,CALM,0.0,0.0,Fair,False,False,True,False,False,False,False,False,False,False,False,True,False,Night,Night,Night,Day
C-3176097,2,2020-06-15 15:21:33,2020-07-01 00:59:00,38.99967,-77.077,38.98792,-77.07717,0.811899005334,Between Jones Bridge Rd and MD-410/East-West Hwy - Construction work.,,Connecticut Ave,R,Chevy Chase,Montgomery,MD,20815,US,US/Eastern,KCGS,2020-06-15 15:15:00,74.0,74.0,38.0,30.28,10.0,E,7.0,0.0,Partly Cloudy,False,False,True,False,False,False,False,False,False,False,False,True,False,Day,Day,Day,Day
C-3176098,2,2021-08-04 16:53:00,2021-08-04 17:18:30,37.763603,-83.336309,37.749393,-83.184079,8.37357296374,Slow traffic on Mountain Pkwy from KY-134 (Bert T Combs Mountain Pkwy) to KY-30/Exit 72 (Bert T Combs Mountain Pkwy) due to roadwork.,,Mountain Pkwy,R,Hazel Green,Wolfe,KY,41332,US,US/Eastern,KJKL,2021-08-04 16:53:00,74.0,74.0,71.0,28.61,10.0,CALM,0.0,0.0,Light Rain,False,False,False,False,True,False,False,False,False,False,False,False,False,Day,Day,Day,Day
C-3176099,4,2018-06-19 06:14:53,2018-06-23 16:00:00,39.164303,-82.736122,39.165189,-82.737941,0.115077987587,At CR-208/Limerick Rd/Sigler Rd - Roadwork.,2484.0,US Highway 35,L,Ray,Jackson,OH,45672-9619,US,US/Eastern,KUNI,2018-06-21 08:35:00,70.2,,100.0,29.85,0.8,Calm,,,Overcast,False,False,False,False,False,False,False,False,False,False,False,False,False,Day,Day,Day,Day
C-3176100,2,2020-10-27 03:01:00,2020-10-27 13:46:00,34.119039,-118.162454,34.119029,-118.158944,0.200775464989,Construction on I-110 SB near ORANGE GROVE AVE Construction. Expect long delays.,,Arroyo Seco Pkwy,R,South Pasadena,Los Angeles,CA,91030,US,US/Pacific,KCQT,2020-10-27 02:52:00,55.0,55.0,25.0,29.83,9.0,CALM,0.0,0.0,Fair,False,False,False,False,True,False,False,False,False,False,False,False,False,Night,Night,Night,Night
C-3176101,2,2021-11-22 17:31:43,2021-11-22 18:44:54,27.848494,-82.690438,27.842906,-82.686458,0.4562790747199999,Stationary traffic on US-19 S from CR-611/49th St (US-19) to FL-694/Gandy Blvd/Park Blvd (US-19) due to roadwork.,8386.0,US Highway 19 N,L,Pinellas Park,Pinellas,FL,33781-1709,US,US/Eastern,KPIE,2021-11-22 17:53:00,68.0,68.0,93.0,29.91,10.0,WNW,8.0,0.0,Fair,False,False,True,False,False,False,False,False,False,False,False,False,False,Day,Day,Day,Day
C-3176102,2,2020-10-02 12:22:00,2020-10-03 01:23:09,40.000738,-86.005658,39.998906,-86.004226,0.147536468922,Slow traffic on IN-37 from Herriman Blvd / Harmon Blvd to E 141st St due to construction work.,9245.0,E 146th St,L,Noblesville,Hamilton,IN,46060-4312,US,US/Eastern,KTYQ,2020-10-02 12:15:00,53.0,53.0,72.0,29.2,10.0,CALM,0.0,0.0,Mostly Cloudy,False,False,False,False,False,False,False,False,False,False,False,False,False,Day,Day,Day,Day
C-3176103,3,2020-05-12 08:55:45,2020-06-25 17:09:41,38.61684,-90.2425,38.61228,-90.21512,1.5113678576700005,Between Grand Blvd/Exit 288 and I-55/Exit 290 - Construction work.,,I-44 E,R,Saint Louis,St. Louis City,MO,63110,US,US/Central,KCPS,2020-05-12 08:53:00,51.0,51.0,74.0,29.83,10.0,WSW,5.0,0.0,Cloudy,False,False,False,False,True,False,False,False,False,False,False,False,False,Day,Day,Day,Day
C-3176104,2,2021-08-03 16:10:30,2021-08-03 16:45:00,37.079456,-88.63494,37.083597,-88.6397,0.388206148399,Stationary traffic on I-24 Bus Loop W - US-45 S - US-60 Bus W - US-60 W - US-45 N - US-60 E from US-62/US-45/Jackson St/S 28th St (US-60) to I-24 (US-60) due to roadwork.,664.0,Joe Clifton Dr,R,Paducah,McCracken,KY,42001-3775,US,US/Central,KPAH,2021-08-03 15:53:00,85.0,85.0,38.0,29.58,9.0,NE,8.0,0.0,Fair,False,False,False,False,False,False,False,False,False,False,False,False,False,Day,Day,Day,Day
C-3176105,1,2020-05-18 10:50:58,2020-05-18 15:00:00,38.91723,-76.97807,38.91721,-76.97256999999998,0.295674637212,At Bladensburg Rd NE - Roadwork. Two lanes closed.,,New York Ave NE,R,Washington,District of Columbia,DC,20002,US,US/Eastern,KDCA,2020-05-18 10:52:00,60.0,60.0,86.0,30.05,10.0,ENE,12.0,0.0,Cloudy,False,False,False,False,False,False,False,False,False,False,False,True,False,Day,Day,Day,Day
C-3176106,2,2021-05-25 09:28:00,2021-05-25 17:45:00,46.192735,-123.14878799999998,46.190005,-123.123668,1.21620707032,Construction on WA-4 EB near MP 50 Expect delays.,9100.0,Ocean Beach Hwy,R,Longview,Cowlitz,WA,98632-9729,US,US/Pacific,KKLS,2021-05-25 09:24:00,54.0,54.0,82.0,30.12,10.0,VAR,3.0,0.0,Cloudy,False,False,False,False,False,False,False,False,False,False,False,False,False,Day,Day,Day,Day
C-3176108,2,2018-09-06 10:09:00,2018-09-06 17:00:00,37.354027,-79.954758,,,0.109999999404,Right lane closed due to construction work on VA-115 Plantation Rd Southbound from Walrond Dr to Lila Dr.,7703.0,Plantation Rd,L,Roanoke,Roanoke County,VA,24019-3224,US,US/Eastern,KROA,2018-09-06 09:54:00,81.0,,67.0,30.23,10.0,SW,5.8,,Partly Cloudy,False,False,False,False,False,False,False,False,False,False,False,False,False,Day,Day,Day,Day
C-3176109,2,2020-10-13 12:56:00,2020-10-13 23:18:21,43.630185,-116.25101,43.630994,-116.251067,0.0559692149778,Stationary traffic on US-20 W - US-20 E - US-26 E - US-26 W from Stockton St to W 42nd St / E 42nd St due to roadwork.,4150.0,Stockton St,R,Garden City,Ada,ID,83714,US,US/Mountain,KBOI,2020-10-13 12:53:00,60.0,60.0,49.0,27.11,10.0,ESE,13.0,0.0,Mostly Cloudy,False,False,True,False,False,False,False,False,False,False,False,False,False,Day,Day,Day,Day
C-3176110,2,2021-04-14 09:00:00,2021-04-14 17:45:00,39.477616,-75.702911,39.47877800000001,-75.701881,0.0972796308098,Construction on CEDAR LANE RD near MARL PIT RD Drive with caution.,1626.0,Cedar Lane Rd,R,Middletown,New Castle,DE,19709-9315,US,US/Eastern,KILG,2021-04-14 08:51:00,53.0,53.0,93.0,30.0,4.0,S,5.0,0.0,Fair,False,False,False,False,False,False,False,False,False,False,False,False,False,Day,Day,Day,Day
C-3176111,3,2020-05-24 08:02:41,2020-05-24 10:02:23,41.81477,-71.50969,41.83599,-71.51519,1.49325898174,Between RI-14/Plainfield Pike/Exit 4 and US-6/Hartford Ave/Exit 6 - Roadwork.,,I-295 N,R,Johnston,Providence,RI,02919,US,US/Eastern,KSFZ,2020-05-24 07:56:00,50.0,50.0,71.0,29.82,10.0,NE,14.0,0.0,Partly Cloudy,False,False,False,False,False,False,False,False,False,False,False,False,False,Day,Day,Day,Day
C-3176112,2,2021-03-30 05:32:30,2021-03-30 19:29:39,26.18094,-80.156743,26.182362,-80.15490799999998,0.150328588412,Slow traffic on FL-845 from NW 10th Ave to NW 47th Ct due to roadwork.,,NW 10th Ave,R,Fort Lauderdale,Broward,FL,33309,US,US/Eastern,KFXE,2021-03-30 05:53:00,75.0,75.0,82.0,30.1,10.0,E,7.0,0.0,Partly Cloudy,False,False,False,False,False,False,False,False,False,False,False,True,False,Night,Night,Night,Night
C-3176113,2,2019-07-01 00:00:01,2019-07-02 00:00:01,39.639423,-106.53821299999998,39.64016,-106.52968,0.456860338233,At Avon Rd/Exit 167 - Construction work.,,I-70 E,R,Avon,Eagle,CO,81620,US,US/Mountain,KEGE,2019-07-01 00:56:00,56.0,56.0,90.0,23.84,10.0,SE,3.0,0.0,Partly Cloudy,False,False,False,False,False,False,False,False,False,False,False,False,False,Night,Night,Night,Night
C-3176114,2,2020-10-09 00:55:36,2020-10-09 01:36:00,40.748613,-73.895301,40.74896500000001,-73.89178299999998,0.1857443075589999,Slow traffic from Broadway to 74th St due to resurfacing work.,7003.0,37th Ave,L,Jackson Heights,Queens,NY,11372-3922,US,US/Eastern,KLGA,2020-10-09 00:51:00,57.0,57.0,47.0,30.12,10.0,NW,8.0,0.0,Fair,True,False,False,False,False,False,False,False,True,False,False,True,False,Night,Night,Night,Night
C-3176115,2,2021-12-23 09:21:30,2021-12-23 09:43:30,29.532562,-95.806861,29.53333,-95.808202,0.0965126365323999,Slow traffic on TX-36 from Louise St to Callender St due to roadwork.,28050.0,Southwest Fwy,R,Rosenberg,Fort Bend,TX,77471-7101,US,US/Central,KSGR,2021-12-23 08:53:00,66.0,66.0,75.0,30.05,10.0,SSE,7.0,0.0,Fair,False,False,False,False,False,False,False,False,False,False,False,False,False,Day,Day,Day,Day
C-3176116,1,2020-03-30 23:46:32,2020-03-31 01:46:32,28.4527,-80.97414,28.4527,-80.97414,0.0,At SR-520/Exit 31 - Roadwork. Right lane closed.,,Martin Anderson Beachline Expy,R,Christmas,Orange,FL,32709,US,US/Eastern,KTIX,2020-03-30 20:47:00,81.0,81.0,74.0,29.98,7.0,SE,12.0,,Fair,False,False,False,False,True,False,False,False,False,False,False,False,False,Night,Night,Night,Night
C-3176117,3,2020-06-15 19:00:00,2020-06-16 06:00:00,35.970119,-83.25619499999998,,,33.6800003052,Intermittent lane closures due to resurfacing work on I-40 both ways between Exit 421 I-81 Exits 1A 1B and Exits 432A 432B US-25W.,,I-40 W,R,Newport,Cocke,TN,37821,US,US/Eastern,KTYS,2020-06-15 18:53:00,71.0,71.0,59.0,29.12,10.0,N,6.0,0.0,Partly Cloudy,False,False,False,False,False,False,False,False,False,False,False,False,False,Day,Day,Day,Day
C-3176118,2,2021-11-07 14:27:30,2021-11-07 16:39:17,35.163129,-101.886957,35.164275,-101.883906,0.1896543652989999,Stationary traffic from Prairie Ave to Paramount Blvd due to roadwork.,4306.0,SW 45th Ave,R,Amarillo,Randall,TX,79109-5404,US,US/Central,KAMA,2021-11-07 14:53:00,84.0,84.0,13.0,26.28,10.0,SSW,20.0,0.0,Fair,False,False,False,False,False,False,False,False,False,False,False,False,False,Day,Day,Day,Day
C-3176119,2,2019-08-14 08:34:14,2019-08-18 08:36:22,41.40928,-75.59593100000002,41.40041,-75.58587,0.8046450553899999,Between US-6 and PA-435/Exit 2 - Roadwork. Open.,,PA-435,R,Scranton,Lackawanna,PA,18512,US,US/Eastern,KAVP,2019-08-14 08:33:00,73.0,73.0,81.0,28.84,7.0,CALM,0.0,0.0,Mostly Cloudy,False,False,False,False,False,False,False,False,False,False,False,False,False,Day,Day,Day,Day
C-3176120,2,2020-11-16 20:05:31,2020-11-16 22:27:00,45.385672,-118.314858,45.399475,-118.334387,1.34439654983,Slow traffic on I-84 W - Old Oregon Trail Hwy No 6 - US-30 W - Old Oregon Trl from Spring Cr. Rd./Exit 248 (I-84) to Summit Rd/Exit 243 (I-84) due to roadwork.,,I-84 W,R,La Grande,Union,OR,97850,US,US/Pacific,KLGD,2020-11-16 19:56:00,52.0,52.0,63.0,27.15,10.0,SSE,25.0,0.0,Fair / Windy,False,False,False,False,False,False,False,False,False,False,False,False,False,Night,Night,Night,Night
C-3176121,2,2021-10-06 08:03:26,2021-10-06 10:22:01,32.869639,-96.665461,32.872132,-96.665467,0.172250246851,Slow traffic from I-635/Lyndon B Johnson Fwy (N Shiloh Rd) to TX-78/S Garland Ave (N Shiloh Rd) due to roadwork.,3926.0,S Shiloh Rd,L,Garland,Dallas,TX,75041-4727,US,US/Central,KHQZ,2021-10-06 07:50:00,55.0,55.0,94.0,29.59,10.0,CALM,0.0,0.0,Fair,False,False,False,False,False,False,False,False,False,False,False,False,False,Day,Day,Day,Day
C-3176122,2,2020-11-28 19:54:33,2020-11-28 20:31:16,41.262298,-89.354287,41.257348,-89.33514100000002,1.05160160832,Slow traffic on I-180 S - IL-26 S from I-180 (Princeton) (South) (IL-26) to I-180/IL-71 (IL-26) due to roadwork.,,I-180 S,R,Princeton,Bureau,IL,61356,US,US/Central,KVYS,2020-11-28 19:55:00,39.0,34.0,80.0,29.37,10.0,S,8.0,0.0,Fair,False,False,False,False,False,False,False,False,False,False,False,False,False,Night,Night,Night,Night
C-3176123,2,2021-08-22 14:42:30,2021-08-22 15:04:00,40.361123,-86.12732199999998,40.346556,-86.127275,1.00648688493,Slow traffic on US-31 S from W 550 N (CR-600/US-31) to CR-00/W Division Rd (US-31) due to roadwork.,4000.0,N US Highway 31,L,Sharpsville,Tipton,IN,46068,US,US/Central,KOKK,2021-08-22 14:56:00,89.0,89.0,57.0,29.09,10.0,WNW,7.0,0.0,Partly Cloudy,False,False,False,False,False,False,False,False,False,False,False,False,False,Day,Day,Day,Day
C-3176124,4,2021-09-05 13:49:00,2021-09-05 15:59:18,33.507804,-112.298552,33.507505,-112.320811,1.28252803538,Bridge closure from N 107th Ave (W Camelback Rd) to N El Mirage Rd (W Camelback Rd).,11076.0,W Camelback Rd,R,Phoenix,Maricopa,AZ,85037,US,US/Mountain,KGEU,2021-09-05 13:58:00,100.0,100.0,22.0,28.69,10.0,CALM,0.0,0.0,Fair,False,False,True,False,False,False,False,False,False,False,False,True,False,Day,Day,Day,Day
C-3176125,2,2021-11-23 08:00:00,2021-11-23 16:00:00,40.819592,-73.45269,,,0.0,One lane closed due to construction on NY-25 Jericho Tpke Eastbound at Plainview Rd.,2.0,Plainview Rd,L,Woodbury,Nassau,NY,11797-2834,US,US/Eastern,KFRG,2021-11-23 07:53:00,34.0,27.0,61.0,29.9,10.0,NW,8.0,0.0,Fair,False,False,False,False,False,False,False,False,False,False,False,False,False,Day,Day,Day,Day
C-3176126,2,2020-09-03 16:06:00,2020-09-04 01:46:34,41.266849,-75.86405699999997,41.266432,-75.864355,0.0327054306966,Roadwork on S RIVER ST / S MAIN ST / RIVER ST / N RIVER ST / MAIN ST / CAREY AV both directions 0 miles EAST of Exit: TO I-81/PA 309 SOUTH. There is a lane restriction.,398.0,S River St,L,Wilkes Barre,Luzerne,PA,18702-3814,US,US/Eastern,KAVP,2020-09-03 15:54:00,77.0,77.0,64.0,28.77,10.0,SSW,3.0,0.0,Mostly Cloudy,False,False,False,False,False,False,False,False,False,False,False,True,False,Day,Day,Day,Day
C-3176127,2,2021-12-16 11:55:30,2021-12-16 15:55:10,35.363268,-97.549447,35.363301,-97.547042,0.135530356378,Stationary traffic from S May Ave (SW 104th St) to S Western Ave (SW 104th St) due to roadwork.,2142.0,SW 104th St,L,Oklahoma City,Cleveland,OK,73170,US,US/Central,KOKC,2021-12-16 11:52:00,50.0,50.0,35.0,28.75,10.0,NNE,12.0,0.0,Fair,False,False,False,False,False,False,False,False,False,False,False,False,False,Day,Day,Day,Day
C-3176128,4,2019-06-12 23:07:30,2019-06-13 04:06:50,29.3913,-98.66546,29.39924,-98.64136,1.55103145516,Closed between TX-1604-LOOP/Anderson Loop and I-410/TX-16 - Closed due to roadwork.,,US-90 E,R,San Antonio,Bexar,TX,78245,US,US/Central,KSKF,2019-06-12 22:56:00,77.0,77.0,69.0,29.29,10.0,ENE,3.0,0.0,Fair,False,False,False,False,False,False,False,False,False,False,False,False,False,Night,Night,Night,Night
C-3176129,3,2020-04-23 11:49:15,2020-04-23 13:48:32,40.43426,-79.74812,40.30873,-79.67605999999998,9.46649232737,Between I-376/US-22/Exit 6 and US-30/Exit 7 - Roadwork. Left lane closed.,,I-76 E,R,Monroeville,Allegheny,PA,15146,US,US/Eastern,KAGC,2020-04-23 11:53:00,59.0,59.0,48.0,28.53,10.0,S,7.0,0.0,Fair,False,False,False,False,True,False,False,False,False,False,False,False,False,Day,Day,Day,Day
C-3176130,2,2020-03-16 07:00:00,2020-10-20 07:55:23,40.547878,-100.641747,40.6195,-100.630441,4.98404383931,Construction on US-83 NB near RED WILLOW DAM RD Construction. Expect long delays.,,Highway 83,R,Maywood,Frontier,NE,69038,US,US/Central,KMCK,2020-03-16 06:59:00,34.0,29.0,96.0,27.42,1.0,E,6.0,0.0,Fog,False,False,False,False,False,False,False,False,False,False,False,False,False,Night,Night,Day,Day
C-3176131,3,2019-06-28 19:01:50,2019-07-02 19:01:32,41.75773,-87.88269,41.77096,-87.90647,1.52889229896,Between Tri-State Tollway and I-55/Stevenson Expy (North) - Roadwork. Right lane blocked.,,I-294 N,R,La Grange,Cook,IL,60525,US,US/Central,KMDW,2019-06-28 18:53:00,85.0,85.0,49.0,29.36,10.0,SSW,13.0,0.0,Thunder,False,False,False,False,False,False,False,False,False,False,False,False,False,Day,Day,Day,Day
C-3176132,4,2020-12-30 06:00:00,2020-12-30 13:45:00,47.62467,-122.333289,47.62038,-122.328629,0.367362166981,Construction on I-5 SB near MP 167 Take alternate route.,1184.0,Mercer St,L,Bainbridge Island,King,WA,98110,US,US/Pacific,KBFI,2020-12-30 05:53:00,41.0,37.0,100.0,30.02,7.0,SE,6.0,0.05,Light Rain,False,False,False,False,False,False,False,False,False,False,False,False,False,Night,Night,Night,Night
C-3176133,2,2021-10-05 08:04:30,2021-10-05 10:22:33,27.843867,-82.381563,27.850676,-82.381822,0.470723103182,Slow traffic on FL-45 - US-41 N from Symmes Rd (US-41) to CR-676A/Pendola Point Rd/Madison Ave (US-41) due to roadwork.,10886.0,S US Highway 41,R,Gibsonton,Hillsborough,FL,33534-4708,US,US/Eastern,KTPF,2021-10-05 07:55:00,72.0,72.0,94.0,29.96,10.0,CALM,0.0,0.0,Mostly Cloudy,False,False,False,False,False,False,False,False,False,False,False,False,False,Day,Day,Day,Day
C-3176134,2,2020-10-15 00:38:31,2020-10-15 01:03:37,40.829626,-73.90220699999998,40.831056,-73.905837,0.2139544113479999,Queuing traffic from Boston Rd to 3rd Ave due to resurfacing work.,1208.0,Boston Rd,R,Bronx,Bronx,NY,10456-3602,US,US/Eastern,KLGA,2020-10-15 00:51:00,62.0,62.0,56.0,29.99,10.0,SW,6.0,0.0,Mostly Cloudy,False,False,False,False,False,False,False,False,True,False,False,True,False,Night,Night,Night,Night
C-3176135,2,2021-12-01 15:23:00,2021-12-01 17:24:51,33.467731,-112.151777,33.464872,-112.151828,0.197559957053,Slow traffic from W Thomas Rd (N 43rd Ave) to I-10/Papago Fwy (N 43rd Ave) due to roadwork.,1798.0,N 43rd Ave,L,Phoenix,Maricopa,AZ,85009-2050,US,US/Mountain,KPHX,2021-12-01 15:51:00,84.0,84.0,13.0,28.82,10.0,W,3.0,0.0,Mostly Cloudy,False,False,False,False,False,False,False,False,False,False,False,False,False,Day,Day,Day,Day
C-3176136,2,2020-08-30 15:38:30,2020-08-30 21:47:28,43.635668,-116.354392,43.632425,-116.354506,0.224142468391,Stationary traffic on ID-55 from W McMillan Rd (ID-55) to E Fairview Ave (ID-55) due to roadwork.,3347.0,N Eagle Rd,L,Meridian,Ada,ID,83646-7790,US,US/Mountain,KMAN,2020-08-30 15:35:00,77.0,77.0,16.0,27.34,10.0,W,16.0,0.0,Fair,False,False,True,False,False,False,False,False,False,False,False,False,False,Day,Day,Day,Day
C-3176137,2,2020-03-09 21:01:00,2020-03-10 05:59:00,37.56326,-122.51285,37.55795,-122.51445,0.377206866186,At Turnout - Construction work.,6397.0,Cabrillo Hwy,L,Moss Beach,San Mateo,CA,94038,US,US/Pacific,KHAF,2020-03-09 21:00:00,57.0,57.0,55.0,30.0,10.0,N,5.0,0.0,Fair,False,False,False,False,False,False,False,False,False,False,False,False,False,Night,Night,Night,Night
C-3176138,2,2021-02-11 06:30:00,2021-02-11 14:44:00,33.79638,-117.728902,33.81902,-117.717262,1.7010360658,Lane closure due to Permit Work between Eastern Trans. Toll Rd Rte 261 split and Eastern Trans. Toll Rd Rte 261 split,,CA-241 N,R,Anaheim,Orange,CA,92808,US,US/Pacific,KAJO,2021-02-11 06:31:00,37.0,37.0,100.0,29.47,0.75,CALM,0.0,0.0,Fog,False,False,False,False,False,False,False,False,False,False,False,False,False,Night,Day,Day,Day
C-3176139,3,2019-08-27 04:15:51,2019-08-27 05:00:00,36.966496,-76.29445600000003,,,0.0,Lane closed and left hand shoulder closed due to construction work on I-64 Hampton Roads Bltwy Eastbound at Exit 272 Bayville St.,,I-64 E,R,Norfolk,Norfolk,VA,23503,US,US/Eastern,,,,,,,,,,,,False,False,False,False,False,False,False,False,False,False,False,False,False,Night,Night,Night,Night
C-3176140,2,2020-09-22 11:52:00,2020-09-22 22:46:00,38.391249,-121.822793,38.376672,-121.822888,1.0071879189700002,Construction on CA-113 SB near CASEY RD Expect long delays.,,Rio Dixon Rd,R,Dixon,Solano,CA,95620,US,US/Pacific,KEDU,2020-09-22 11:55:00,79.0,79.0,42.0,29.94,10.0,SE,5.0,0.0,Fair,False,False,False,False,False,False,False,False,False,False,False,False,False,Day,Day,Day,Day
C-3176141,2,2021-06-15 08:26:00,2021-09-04 22:27:30,41.093887,-76.403047,41.099455,-76.385502,0.991249353786,Roadwork on PA 487 both directions between NOR POLE RD and MOORES RD SAVAGE HOLLOW RD. There is a lane restriction.,2434.0,State Route 487,R,Orangeville,Columbia,PA,17859-8824,US,US/Eastern,KIPT,2021-06-15 08:12:00,64.0,64.0,78.0,29.25,10.0,W,7.0,0.0,Mostly Cloudy,False,False,False,False,False,False,False,False,False,False,False,False,False,Day,Day,Day,Day
C-3176142,2,2021-02-16 09:53:30,2021-02-16 19:16:45,33.479663,-112.186398,33.480508,-112.187307,0.0784402556046,Stationary traffic from W Roanoke Ave to N 60th Ave due to roadwork.,2861.0,N 59th Ave,R,Phoenix,Maricopa,AZ,85035-1600,US,US/Mountain,KGEU,2021-02-16 09:59:00,57.0,57.0,33.0,28.67,10.0,SSW,13.0,0.0,Partly Cloudy,False,False,False,False,False,False,False,False,False,False,False,False,False,Day,Day,Day,Day
C-3176143,2,2021-05-11 21:01:00,2021-05-12 05:46:00,33.065106,-117.292386,33.052687,-117.288663,0.8847404589550001,Construction on I-5 SB near PALOMAR AIRPORT RD Construction. Expect long delays.,,I-5 S,R,Encinitas,San Diego,CA,92024,US,US/Pacific,KCRQ,2021-05-11 20:53:00,60.0,60.0,78.0,29.6,10.0,CALM,0.0,0.0,Cloudy,False,False,False,False,False,False,False,False,False,False,False,False,False,Night,Night,Night,Day
C-3176144,2,2021-12-30 13:37:15,2021-12-30 13:57:47,26.701942,-81.75900899999998,26.702942,-81.76018,0.0999912743206,Slow traffic on FL-80 - FL-31 from West Rd to Bayshore Rd due to roadwork.,12006.0,Palm Beach Blvd,R,Fort Myers,Lee,FL,33905-4829,US,US/Eastern,KFMY,2021-12-30 13:53:00,83.0,83.0,58.0,30.04,10.0,CALM,0.0,0.0,Fair,False,False,False,False,False,False,False,False,False,False,False,False,False,Day,Day,Day,Day
C-3176145,2,2021-10-27 18:50:00,2021-10-27 19:37:30,39.763687,-86.345751,39.763718,-86.33711,0.458940118872,Slow traffic on US-36 E - US-36 W from IN-267 (US-36) to Ronald Reagan Pkwy (US-36) due to roadwork.,9963.0,E US Highway 36,R,Avon,Hendricks,IN,46123-7987,US,US/Eastern,KIND,2021-10-27 18:54:00,53.0,53.0,55.0,29.04,10.0,E,7.0,0.0,Mostly Cloudy,False,False,True,False,False,False,False,False,False,False,False,True,False,Night,Day,Day,Day
C-3176146,2,2021-07-27 14:50:28,2021-07-27 18:55:22,40.760962,-73.967123,40.759653,-73.964016,0.1860643990769999,Slow traffic from Park Ave to Ed Koch Queensboro Brg due to roadwork.,158.0,E 58th St,R,New York,New York,NY,10022,US,US/Eastern,KNYC,2021-07-27 14:51:00,87.0,87.0,48.0,29.82,8.0,VAR,3.0,0.0,Fair,True,False,True,False,False,False,False,False,False,False,False,True,False,Day,Day,Day,Day
C-3176147,4,2020-03-17 21:11:43,2020-03-23 01:46:24,40.38571,-79.75901,40.38599,-79.76073000000002,0.0925650048216,Closed at PA-993/Brinton Ave - Closed due to roadwork.,500.0,Duquesne Ave,R,Trafford,Westmoreland,PA,15085-1113,US,US/Eastern,KAGC,2020-03-18 12:53:00,50.0,50.0,57.0,28.93,10.0,SE,13.0,0.0,Fair,False,False,True,False,False,False,False,False,False,False,False,False,False,Night,Night,Night,Night
C-3176148,2,2020-07-27 16:01:00,2020-07-27 22:15:00,33.853737,-117.914746,33.853677000000005,-117.911976,0.158995282384,Construction on CA-91 EB near COUNTY LINE Expect delays.,,CA-91 E,R,Anaheim,Orange,CA,92801,US,US/Pacific,KFUL,2020-07-27 15:53:00,84.0,84.0,38.0,29.76,10.0,W,8.0,0.0,Fair,False,False,False,False,False,False,False,False,False,False,False,False,False,Day,Day,Day,Day
C-3176149,2,2020-12-29 04:28:30,2020-12-30 01:22:19,38.194972,-120.008365,38.200261,-120.005301,0.401525616396,Roadwork on Pinecrest Lake Rd (Sonora Pass Hwy/CA-108) from Forest Route 5N32A (Sonora Pass Hwy/CA-108) to CA-108.,32267.0,Sonora Pass Hwy,L,Long Barn,Tuolumne,CA,95335,US,US/Pacific,KO22,2020-12-29 04:35:00,32.0,32.0,100.0,27.82,10.0,CALM,0.0,0.0,Fair,False,False,False,False,False,False,False,False,False,False,False,False,False,Night,Night,Night,Night
C-3176150,2,2021-06-21 07:45:46,2021-06-21 18:10:11,42.133723,-75.080534,42.131323,-75.067899,0.668308502635,Roadwork roadwork on NY 206 eastbound between Town of Walton; Town of Colchester Line (Walton) and NY 30 Junction Tannery Road (Colchester) 1 Right lane of 2 lanes blocked for paving and mill and fill to occur today 06/21/21 between the hours of 7:00AM and 4:00PM. The EB lane will be blocked between East Trout Brook Road and Mellis Brook Road with traffic controlled VIA one-way alternating. There will be flag personnel present and this work is weather dependent. IR#42885,21936.0,State Highway 206,L,Walton,Delaware,NY,13856,US,US/Eastern,KMSV,2021-06-21 07:53:00,72.0,72.0,94.0,28.3,8.0,VAR,5.0,0.0,Mostly Cloudy,False,False,False,False,False,False,False,False,False,False,False,False,False,Day,Day,Day,Day
C-3176151,2,2021-03-13 09:33:00,2021-03-13 16:12:21,32.813221,-96.628008,32.822035,-96.629129,0.61245821965,Slow traffic on I-635 N - LBJ Fwy N from Town East Blvd exit [7] to exit [8B] due to roadwork.,,I-635 N,R,Mesquite,Dallas,TX,75150,US,US/Central,KHQZ,2021-03-13 09:50:00,68.0,68.0,83.0,29.7,10.0,SE,10.0,0.0,Cloudy,False,False,False,False,False,False,False,False,False,False,False,False,False,Day,Day,Day,Day
C-3176152,2,2020-11-02 17:43:00,2020-11-02 18:17:00,41.405347,-75.49928299999998,41.407741,-75.510109,0.584906559917,Slow traffic from PA-247 exit [8] to I-84 W due to roadwork.,,I-84 W,R,Lake Ariel,Lackawanna,PA,18436,US,US/Eastern,KAVP,2020-11-02 17:54:00,40.0,33.0,49.0,28.88,10.0,W,12.0,0.0,Mostly Cloudy,False,False,False,False,False,False,False,False,False,False,False,False,False,Night,Night,Day,Day
C-3176153,2,2020-07-30 13:00:00,2020-07-31 06:45:00,43.25957800000001,-89.384111,43.328638,-89.451071,5.840138501009999,Construction on I-39 NB near PATTON RD Expect delays.,,I-39 N,R,Deforest,Dane,WI,53532,US,US/Central,KMSN,2020-07-30 12:53:00,80.0,80.0,58.0,29.03,10.0,ENE,10.0,0.0,Mostly Cloudy,False,False,False,False,False,False,False,False,False,False,False,False,False,Day,Day,Day,Day
C-3176154,2,2021-02-22 08:08:30,2021-02-22 15:56:30,44.750971,-122.282215,44.731034,-122.26157,1.71000084903,Slow traffic on OR-22 from Gates Hill Rd (OR-22) to Breitenbush Rd (OR-22) due to roadwork.,38535.0,N Santiam Hwy,R,Detroit,Marion,OR,97342,US,US/Pacific,KSLE,2021-02-22 07:56:00,48.0,42.0,83.0,30.18,4.0,S,17.0,0.0,Haze,False,False,False,False,False,False,False,False,False,False,False,False,False,Day,Day,Day,Day
C-3176155,2,2021-08-25 23:07:19,2021-08-26 23:54:27,39.39628,-76.603611,39.394278,-76.604138,0.141158096323,Construction on MD-45 SB near LINDEN PL Expect delays.,,Linden Ter,R,Towson,Baltimore County,MD,21204,US,US/Eastern,KDMH,,,,,,,,,,,True,False,True,False,False,False,False,False,False,False,False,False,False,Night,Night,Night,Night
C-3176156,2,2021-11-23 21:24:30,2021-11-23 23:29:17,34.298773,-118.440032,34.299778,-118.439585,0.0739778788866,Stationary traffic from Herrick Ave to Aztec St due to roadwork.,14097.0,Hubbard St,R,Sylmar,Los Angeles,CA,91342-4118,US,US/Pacific,KWHP,2021-11-23 20:00:00,59.0,59.0,45.0,28.91,10.0,CALM,0.0,,Fair,False,False,False,False,False,False,False,False,False,False,False,False,False,Night,Night,Night,Night
C-3176157,2,2020-04-25 05:16:22,2020-04-26 05:16:22,29.99598,-90.21753,29.99598,-90.21753,0.0,At David Dr - Roadwork. Left lane closed.,2174.0,David Dr,L,Metairie,Jefferson,LA,70003-5032,US,US/Central,KMSY,2020-04-25 04:53:00,68.0,68.0,87.0,29.88,10.0,CALM,0.0,0.0,Fair,False,False,False,False,False,False,False,False,False,False,False,True,False,Night,Night,Night,Day
C-3176158,4,2021-11-02 15:24:41,2021-11-04 23:59:00,42.419777,-71.134522,42.418883,-71.13297,0.1004099324819999,Closed road from MA-60/High St (Boston Ave) to MA-16/Mystic Valley Pkwy (Boston Ave) due to roadwork.,51.0,Boston Ave,R,Medford,Middlesex,MA,02155-3570,US,US/Eastern,KBOS,2021-11-02 14:54:00,55.0,55.0,40.0,30.08,10.0,SW,13.0,0.0,Cloudy,True,False,False,False,False,False,False,False,True,False,False,True,False,Day,Day,Day,Day
C-3176159,2,2021-11-22 13:49:00,2021-11-22 14:09:00,40.002251,-75.702263,40.006675,-75.703199,0.309657428642,Slow traffic on US-322 E - US-322 W from Boot Rd (Brandywine Ave/US-322) to E Lancaster Ave/Wallace Ave (US-30 Bus/US-322) due to roadwork.,301.0,Brandywine Ave,L,Downingtown,Chester,PA,19335-2929,US,US/Eastern,KOQN,2021-11-22 13:55:00,46.0,40.0,66.0,29.16,10.0,NW,14.0,0.0,Fair,False,False,False,False,False,False,False,False,False,False,False,True,False,Day,Day,Day,Day
C-3176160,2,2021-10-13 18:00:00,2021-10-14 06:45:00,43.096768,-77.433087,43.116397,-77.516149,4.4040081972000005,Construction on NY-31F near TOWN OF PERINTON Drive with caution.,198.0,E Church St,R,Fairport,Monroe,NY,14450-1506,US,US/Eastern,KROC,2021-10-13 17:54:00,69.0,69.0,75.0,29.39,10.0,W,6.0,0.0,Cloudy,False,False,True,False,False,False,False,False,False,False,False,True,False,Day,Day,Day,Day
C-3176161,2,2021-05-27 19:00:00,2021-05-28 06:00:00,30.902501,-84.54247099999998,30.902993,-84.538894,0.214769585654,Lane closed on US-84 E - GA-38 E from US-27 Bus/US-27/GA-1/Tallahassee Hwy (US-84) to W Broad St (US-84) due to roadwork.,,GA-38 E,R,Bainbridge,Decatur,GA,39819,US,US/Eastern,KBGE,2021-05-27 18:55:00,89.0,89.0,35.0,29.85,10.0,WSW,12.0,0.0,Fair,False,False,False,False,False,False,False,False,False,False,False,False,False,Day,Day,Day,Day
C-3176162,3,2017-10-09 10:40:07,2017-10-31 23:59:00,32.814987,-97.313194,,,1.7400000095400003,Exit ramp from I-35W Northbound at Exit 56A to Meacham Blvd both ways closed due to construction work.,,I-35W N,R,Fort Worth,Tarrant,TX,76106,US,US/Central,KFTW,2017-10-09 10:53:00,87.1,,57.0,29.74,10.0,South,19.6,0.0,Light Rain,False,False,False,False,False,False,False,False,False,False,False,False,False,Day,Day,Day,Day
C-3176163,2,2021-10-26 16:46:00,2021-10-26 18:58:26,42.15397700000001,-87.96250699999999,42.152357,-87.961065,0.134105834728,Slow traffic from Church Rd to Aptakisic Rd due to roadwork.,38.0,N Buffalo Grove Rd,L,Buffalo Grove,Lake,IL,60089-1702,US,US/Central,KPWK,2021-10-26 16:52:00,54.0,54.0,59.0,29.37,10.0,NE,7.0,0.0,Fair,False,False,False,False,False,False,False,False,False,False,False,False,False,Day,Day,Day,Day
C-3176164,2,2020-06-14 21:26:03,2020-06-15 15:59:59,28.60903,-81.28862,28.56818,-81.28618,2.82634556786,Between Aloma Ave and SR-50/E Colonial Dr/John Cheney Hwy - Roadwork. Right lane closed.,,N Palmetto Ave,R,Winter Park,Orange,FL,32792,US,US/Eastern,KORL,2020-06-14 21:53:00,79.0,79.0,79.0,29.95,10.0,NNE,6.0,0.0,Fair,False,False,True,False,False,False,False,False,False,False,False,True,False,Night,Night,Night,Day
C-3176165,2,2019-06-12 18:55:12,2019-06-16 19:01:47,40.57502,-75.866357,40.577213,-75.907332,2.15567477982,Between PA-737/Exit 40 and 4th St/Exit 30 - Roadwork. Lane blocked.,,I-78 W,R,Lenhartsville,Berks,PA,19534,US,US/Eastern,KRDG,2019-06-12 18:54:00,72.0,72.0,49.0,29.69,10.0,SSE,9.0,0.0,Fair,False,False,False,False,False,False,False,False,False,False,False,False,False,Day,Day,Day,Day
C-3176166,2,2021-07-13 08:00:00,2021-07-13 16:45:00,48.915714,-122.353192,48.909212,-122.358715,0.514508466336,Both lanes eastbound and westbound on SR 544 in Everson will be closed for pavement repairs on Tuesday July 13 from 8 a.m. to 4 p.m.,101.0,Kale St,R,Everson,Whatcom,WA,98247-9661,US,US/Pacific,KBLI,2021-07-13 07:53:00,60.0,60.0,83.0,29.9,10.0,S,13.0,0.0,Fair,False,False,False,False,False,False,False,False,False,False,False,False,False,Day,Day,Day,Day
C-3176167,2,2020-09-17 19:11:17,2020-09-17 19:31:49,31.898642,-106.431502,31.899012,-106.405092,1.54939786333,Stationary traffic from US-54/Gateway Blvd (TX-375 Loop/Woodrow Bean Transmountain Dr) to Railroad Dr (TX-375 Loop) due to roadwork.,,TX-375 E,R,El Paso,El Paso,TX,79924,US,US/Mountain,KBIF,2020-09-17 18:51:00,86.0,86.0,21.0,26.04,10.0,N,9.0,0.0,Fair,False,False,False,False,True,False,False,False,False,False,False,False,False,Night,Day,Day,Day
C-3176168,2,2021-07-12 14:32:00,2021-07-12 15:27:30,33.582574,-111.98268799999998,33.582605,-111.977989,0.270487585672,Stationary traffic from 40th St (E Shea Blvd) to Tatum Blvd (E Shea Blvd) due to roadwork.,4567.0,E Shea Blvd,R,Phoenix,Maricopa,AZ,85028-3066,US,US/Mountain,KSDL,2021-07-12 14:53:00,100.0,100.0,26.0,28.2,9.0,CALM,0.0,0.0,Fair,True,False,True,False,False,False,False,False,True,False,False,True,False,Day,Day,Day,Day
C-3176170,2,2020-08-28 12:38:00,2020-08-28 23:56:36,45.407877,-122.538548,45.411072,-122.524596,0.711850237158,Stationary traffic on OR-224 - OR-212 from SE 114th Ave to SE Hubbard Rd / SE Hubbard Ter due to construction work.,12120.0,SE Highway 212,R,Clackamas,Clackamas,OR,97015-9073,US,US/Pacific,KTTD,2020-08-28 12:53:00,75.0,75.0,50.0,29.96,10.0,VAR,7.0,0.0,Fair,False,False,False,False,False,False,False,False,True,False,False,False,False,Day,Day,Day,Day
C-3176171,2,2020-04-22 19:00:00,2020-04-24 05:00:00,40.16068,-74.42544000000002,40.16068,-74.42544000000002,0.0,At CR-537/Exit 16 - Construction work. Lane blocked.,,I-195 W,R,Millstone Township,Monmouth,NJ,08510,US,US/Eastern,KNEL,2020-04-22 18:56:00,51.0,51.0,23.0,29.84,10.0,WNW,10.0,0.0,Fair,False,False,False,False,False,False,False,False,False,False,False,False,False,Day,Day,Day,Day
C-3176172,2,2021-11-05 01:09:30,2021-11-05 01:44:00,34.769685,-97.28782,34.790465000000005,-97.298313,1.55434892692,Slow traffic on I-35 N from Kimberlin Rd/Exit 74 (I-35) to OK-145/Exit 79 (I-35) due to roadwork.,,I-35 N,R,Pauls Valley,Garvin,OK,73075,US,US/Central,KPVJ,2021-11-05 01:15:00,38.0,38.0,100.0,29.19,1.0,CALM,0.0,0.0,Fog,False,False,False,False,False,False,False,False,False,False,False,False,False,Night,Night,Night,Night
C-3176173,2,2021-09-18 08:17:09,2021-12-14 20:33:37,33.493893,-112.22056299999998,33.494642,-112.220929,0.0558829408014,Stationary traffic from W Clarendon Ave to N 75th Dr due to roadwork.,4035.0,N 75th Ave,R,Phoenix,Maricopa,AZ,85033-3728,US,US/Mountain,KGEU,2021-12-14 18:58:00,65.0,65.0,46.0,28.69,10.0,S,9.0,0.0,Fair,True,False,True,False,False,False,False,False,True,False,False,True,False,Day,Day,Day,Day
C-3176174,2,2021-03-19 03:38:30,2021-12-09 16:44:00,37.621902,-120.995523,37.62493,-120.99618999999998,0.212375180535,Construction on CA-99 NB near CROWS LANDING RD Expect delays.,,CA-99 N,R,Modesto,Stanislaus,CA,95351,US,US/Pacific,KMOD,2021-12-09 07:53:00,65.0,65.0,56.0,29.81,6.0,SSE,3.0,0.0,Haze,False,False,False,False,False,False,False,False,False,False,False,False,False,Night,Night,Night,Night
C-3176175,2,2021-10-22 10:29:00,2021-10-28 02:59:27,40.692016,-74.14218000000002,40.692453,-74.143288,0.0654295017975,Port Authority NY/NJ: Roadwork on Port Newark - Marsh Street both directions at Export Street (Newark) 1 Right lane of 2 lanes closed,312.0,Marsh St,L,Newark,Essex,NJ,07114,US,US/Eastern,KEWR,2021-10-22 10:51:00,69.0,69.0,53.0,29.88,10.0,W,10.0,0.0,Mostly Cloudy,False,False,True,False,False,False,True,False,False,False,False,False,False,Day,Day,Day,Day
C-3176176,2,2021-08-19 08:01:00,2021-11-19 10:10:02,34.025508,-118.352199,34.024774,-118.355252,0.18203442562,Slow traffic from S Rimpau Blvd to Exposition Blvd due to roadwork.,5007.0,W Jefferson Blvd,R,Los Angeles,Los Angeles,CA,90016-3924,US,US/Pacific,KSMO,2021-11-19 07:51:00,57.0,57.0,89.0,29.94,3.0,CALM,0.0,0.0,Cloudy,False,False,False,False,False,False,True,False,True,True,False,False,False,Day,Day,Day,Day
C-3176177,2,2021-09-16 08:29:00,2021-09-16 10:38:35,28.803034000000004,-81.890541,28.804074,-81.88755400000002,0.1946005559169999,Slow traffic on FL-25 - US-27 N - FL-44 from Carpenter Ave to Buena Vista Ave due to roadwork.,799.0,Carpenter Ave,L,Leesburg,Lake,FL,34748-5601,US,US/Eastern,KLEE,2021-09-16 08:53:00,79.0,79.0,90.0,29.89,10.0,SE,3.0,0.0,Fair,False,False,False,False,False,False,False,False,False,False,False,False,False,Day,Day,Day,Day
C-3176178,2,2021-08-11 13:43:04,2021-08-11 14:06:33,29.886955,-81.323635,29.892695,-81.322819,0.3995971767189999,Slow traffic on US-1 N - FL-5 from FL-207 (US-1) to W Castillo Dr (FL-A1A/US-1) due to roadwork.,401.0,S Ponce de Leon Blvd,R,Saint Augustine,St. Johns,FL,32084-4219,US,US/Eastern,KSGJ,2021-08-11 13:56:00,86.0,86.0,72.0,30.17,10.0,VAR,6.0,0.0,Fair,False,False,False,False,False,False,False,False,False,False,False,False,False,Day,Day,Day,Day
C-3176180,2,2021-09-02 07:47:00,2021-09-02 08:08:30,34.423577,-102.995567,34.419224,-103.001714,0.4617402950779999,Stationary traffic on US-60 W from CR-5 (US-60) to Stateline Rd/TX--NM State Border (US-60) due to roadwork.,,County Rd W,R,Farwell,Parmer,TX,79325,US,US/Mountain,KCVN,2021-09-02 07:56:00,69.0,69.0,93.0,25.73,10.0,W,9.0,0.0,Fair,False,False,False,False,False,False,False,False,False,False,False,False,False,Day,Day,Day,Day
C-3176181,2,2021-04-13 09:37:30,2021-04-13 10:57:00,39.787255,-79.032393,39.802775,-79.038503,1.12031357529,Slow traffic on US-219 N from PA-669/Ord St (Grant St/US-219) to Mason Dixon Hwy (US-219) due to roadwork.,,Flight 93 Memorial Hwy,R,Meyersdale,Somerset,PA,15552,US,US/Eastern,KCBE,2021-04-13 09:35:00,56.0,56.0,76.0,29.28,10.0,CALM,0.0,0.0,Cloudy,False,False,False,False,False,False,False,False,False,False,False,False,False,Day,Day,Day,Day
C-3176182,2,2021-04-14 19:01:00,2021-04-15 20:33:33,40.003804,-78.41900799999998,40.011705,-78.464342,2.46051747916,Construction on I-76 WB near MP 158 Construction. Right lane closed.,,I-70 W,R,Everett,Bedford,PA,15537,US,US/Eastern,KHMZ,2021-04-14 18:53:00,57.0,57.0,59.0,28.31,10.0,SSW,14.0,0.0,Fair,False,False,False,False,False,False,False,False,False,False,False,False,False,Day,Day,Day,Day
C-3176183,2,2020-12-22 13:32:30,2020-12-23 02:17:52,30.416733,-91.143139,30.420995,-91.140545,0.332571911755,Slow traffic from Perkins Rd/Lee Dr (College Dr) to I-10 (College Dr) due to roadwork.,,College Dr,R,Baton Rouge,East Baton Rouge,LA,70808,US,US/Central,KBTR,2020-12-22 13:53:00,70.0,70.0,33.0,30.11,10.0,SE,8.0,0.0,Fair,False,False,False,False,False,False,False,False,False,False,False,True,False,Day,Day,Day,Day
C-3176184,2,2021-03-11 05:16:00,2021-03-16 13:52:57,33.448840999999994,-112.169125,33.451231,-112.170481,0.1827017256789999,Slow traffic from S 51st Ave to N 52nd Ave due to roadwork.,109.0,N 51st Ave,R,Phoenix,Maricopa,AZ,85043-3704,US,US/Mountain,KGEU,2021-03-11 04:58:00,48.0,48.0,50.0,28.81,10.0,CALM,0.0,0.0,Fair,False,False,False,False,False,False,False,False,False,False,False,False,False,Night,Night,Night,Night
C-3176186,3,2021-08-13 22:00:00,2021-08-14 05:00:00,33.54768,-117.673012,,,1.30999994278,Intermittent lane closures due to paving repairs on I-5 Southbound from Exit 86 Crown Valley Pkwy to Avery Pkwy.,,I-5 S,R,Mission Viejo,Orange,CA,92691,US,US/Pacific,KSNA,2021-08-13 21:53:00,72.0,72.0,71.0,30.0,10.0,SSW,6.0,0.0,Fair,False,False,False,False,False,False,False,False,False,False,False,False,False,Night,Night,Night,Night
C-3176187,2,2020-06-05 09:52:56,2020-06-05 15:00:00,41.93485,-71.46994000000002,41.93485,-71.46994000000002,0.0,At RI-146/Eddie Dowling Hwy - Bridge maintenance work.,639.0,George Washington Hwy,R,Lincoln,Providence,RI,02865-4245,US,US/Eastern,KSFZ,2020-06-05 09:56:00,66.0,66.0,100.0,29.46,7.0,SW,5.0,0.04,Light Rain,False,False,False,True,False,False,False,False,False,False,False,True,False,Day,Day,Day,Day
C-3176188,2,2021-01-07 17:09:19,2021-01-08 00:45:00,41.36581,-72.922128,41.36565,-72.925648,0.182864274418,Road Work on RT15 Southbound between Exits 60 and 58 (7.2 miles) in effect today until 4:00 pm. The left lane is closed. Reported Thursday January 7 at 9:10 am.,,CT-15 S,R,Hamden,New Haven,CT,06514,US,US/Eastern,KHVN,2021-01-07 16:53:00,38.0,30.0,47.0,30.04,10.0,NNW,13.0,0.0,Fair,False,False,False,False,True,False,False,False,False,False,False,False,False,Night,Night,Day,Day
C-3176189,2,2021-07-04 06:14:40,2021-07-04 09:10:49,46.747126,-95.097978,46.91588,-95.058358,11.8092435415,Construction on US-71 NB near 6TH ST Allow extra time.,700.0,Aspen Ave SE,R,Menahga,Wadena,MN,56464-3143,US,US/Central,KPKD,2021-07-04 05:53:00,70.0,70.0,73.0,28.14,10.0,S,9.0,0.0,Fair,False,False,False,False,False,False,False,False,False,False,False,False,False,Day,Day,Day,Day
C-3176190,2,2021-11-12 17:03:57,2021-11-12 19:07:37,34.72629000000001,-100.535843,34.724183000000004,-100.532969,0.218700757158,Stationary traffic on US-287 S - US-287 N - TX-256 from W Brice St / N 5th St to East St due to roadwork.,198.0,N Boykin Dr,R,Memphis,Hall,TX,79245-2802,US,US/Central,KCDS,2021-11-12 16:53:00,61.0,61.0,21.0,28.19,10.0,N,10.0,0.0,Fair,False,False,False,False,False,False,False,False,False,False,False,False,False,Day,Day,Day,Day
C-3176191,2,2020-09-01 13:50:00,2020-09-02 19:54:44,40.15828,-79.47877700000002,40.12717,-79.406257,4.39225547195,Construction on I-76 EB near MP 83 Construction. Right lane closed.,,I-70 E,R,Mount Pleasant,Westmoreland,PA,15666,US,US/Eastern,KLBE,2020-09-01 13:47:00,79.0,79.0,69.0,28.76,10.0,CALM,0.0,0.0,Cloudy,False,False,False,False,False,False,False,False,False,False,False,False,False,Day,Day,Day,Day
C-3176192,2,2021-04-20 13:35:30,2021-04-20 15:29:00,39.772496,-104.829581,39.771139,-104.814267,0.8186381954649999,Slow traffic on US-36 E - I-70 E from Peoria St/Exit 281 (I-70) to Chambers Rd/Exit 283 (I-70) due to roadwork.,,I-70 E,R,Denver,Denver,CO,80239,US,US/Mountain,KBKF,2021-04-20 13:58:00,30.0,22.0,51.0,24.52,10.0,ENE,9.0,0.0,Fair,False,False,False,False,False,False,False,False,False,False,False,False,False,Day,Day,Day,Day
C-3176193,2,2020-05-21 08:07:30,2020-05-22 16:00:00,40.9375,-73.83738000000002,40.93778,-73.83766999999997,0.0245639357910999,At Sprain Brook Pky - Resurfacing work.,,Bronx River Pkwy N,R,Bronxville,Westchester,NY,10708,US,US/Eastern,KHPN,2020-05-21 07:56:00,48.0,45.0,71.0,29.93,10.0,ENE,6.0,0.0,Fair,False,False,False,False,True,False,False,False,False,False,False,False,False,Day,Day,Day,Day
C-3176194,2,2021-06-03 13:15:00,2021-06-04 14:04:12,40.516494,-76.107176,40.555494,-76.00199599999998,6.1453746935,Roadwork on I-78 eastbound between 1.8 miles west of Exit 29A: PA 61 SOUTH - READING and Exit 29A: PA 61 SOUTH - READING. There is a lane restriction.,,I-78 E,R,Hamburg,Berks,PA,19526,US,US/Eastern,KRDG,2021-06-03 12:54:00,73.0,73.0,81.0,29.64,10.0,VAR,3.0,0.0,Cloudy,False,False,False,False,True,False,False,False,False,False,False,False,False,Day,Day,Day,Day
C-3176195,2,2019-06-27 09:31:41,2019-07-02 09:30:32,38.924961,-77.208479,38.92325,-77.21254,0.24824789665,At VA-123/Chain Bridge Rd/Exit 46 - Construction work. Lane blocked.,1698.0,Scotts Crossing Rd,R,Mc Lean,Fairfax County,VA,22102,US,US/Eastern,KDCA,2019-06-28 09:52:00,85.0,85.0,57.0,30.17,10.0,NNW,8.0,0.0,Partly Cloudy,False,False,False,False,False,False,False,False,False,False,False,True,False,Day,Day,Day,Day
C-3176196,2,2021-11-03 17:34:09,2021-11-03 19:36:47,27.84613,-82.38154,27.85101400000001,-82.381884,0.338106014543,Stationary traffic on FL-45 - US-41 N from Symmes Rd (US-41) to CR-676A/Pendola Point Rd/Madison Ave (US-41) due to roadwork.,10798.0,S US Highway 41,R,Gibsonton,Hillsborough,FL,33534,US,US/Eastern,KTPF,2021-11-03 17:35:00,82.0,82.0,51.0,30.02,10.0,NNE,3.0,0.0,Fair,False,False,False,False,False,False,False,False,True,False,False,False,False,Day,Day,Day,Day
C-3176197,2,2021-09-21 16:19:00,2021-09-21 18:40:00,33.495199,-112.010253,33.494562,-112.012987,0.1635643034119999,Stationary traffic from N 33rd St to E Fairmount Ave due to roadwork.,3301.0,E Indian School Rd,R,Phoenix,Maricopa,AZ,85018-5013,US,US/Mountain,KPHX,2021-09-21 16:22:00,102.0,102.0,11.0,28.81,10.0,VAR,6.0,0.0,Fair,True,False,False,False,False,False,False,False,True,True,False,False,False,Day,Day,Day,Day
C-3176198,4,2021-10-05 19:04:00,2021-10-05 21:05:51,35.671513,-88.82451,35.67522299999999,-88.802788,1.24587582081,I-40 E - US-412 E is closed from US-45/Exit 82 (I-40) to Campbell St/Exit 83 (I-40) due to roadwork.,,I-40 E,R,Jackson,Madison,TN,38305,US,US/Central,KMKL,2021-10-05 18:53:00,66.0,66.0,93.0,29.53,10.0,NNE,8.0,0.0,Fair,False,False,False,False,False,False,False,False,False,False,False,False,False,Night,Night,Day,Day
C-3176199,2,2021-05-27 06:28:30,2021-05-27 07:02:00,32.131158,-96.960686,32.106858,-97.006376,3.15715602858,Slow traffic on I-35E S from FM-566/Exit 381 (I-35E) to FM-934/Exit 377 (I-35E) due to roadwork.,,I-35E S,R,Milford,Ellis,TX,76670,US,US/Central,KINJ,2021-05-27 06:35:00,73.0,73.0,100.0,29.29,10.0,SSE,5.0,0.0,Fair,False,False,False,False,False,False,False,False,False,False,False,False,False,Day,Day,Day,Day
C-3176200,4,2021-07-20 06:17:24,2021-07-27 23:59:00,33.853668,-84.36406,33.852539,-84.36343000000002,0.0859754876877,Closed road from Longleaf Dr NE to Lenox Rd NE due to roadwork.,,Phipps Dr,R,Atlanta,Fulton,GA,30326,US,US/Eastern,KPDK,2021-07-20 05:53:00,71.0,71.0,96.0,28.9,8.0,CALM,0.0,0.0,Cloudy,False,False,False,False,False,False,False,False,False,False,False,False,False,Night,Day,Day,Day
C-3176201,2,2021-11-17 07:44:17,2021-11-17 08:08:47,32.954252000000004,-96.83606,32.954375,-96.838949,0.167709875989,Stationary traffic from Addison Rd (8th St/Belt Line Rd) to Midway Rd (8th St/Belt Line Rd) due to roadwork.,4455.0,Belt Line Rd,L,Addison,Dallas,TX,75001-4514,US,US/Central,KADS,2021-11-17 07:47:00,66.0,66.0,83.0,29.22,13.0,S,14.0,0.0,Cloudy,False,False,False,False,False,False,False,False,False,False,False,True,False,Day,Day,Day,Day
C-3176202,2,2020-04-20 09:38:44,2020-04-21 15:00:00,41.23928,-77.03404,41.23153,-77.11307,4.14106923963,Between Cemetery St and US-220 - Construction work.,1407.0,W 4th St,L,Williamsport,Lycoming,PA,17701-5651,US,US/Eastern,KIPT,2020-04-20 09:54:00,42.0,37.0,51.0,29.18,10.0,NNE,8.0,0.0,Mostly Cloudy,False,False,False,False,False,False,False,False,False,False,False,False,False,Day,Day,Day,Day
C-3176203,2,2021-11-10 16:08:00,2021-11-10 18:09:35,44.978261,-93.269282,44.978865,-93.267596,0.0923677866227,Slow traffic from S 7th St to 2nd Ave S due to roadwork.,499.0,Marquette Ave S,L,Minneapolis,Hennepin,MN,55401,US,US/Central,KMIC,2021-11-10 15:53:00,49.0,46.0,52.0,28.87,10.0,E,7.0,0.0,Light Rain,True,False,True,False,False,False,True,False,True,False,False,True,False,Day,Day,Day,Day
C-3176204,2,2021-02-12 08:00:00,2021-02-12 16:00:00,36.14207800000001,-85.275864,,,0.8899999856949999,Intermittent lane closures due to utility work on US-70N Holly St Northbound from Bee Rock Rd to Bishop Ave.,909.0,S Holly St,L,Monterey,Putnam,TN,38574-1507,US,US/Central,KSRB,2021-02-12 14:35:00,30.0,23.0,100.0,29.02,1.0,NNW,8.0,0.0,Fog,False,False,False,False,False,False,False,False,False,False,False,False,False,Day,Day,Day,Day
C-3176205,2,2020-10-08 16:00:00,2020-10-08 23:15:00,37.630353,-77.36495699999998,37.630419,-77.364426,0.0294117935608,Construction on VA-627 EB near AMF DR Drive with caution.,8598.0,Amf Dr,R,Mechanicsville,Hanover,VA,23111-3766,US,US/Eastern,KRIC,2020-10-08 15:54:00,75.0,75.0,37.0,29.87,10.0,N,13.0,0.0,Fair,False,False,False,False,False,False,False,False,False,False,False,False,False,Day,Day,Day,Day
C-3176206,2,2021-02-16 06:39:35,2021-02-16 13:42:32,40.242911,-79.576844,40.239427,-79.579299,0.273334630524,Slow traffic on US-119 S from Fairview St (US-119) to Burton Ave (US-119) due to roadwork.,219.0,N 4th St,R,Youngwood,Westmoreland,PA,15697-1309,US,US/Eastern,KLBE,2021-02-16 06:50:00,36.0,25.0,93.0,28.37,10.0,WSW,18.0,0.0,Cloudy,False,False,False,False,False,False,False,False,False,False,False,False,False,Night,Night,Day,Day
C-3176207,2,2021-07-05 12:14:59,2021-07-05 19:39:22,45.240149,-93.658765,45.234096,-93.643716,0.843216465675,Slow traffic on I-94 E - US-52 E from CR-19/Exit 201 (I-94) to MN-241/CR-36/Exit 205 (I-94) due to roadwork.,,I-94 E,R,Albertville,Wright,MN,55301,US,US/Central,KCFE,2021-07-05 12:15:00,89.0,,38.0,28.9,10.0,,,0.0,Fair,False,False,False,False,False,False,False,False,False,False,False,False,False,Day,Day,Day,Day
C-3176208,2,2021-06-14 15:29:30,2021-06-14 15:57:00,39.58834,-75.691001,39.584113,-75.685638,0.4084696018289999,Slow traffic on DE-71 - DE-72 from Willamette Dr to Jester St / Old Kirkwood Rd due to roadwork.,3366.0,Wrangle Hill Rd,L,Bear,New Castle,DE,19701-1846,US,US/Eastern,KILG,2021-06-14 15:51:00,80.0,80.0,69.0,29.69,10.0,S,12.0,0.0,Mostly Cloudy,False,False,False,False,False,False,False,False,False,False,False,False,False,Day,Day,Day,Day
C-3176209,2,2021-02-19 14:46:09,2021-02-20 14:00:38,32.994318,-94.391582,32.995981,-94.385118,0.391814198693,Roadwork on CR-1571/CR-1619 (TX-155) from TX-8 (TX-155) to TX-155.,1479.0,Texas Highway 155,R,Linden,Cass,TX,75563,US,US/Central,KASL,2021-02-19 14:55:00,37.0,37.0,44.0,30.08,10.0,CALM,0.0,0.0,Fair,False,False,False,False,False,False,False,False,False,False,False,False,False,Day,Day,Day,Day
C-3176210,2,2020-02-11 09:00:00,2020-02-11 13:00:00,40.63798,-74.64407,40.64265,-74.63877,0.425825450052,Ramp to I-287/Exit 29 - Construction work. Narrow lanes.,,I-287 N,R,Bedminster,Somerset,NJ,07921,US,US/Eastern,KSMQ,2020-02-11 08:53:00,44.0,44.0,93.0,29.83,5.0,N,3.0,0.03,Light Rain,False,False,False,False,False,False,False,False,False,False,False,False,False,Day,Day,Day,Day
C-3176211,3,2019-05-20 06:00:00,2019-05-20 18:00:00,30.22123,-89.786011,,,1.73000001907,Entry ramp to I-10 Westbound from Oak Harbor Blvd intermittent ramp closures due to construction.,571.0,Marina Dr,R,Slidell,St. Tammany,LA,70458-9206,US,US/Central,KASD,2019-05-20 06:06:00,70.0,70.0,87.0,29.96,10.0,CALM,0.0,0.0,Cloudy,False,False,False,False,False,False,False,False,False,False,False,False,False,Night,Day,Day,Day
C-3176212,4,2020-12-14 18:50:46,2020-12-22 07:59:00,29.652794,-82.3418,29.652819,-82.34049300000002,0.078497689383,Closed road from NW 15th St to W University Ave / NW 14th St due to roadwork.,77.0,NW 15th St,R,Gainesville,Alachua,FL,32603-1973,US,US/Eastern,KGNV,2020-12-14 18:53:00,63.0,63.0,90.0,29.81,10.0,W,3.0,0.0,Partly Cloudy,False,False,True,False,False,False,False,False,False,True,False,False,False,Night,Night,Night,Day
C-3176213,4,2018-07-08 23:00:00,2018-07-09 06:00:00,36.06519,-79.91468,36.07024000000001,-79.91754,0.383744878637,Ramp closed to Exit 103A - Closed due to roadwork.,,I-40 W,R,Greensboro,Guilford,NC,27409,US,US/Eastern,KGSO,2018-07-08 22:54:00,68.0,,61.0,30.28,10.0,ENE,6.9,,Partly Cloudy,False,False,False,False,True,False,False,False,False,False,False,False,False,Night,Night,Night,Night
C-3176214,2,2016-12-17 09:01:46,2016-12-17 15:01:46,33.825608,-84.40754,33.82399,-84.40755,0.111794626362,At Peachtree Battle Ave NW - Construction work.,2575.0,Northside Dr NW,R,Atlanta,Fulton,GA,30305-3513,US,US/Eastern,KPDK,2016-12-17 08:53:00,39.0,34.8,67.0,30.15,10.0,ESE,5.8,,Overcast,False,False,True,False,False,False,False,False,False,False,False,True,False,Day,Day,Day,Day
C-3176215,2,2021-07-23 12:33:30,2021-08-10 11:34:10,25.941135,-80.277526,25.939755,-80.27815,0.102929916101,Slow traffic on FL-847 - FL-860 from NW 185th Ter to NW 48th Pl due to roadwork.,18421.0,NW 47th Ave,R,Opa Locka,Miami-Dade,FL,33055,US,US/Eastern,KOPF,2021-08-10 10:53:00,89.0,89.0,61.0,30.14,10.0,E,13.0,0.0,Partly Cloudy,False,False,False,False,False,False,False,False,False,False,False,False,False,Day,Day,Day,Day
C-3176216,2,2018-10-09 09:00:00,2018-10-10 15:00:00,42.80999,-70.87745799999998,42.80984,-70.87705,0.0231322412044999,At US-1/Winter St - Construction work.,178.0,High St,R,Newburyport,Essex,MA,01950-3932,US,US/Eastern,KLWM,2018-10-09 08:54:00,64.9,,87.0,30.32,10.0,SSW,9.2,,Overcast,False,False,True,False,False,False,False,False,False,False,False,False,False,Day,Day,Day,Day
C-3176217,2,2021-12-21 20:57:13,2021-12-22 05:45:00,39.703813,-86.108468,39.700447,-86.12657800000002,0.990399343636,Construction on I-465 SB near US-31 Construction. Expect long delays.,,I-465 W,R,Indianapolis,Marion,IN,46227,US,US/Eastern,KIND,2021-12-21 20:54:00,36.0,28.0,79.0,28.96,10.0,W,10.0,0.0,Mostly Cloudy,False,False,False,False,False,False,False,False,False,False,False,False,False,Night,Night,Night,Night
C-3176218,2,2021-09-10 06:25:00,2021-09-10 06:45:30,36.28696,-92.48243,36.289239,-92.47581,0.400904813014,Stationary traffic on US-62 W - AR-101 - US-62 E - AR-126 - US-412 W - US-412 E from AR-345/Cotter Rd (US-412) to AR-126/Buford Rd (US-412) due to roadwork.,729.0,E Main St,L,Gassville,Baxter,AR,72635-8815,US,US/Central,KFLP,2021-09-10 05:56:00,59.0,59.0,96.0,29.33,10.0,CALM,0.0,0.0,Fair,False,False,False,False,False,False,False,False,False,False,False,False,False,Night,Day,Day,Day
C-3176219,2,2021-04-14 13:51:30,2021-04-14 18:57:53,27.996332,-82.53089399999998,27.996694,-82.541988,0.6772830006270001,Stationary traffic on FL-580 from Airport Blvd to Benjamin Rd due to roadwork.,5095.0,W Hillsborough Ave,R,Tampa,Hillsborough,FL,33634-5327,US,US/Eastern,KTPA,2021-04-14 13:53:00,84.0,84.0,49.0,30.05,10.0,SSW,7.0,0.0,Fair,False,False,False,False,False,False,False,False,False,False,False,True,False,Day,Day,Day,Day
C-3176220,2,2021-12-29 15:31:07,2021-12-29 17:46:47,25.685061,-80.427529,25.684952,-80.430929,0.2118394411609999,Slow traffic on FL-94 from 137th Ave (N Kendall Dr) to FL-997/Krome Ave (N Kendall Dr) due to roadwork.,,SW 88th St,R,Miami,Miami-Dade,FL,33186,US,US/Eastern,KTMB,2021-12-29 15:53:00,81.0,81.0,62.0,30.02,10.0,SSE,10.0,0.0,Fair,False,False,False,False,False,False,False,False,False,False,False,False,False,Day,Day,Day,Day
C-3176221,4,2018-08-04 18:49:36,2018-08-06 13:49:38,42.045196,-88.079998,42.048422,-88.095221,0.812252834448,Closed between N Plum Grove Rd and IL-58/W Golf Rd - Closed due to roadwork.,,Higgins Rd,R,Hoffman Estates,Cook,IL,60169,US,US/Central,KDPA,2018-08-04 18:52:00,88.0,,46.0,29.99,9.0,South,13.8,,Clear,False,False,True,False,False,False,False,False,False,False,False,True,False,Day,Day,Day,Day
C-3176222,2,2021-04-20 15:35:30,2021-11-30 17:12:53,26.544041,-81.886985,26.546638,-81.886423,0.1827670635469999,Slow traffic on County Hwy-869 from CR-865/Gladiolus Dr (Summerlin Rd/CR-869) to College Pkwy (Summerlin Rd/CR-869) due to roadwork.,13701.0,Summerlin Rd,L,Fort Myers,Lee,FL,33907,US,US/Eastern,KFMY,2021-11-30 14:53:00,77.0,77.0,36.0,30.09,10.0,CALM,0.0,0.0,Fair,False,False,False,False,False,False,False,False,False,False,False,False,False,Day,Day,Day,Day
C-3176223,2,2020-09-23 21:01:00,2020-09-23 21:31:30,40.513989,-78.396153,40.50862,-78.40093900000002,0.4481294107600001,Slow traffic on PA-764 from 8th St (7th Ave/6th Ave/PA-764) to 17th St (7th Ave/6th Ave/PA-764) due to roadwork.,1100.0,7th Ave,R,Altoona,Blair,PA,16602-2519,US,US/Eastern,KAOO,2020-09-23 20:53:00,60.0,60.0,67.0,28.43,10.0,CALM,0.0,0.0,Fair,False,False,True,False,False,False,False,False,False,False,False,True,False,Night,Night,Night,Night
C-3176224,2,2020-07-08 05:07:20,2020-07-08 11:11:36,40.832501,-73.950294,40.838081,-73.947934,0.404799104548,Construction construction on Henry Hudson Parkway southbound between Exit 13 - West 158th Street (New York) and 125th Street 2 lanes closed until 5:00 A.M. with the exit ramp to 125th Street all lanes closed until 5:00 A.M.,,Henry Hudson Pkwy N,R,New York,New York,NY,10031,US,US/Eastern,KNYC,2020-07-08 04:51:00,76.0,76.0,82.0,29.93,10.0,CALM,0.0,0.0,Mostly Cloudy,False,False,False,False,True,False,False,False,False,False,False,False,False,Night,Day,Day,Day
C-3176226,4,2021-03-28 20:00:00,2021-09-25 13:34:00,38.762329,-94.958256,38.777649,-94.932986,1.72440006083,Construction on I-35 NB near US-56 Expect delays.,,I-35 N,R,Edgerton,Johnson,KS,66021,US,US/Central,KIXD,2021-09-14 15:53:00,80.0,80.0,64.0,28.78,10.0,NNW,5.0,0.0,Fair,False,False,False,False,False,False,False,False,False,False,False,False,False,Night,Day,Day,Day
C-3176227,2,2018-04-24 09:03:26,2018-04-24 15:03:26,40.74338,-74.08649,40.75425,-74.10888,1.39197524823,Between CR-659/Fish House Rd and I-95/New Jersey Tpke/Eastern Spur - Construction work. Right lane blocked.,,Newark Tpke,R,Kearny,Hudson,NJ,07032,US,US/Eastern,KEWR,2018-04-24 08:51:00,54.0,,64.0,30.4,10.0,Variable,3.5,,Mostly Cloudy,False,False,False,False,False,False,False,False,False,False,False,False,False,Day,Day,Day,Day
C-3176228,2,2021-06-07 07:00:00,2021-06-07 21:45:00,42.266956,-94.47349,42.267034,-94.419972,2.73640306012,Construction on IA-175 EB near IA-4 Drive with caution.,3300.0,360th St,R,Farnhamville,Calhoun,IA,50538-7571,US,US/Central,KFOD,2021-06-07 06:56:00,71.0,71.0,78.0,28.62,10.0,SSW,7.0,0.0,Fair,False,False,False,False,False,False,False,False,False,False,False,False,False,Day,Day,Day,Day
C-3176229,2,2021-10-16 17:36:00,2021-10-16 17:56:00,40.898372,-73.548978,40.902825,-73.54865699999998,0.308129359231,Stationary traffic from Seaview Dr to W Harbor Dr due to roadwork.,944.0,W Shore Rd,L,Oyster Bay,Nassau,NY,11771-1124,US,US/Eastern,KFRG,2021-10-16 17:53:00,71.0,71.0,78.0,29.55,10.0,SSW,18.0,0.0,Fair,False,False,False,False,False,False,False,False,False,False,False,False,False,Day,Day,Day,Day
C-3176230,2,2018-12-13 00:00:03,2018-12-16 23:59:28,40.76043,-73.9628,40.75089000000001,-73.94083,1.32540067698,Between Ed Koch Queensboro Brg-Lower Level and Queensboro Brg - Construction work. Lane blocked.,,Ed Koch Queensboro Brg W,R,New York,New York,NY,10022,US,US/Eastern,KNYC,2018-12-13 00:51:00,37.0,,54.0,30.3,10.0,North,,,Clear,True,False,False,True,True,False,True,False,True,False,False,True,False,Night,Night,Night,Night
C-3176231,2,2018-11-22 06:51:15,2018-11-30 16:00:00,28.020767,-82.224106,,,3.08999991417,One lane closed due to maintenance work on Moores Lake Rd Northbound between FL-574 Dr Martin Luther King Jr Blvd and US-92.,13396.0,E US Highway 92,L,Dover,Hillsborough,FL,33527-4122,US,US/Eastern,KPCM,2018-11-22 06:55:00,55.4,,82.0,30.21,10.0,North,3.5,,Clear,False,False,False,False,False,False,False,False,False,False,False,False,False,Night,Day,Day,Day
C-3176232,3,2019-08-28 04:06:08,2019-08-28 06:00:00,41.38409,-73.48009499999998,,,0.0,Left lane closed due to construction on I-84 Eastbound at Exit 3 US-7 Exit 9.,,I-84 E,R,Danbury,Fairfield,CT,06810,US,US/Eastern,KDXR,2019-08-28 03:53:00,60.0,60.0,93.0,29.51,10.0,CALM,0.0,0.0,Cloudy,False,False,False,False,False,False,False,False,False,False,False,False,False,Night,Night,Night,Night
C-3176233,2,2020-08-28 13:02:00,2020-08-28 19:44:30,44.943369,-92.903223,44.947471,-92.903171,0.2834326148889999,Stationary traffic on CR-19 from Tamarack Rd (Woodbury Dr/CR-19) to I-94 (Keats Ave N/Woodbury Dr/CR-19) due to roadwork.,344.0,Woodbury Dr,L,Saint Paul,Washington,MN,55129,US,US/Central,KSGS,2020-08-28 12:55:00,77.0,77.0,64.0,28.83,10.0,WNW,13.0,0.0,Partly Cloudy,False,False,True,False,False,False,False,False,False,False,False,True,False,Day,Day,Day,Day
C-3176234,2,2021-09-12 18:48:38,2021-09-12 21:42:35,29.942221000000004,-95.414538,29.949321,-95.417033,0.512801047068,Roadwork on West Rd (I-45 HOV) from I-45/North Fwy Frontage/FM-1960 (I-45 HOV) to I-45 N - I-45 S.,,I-45 N,R,Houston,Harris,TX,77060,US,US/Central,KIAH,2021-09-12 18:53:00,83.0,83.0,67.0,29.91,10.0,SE,12.0,0.0,Cloudy,False,False,False,False,False,False,False,False,False,False,False,False,False,Day,Day,Day,Day
C-3176235,2,2021-10-07 07:40:30,2021-10-07 08:01:00,35.317163,-90.775707,35.324928,-90.772937,0.558774575295,Stationary traffic on AR-1 from AR-364/AR-1 Bus (AR-1) to AR-42/AR-1 (AR-1) due to roadwork.,2582.0,Highway 1,R,Wynne,Cross,AR,72396-8465,US,US/Central,KAWM,2021-10-07 07:41:00,63.0,63.0,93.0,29.85,4.0,WSW,3.0,0.0,Fair,False,False,False,False,False,False,False,False,False,False,False,False,False,Day,Day,Day,Day
C-3176236,2,2016-12-28 11:31:33,2016-12-28 17:31:33,37.99422,-122.29649,37.99261,-122.30636,0.548825579212,At Appian Way - Construction work. Left lane blocked.,,I-80 W,R,Pinole,Contra Costa,CA,94564,US,US/Pacific,KCCR,2016-12-28 11:53:00,57.0,,39.0,30.26,10.0,NE,8.1,,Clear,False,False,False,False,True,False,False,False,False,False,False,False,False,Day,Day,Day,Day
C-3176237,2,2020-09-01 13:06:30,2020-09-01 19:14:16,40.610406,-73.96785,40.608939,-73.967577,0.1023665590299999,Stationary traffic from Avenue J (Ocean Pkwy) to Kings Hwy (Ocean Pkwy) due to roadwork.,,Ocean Pkwy,R,Brooklyn,Kings,NY,11230,US,US/Eastern,KJRB,2020-09-01 12:51:00,69.0,69.0,96.0,30.03,10.0,VAR,5.0,0.09,Cloudy,False,False,False,False,False,False,False,False,False,False,False,False,False,Day,Day,Day,Day
C-3176238,3,2019-06-10 20:00:00,2019-06-10 23:00:00,41.062355,-73.861511,,,9.73999977112,Left and center lane closed due to bridge maintenance work on I-87 Southbound from Exit 12 NY-303 to Exit 9 US-9.,,I-287 E,R,Tarrytown,Westchester,NY,10591,US,US/Eastern,KHPN,2019-06-10 19:56:00,64.0,64.0,100.0,29.46,0.0,E,7.0,0.0,Light Drizzle,False,False,False,False,False,False,False,False,False,False,False,False,False,Day,Day,Day,Day
C-3176239,2,2020-10-01 10:21:30,2020-10-01 11:09:30,43.364807,-123.329161,43.314327,-123.347671,3.60973542378,Slow traffic on I-5 from Northstar Ln/Exit 135 (I-5) to Del Rio Rd/Exit 129 (I-5) due to construction work.,,I-5 S,R,Sutherlin,Douglas,OR,97479,US,US/Pacific,KRBG,2020-10-01 09:53:00,60.0,60.0,80.0,29.61,7.0,CALM,0.0,0.0,Fair,False,False,False,False,True,False,False,False,False,False,False,False,False,Day,Day,Day,Day
C-3176240,2,2021-09-15 07:34:27,2021-09-15 07:57:29,36.161272,-86.782088,36.159447,-86.780958,0.140973688971,Stationary traffic from Church St to Broadway / 7th Ave S due to roadwork.,140.0,7th Ave N,R,Nashville,Davidson,TN,37203-3719,US,US/Central,KBNA,2021-09-15 07:27:00,72.0,72.0,87.0,29.36,3.0,SSW,3.0,0.22,Light Rain,False,False,True,False,False,False,False,False,False,False,False,True,False,Day,Day,Day,Day
C-3176241,2,2020-12-10 17:27:00,2020-12-10 20:23:57,41.699692,-124.120734,41.624302,-124.111424,5.2310738746,Roadwork on Humboldt Rd/Endert Beach Rd (Redwood Hwy/US-101) from Wilson Creek Rd (Redwood Hwy/US-101) to US-101 S - US-101 N.,,US Highway 101 N,R,Klamath,Del Norte,CA,95548,US,US/Pacific,KCEC,2020-12-10 17:24:00,43.0,43.0,97.0,30.11,4.0,CALM,0.0,0.0,Mostly Cloudy,False,False,False,False,False,False,False,False,False,False,False,False,False,Night,Night,Day,Day
C-3176242,2,2021-12-08 20:53:45,2021-12-09 21:39:22,39.355483,-76.52978900000002,39.366728,-76.51718199999998,1.02821485616,Construction on US-1 NB near FLEETWOOD AVE Expect long delays.,6699.0,Belair Rd,R,Baltimore,Baltimore City,MD,21206-1845,US,US/Eastern,KMTN,2021-12-08 20:54:00,36.0,36.0,81.0,30.0,10.0,CALM,0.0,0.0,Fair,True,False,False,False,False,False,False,False,False,False,False,True,False,Night,Night,Night,Night
C-3176243,2,2018-09-06 21:36:56,2018-09-06 23:36:55,39.234971,-84.45057,39.22562,-84.45264,0.655522268577,At Davis St/Wyoming Ave/Exit 12 - Roadwork.,,I-75 S,R,Cincinnati,Hamilton,OH,45215,US,US/Eastern,KLUK,2018-09-06 21:53:00,73.0,,100.0,30.19,5.0,SE,4.6,0.0,Light Rain,False,False,True,False,False,False,False,False,True,False,False,True,False,Night,Night,Night,Night
C-3176244,2,2021-09-28 07:01:00,2021-09-28 14:46:00,37.237118,-119.160993,37.255437,-119.16141299999998,1.26593313717,Construction on CA-168 EB near SIERRA SUMMIT INN Expect long delays.,29988.0,Highway 168,R,Shaver Lake,Fresno,CA,93664,US,US/Pacific,KFAT,2021-09-28 06:53:00,60.0,60.0,69.0,29.62,10.0,NW,13.0,0.0,Partly Cloudy,False,False,False,False,False,False,False,False,False,True,False,False,False,Day,Day,Day,Day
C-3176245,2,2020-12-01 16:17:08,2020-12-03 18:38:38,45.0081,-101.198168,45.00808,-101.226898,1.40344757287,Roadwork on SD-63 (Eagle Butte) (US-212) from SD-63 (Isabel) (US-212) to US-212 W - US-212 E - SD-63.,,SD-63,R,Eagle Butte,Dewey,SD,57625,US,US/Mountain,KD07,2020-12-01 15:56:00,36.0,24.0,64.0,27.43,,NNW,25.0,0.0,,False,False,False,False,False,False,False,False,False,False,False,False,False,Night,Day,Day,Day
C-3176246,2,2020-07-26 14:00:00,2020-07-27 02:45:00,39.683416,-99.297793,39.684047,-99.282167,0.832023965155,Construction on KS-9 NB near MM 62 Construction. Drive with caution.,,KS-9,R,Glade,Phillips,KS,67639,US,US/Central,KHLC,2020-07-26 13:53:00,94.0,94.0,41.0,27.68,10.0,W,7.0,0.0,Fair,False,False,False,False,False,False,False,False,False,False,False,False,False,Day,Day,Day,Day
C-3176247,2,2021-10-20 15:30:30,2021-10-20 19:16:43,45.067469,-93.326851,45.069992,-93.328323,0.188541773152,Stationary traffic on County Hwy-152 from CR-10/58th Ave/Bass Lake Rd (Brooklyn Blvd/MN-152) to I-94/I-694/US-52 (Brooklyn Blvd/MN-152) due to roadwork.,6200.0,Brooklyn Blvd,R,Minneapolis,Hennepin,MN,55429-4034,US,US/Central,KMIC,2021-10-20 15:53:00,52.0,52.0,93.0,28.88,10.0,ENE,15.0,0.01,Cloudy,False,False,False,False,False,False,False,False,True,False,False,False,False,Day,Day,Day,Day
C-3176248,2,2021-02-17 18:15:33,2021-02-18 16:13:37,31.778103,-93.777021,31.774556,-93.774148,0.297554205143,Roadwork on Rolling Hills Rd from Robin Cir to LA-191.,5142.0,Highway 191,L,Converse,Sabine,LA,71419-9682,US,US/Central,KIER,2021-02-17 14:15:00,33.0,33.0,98.0,29.86,0.5,CALM,0.0,0.0,Light Rain,False,False,False,False,False,False,False,False,False,False,False,False,False,Night,Day,Day,Day
C-3176249,2,2021-08-16 09:00:00,2021-08-20 15:30:00,28.673544,-82.4804,,,7.610000133510001,Lane closed due to construction on US-98 Ponce De Leon Blvd both ways from Grass St to Landfill Rd.,17404.0,Ponce de Leon Blvd,R,Brooksville,Hernando,FL,34614-0841,US,US/Eastern,KBKV,2021-08-16 08:50:00,79.0,79.0,83.0,29.86,10.0,ESE,8.0,0.0,Cloudy,False,False,False,False,False,False,False,False,False,False,False,False,False,Day,Day,Day,Day
C-3176250,2,2021-11-04 17:43:00,2021-11-04 20:16:07,33.378106,-111.979571,33.379090999999995,-111.978412,0.0954118319246,Stationary traffic from S 46th Pl to E Minton St due to roadwork.,4759.0,E Baseline Rd,R,Phoenix,Maricopa,AZ,85042-6430,US,US/Mountain,KPHX,2021-11-04 17:51:00,88.0,88.0,14.0,28.69,10.0,SW,6.0,0.0,Fair,False,False,False,False,False,False,False,False,False,False,False,False,False,Night,Day,Day,Day
C-3176251,2,2020-11-20 13:48:30,2020-11-21 01:18:04,43.661868,-116.354308,43.662983,-116.355952,0.112638500396,Stationary traffic on US-20 W - ID-55 - US-20 E - US-26 E - US-26 W from W Bristol Heights Dr / W Hobble Creek Dr to S Whitepost Way due to roadwork.,6286.0,N Eagle Rd,L,Boise,Ada,ID,83713-0955,US,US/Mountain,KBOI,2020-11-20 13:53:00,45.0,45.0,46.0,27.44,10.0,VAR,3.0,0.0,Fair,False,False,True,False,False,False,False,False,False,False,False,False,False,Day,Day,Day,Day
C-3176252,2,2021-07-08 19:03:26,2021-07-08 21:20:28,40.703397,-73.937678,40.701317,-73.936739,0.151897901147,Slow traffic from Grand St (Bushwick Ave) to Myrtle Ave (Bushwick Ave) due to roadwork.,140.0,Varet St,R,Brooklyn,Kings,NY,11206-3703,US,US/Eastern,KJRB,2021-07-08 18:57:00,72.0,72.0,97.0,29.87,3.0,VAR,3.0,0.0,Partly Cloudy,False,False,False,False,False,False,False,False,False,False,False,True,False,Day,Day,Day,Day
C-3176253,2,2021-10-08 18:51:00,2021-10-08 19:14:00,36.827394,-78.965749,36.835229,-78.971905,0.639498233602,Stationary traffic on US-501 N - US-501 S from VA-360/Bethel Rd (Main St/L P Bailey Memorial Hwy/US-501) to Liberty Rd/Meadville Rd (L P Bailey Memorial Hwy/US-501) due to roadwork.,5129.0,L.P. Bailey Memorial Hwy,L,Halifax,Halifax,VA,24558,US,US/Eastern,KDAN,2021-10-08 18:53:00,70.0,70.0,81.0,29.45,10.0,N,5.0,0.0,Cloudy,False,False,False,False,False,False,False,False,False,False,False,False,False,Night,Day,Day,Day
C-3176254,4,2019-10-07 15:03:53,2019-10-07 20:02:09,37.19124,-89.55105999999998,37.18488,-89.55348000000002,0.459179845647,Closed at Messmer St - Closed due to roadwork.,193.0,S Highway 61,L,Scott City,Scott,MO,63780,US,US/Central,KCGI,2019-10-07 14:53:00,72.0,72.0,41.0,29.81,10.0,ENE,10.0,0.0,Fair,False,False,False,False,False,False,False,False,False,False,False,False,False,Day,Day,Day,Day
C-3176255,2,2020-08-19 04:15:04,2020-09-19 23:59:00,37.97861500000001,-85.69757800000002,,,6.099999904630001,Left hand shoulder closed and right hand shoulder closed due to new ramp construction on I-65 Northbound from Exit 112 KY-245 Clermont Rd to Exit 116 KY-480 Cedar Grove Rd.,,I-65 N,R,Shepherdsville,Bullitt,KY,40165,US,US/Eastern,KSDF,2020-08-19 03:56:00,67.0,67.0,87.0,29.43,10.0,NNE,6.0,0.0,Partly Cloudy,False,False,False,False,False,False,False,False,False,False,False,False,False,Night,Night,Night,Night
C-3176256,2,2019-01-23 08:31:40,2019-01-29 08:30:28,41.803901,-70.766131,41.78495,-70.73546999999998,2.05159240167,At I-195 - Construction work.,,I-495 S,R,West Wareham,Plymouth,MA,02576,US,US/Eastern,KPYM,2019-01-23 08:52:00,28.0,22.8,72.0,30.37,10.0,SSW,4.6,,Partly Cloudy,False,False,False,False,True,False,False,False,False,False,False,False,False,Day,Day,Day,Day
C-3176257,2,2021-04-02 05:47:30,2021-04-02 18:04:59,33.479169,-111.986926,33.48033,-111.987795,0.0945666466972,Slow traffic from E Wilshire Dr to N 42nd St due to roadwork.,2773.0,N 44th St,R,Phoenix,Maricopa,AZ,85008-1557,US,US/Mountain,KPHX,2021-04-02 05:51:00,73.0,73.0,19.0,28.64,10.0,SE,6.0,0.0,Mostly Cloudy,True,False,False,False,False,False,False,False,True,False,False,False,False,Night,Night,Day,Day
C-3176258,2,2019-05-06 09:59:36,2019-05-10 10:01:45,40.44002,-80.08429,40.44049,-80.08051999999998,0.200890579031,At Ingram Ave/W Steuben St/Woodmere Dr - Roadwork. Open.,4012.0,Steubenville Pike,L,Pittsburgh,Allegheny,PA,15205,US,US/Eastern,KPIT,2019-05-06 09:51:00,60.0,60.0,67.0,28.77,10.0,WNW,5.0,0.0,Fair,False,False,False,False,False,False,False,False,False,False,False,False,False,Day,Day,Day,Day
C-3176259,2,2021-09-21 17:52:40,2021-09-21 19:55:21,25.926761,-80.15597,25.926032,-80.15477800000002,0.0895738428288999,Slow traffic on FL-826 - FL-909 from NE 164th St to Biscayne Blvd due to roadwork.,16360.0,W Dixie Hwy,L,North Miami Beach,Miami-Dade,FL,33160-3709,US,US/Eastern,KHWO,2021-09-21 17:53:00,78.0,78.0,84.0,30.01,10.0,N,3.0,0.01,Light Rain,False,False,False,False,False,False,False,False,False,False,False,False,False,Day,Day,Day,Day
C-3176260,4,2021-09-24 09:45:01,2021-09-24 23:59:00,45.517934,-122.657698,45.517919,-122.655668,0.0982834418025,Closed road from SE 7th Ave to SE 11th Ave due to roadwork.,798.0,SE Alder St,R,Portland,Multnomah,OR,97214-2250,US,US/Pacific,KPDX,2021-09-24 09:53:00,65.0,65.0,65.0,30.01,10.0,W,6.0,0.0,Fair,False,False,False,False,False,False,False,False,False,True,False,False,False,Day,Day,Day,Day
C-3176261,2,2021-06-20 17:55:52,2021-06-20 20:01:03,40.808476,-73.94506,40.808125,-73.946309,0.0696755924289,Slow traffic from W 126th St to Adam Clayton Powell Jr Blvd due to roadwork.,,W 126th St,R,New York,New York,NY,10027,US,US/Eastern,KNYC,2021-06-20 17:51:00,85.0,85.0,55.0,29.67,10.0,CALM,0.0,0.0,Mostly Cloudy,True,False,False,False,False,False,True,False,True,False,False,True,False,Day,Day,Day,Day
C-3176262,2,2020-09-03 11:13:00,2020-09-04 01:41:30,40.703346,-74.143718,40.706867,-74.152466,0.51878177543,Queuing traffic on I-78 from Avenue/Exit 14A (I-78) to I-95/New Jersey Tpke (I-78) due to roadwork.,,Casciano Memorial Bridge,R,Newark,Essex,NJ,07114,US,US/Eastern,KEWR,2020-09-03 10:51:00,81.0,81.0,50.0,29.82,10.0,NNW,3.0,0.0,Mostly Cloudy,False,False,False,False,True,False,False,False,False,False,False,False,False,Day,Day,Day,Day
C-3176263,3,2017-06-26 10:00:00,2017-06-26 14:00:00,40.08358,-75.39475300000002,,,6.82000017166,Intermittent lane closures due to construction on I-76 Westbound from Exits 331A 331B I-476 to Exits 327 328A 328B 328B-A US-202.,,Schuylkill Expy W,R,King of Prussia,Montgomery,PA,19406,US,US/Eastern,KLOM,2017-06-26 09:55:00,71.6,,46.0,30.08,10.0,West,5.8,,Clear,False,False,False,False,False,False,False,False,False,False,False,False,False,Day,Day,Day,Day
C-3176264,2,2020-09-04 03:30:00,2020-09-04 07:50:45,41.42587,-75.611611,41.43782,-75.629271,1.2323300953799998,Roadwork on I-84 westbound between .2 miles west of Exit 1: TIGUE ST and (End of I - 084). There is a lane restriction.,,Grand Army of the Republic Hwy N,R,Scranton,Lackawanna,PA,18512,US,US/Eastern,KAVP,2020-09-04 03:54:00,69.0,69.0,90.0,28.82,9.0,WSW,10.0,0.0,Cloudy,False,False,False,False,False,False,False,False,False,False,False,False,False,Night,Night,Night,Night
C-3176265,2,2021-12-27 19:00:00,2021-12-28 08:00:00,38.635792,-75.19407700000002,,,0.0,Intermittent lane closures due to water main work on DE-23 Long Neck Rd both ways at DE-24 John J Williams Hwy.,,John J Williams Hwy,R,Millsboro,Sussex,DE,19966,US,US/Eastern,KGED,2021-12-27 18:54:00,43.0,43.0,89.0,29.84,10.0,CALM,0.0,0.0,Cloudy,False,False,False,False,False,False,False,False,False,False,False,True,False,Night,Night,Night,Night
C-3176266,2,2021-06-29 20:24:30,2021-06-29 22:19:30,34.731029,-92.262984,34.746394,-92.262535,1.06192644208,Stationary traffic on I-30 E - US-65 N - US-167 N from exit [139B] to Cantrell Rd (AR-10) exit [141A] due to roadwork.,,I-30 E,R,Little Rock,Pulaski,AR,72206,US,US/Central,KLIT,2021-06-29 20:53:00,83.0,83.0,65.0,29.83,10.0,CALM,0.0,0.0,Partly Cloudy,False,False,False,False,False,False,False,False,False,False,False,False,False,Day,Day,Day,Day
C-3176267,2,2020-05-24 13:34:25,2020-07-20 17:06:23,41.39094,-75.73233,41.48488,-75.68191999999998,6.996159850010001,Between Keyser Avenue Toll Plaza and Clarks Summit Toll Plaza - Roadwork. Right lane closed.,,NE Extension Penn Tpke N,R,Taylor,Lackawanna,PA,18517,US,US/Eastern,KAVP,2020-05-24 13:54:00,76.0,76.0,45.0,29.16,10.0,SW,8.0,0.0,Fair,False,False,False,False,False,False,False,False,False,False,False,False,False,Day,Day,Day,Day
C-3176268,2,2016-11-22 09:00:53,2016-11-22 15:00:53,39.512932,-76.64179,39.517335,-76.642667,0.307788907736,At Loveton Cir - Construction work.,14189.0,York Rd,R,Sparks Glencoe,Baltimore County,MD,21152,US,US/Eastern,KDMW,2016-11-22 09:00:00,32.0,22.5,55.0,30.15,10.0,WNW,12.7,,,False,False,False,False,False,False,False,False,False,False,False,False,False,Day,Day,Day,Day
C-3176269,4,2019-09-07 16:38:09,2019-09-07 21:22:03,37.68594,-95.47938,37.882541,-95.394449,14.3537207627,Closed between 35th St and Minnesota Rd - Closed. Resurfacing work.,,US-169 N,R,Chanute,Neosho,KS,66720,US,US/Central,KCNU,2019-09-07 16:52:00,93.0,93.0,50.0,28.86,10.0,S,13.0,0.0,Fair,False,False,False,True,True,False,False,False,False,False,False,False,False,Day,Day,Day,Day
C-3176270,2,2021-08-04 17:49:00,2021-08-04 18:27:00,36.970161,-104.477729,36.991258,-104.481712,1.47414835581,Slow traffic on US-85 N - I-25 N - US-87 W from I-25/Exit 454 (I-25) to Exit 460 (I-25) due to roadwork.,,I-25 N,R,Raton,Colfax,NM,87740,US,US/Mountain,KRTN,2021-08-04 17:53:00,66.0,66.0,70.0,23.95,10.0,SSW,13.0,0.0,Fair,False,False,False,False,False,False,False,False,False,False,False,False,False,Day,Day,Day,Day
C-3176271,2,2020-10-21 14:16:00,2020-10-21 22:31:10,33.507728,-112.047533,33.509223,-112.04808,0.107994670033,Stationary traffic from E Pierson St to N 15th St due to roadwork.,4834.0,N 16th St,L,Phoenix,Maricopa,AZ,85016-4606,US,US/Mountain,KPHX,2020-10-21 13:51:00,91.0,91.0,11.0,28.59,10.0,CALM,0.0,0.0,Partly Cloudy,True,False,False,False,False,False,False,False,False,False,False,False,False,Day,Day,Day,Day
C-3176272,2,2020-09-25 12:35:30,2020-09-26 03:36:47,43.596815,-116.354659,43.599712,-116.354705,0.200176869725,Slow traffic on ID-55 from Boise City to E Saint Lukes St due to roadwork.,,S Eagle Rd,R,Meridian,Ada,ID,83642,US,US/Mountain,KMAN,2020-09-25 12:35:00,72.0,72.0,33.0,27.32,10.0,SE,8.0,0.0,Fair,False,False,True,False,False,False,False,False,False,False,False,False,False,Day,Day,Day,Day
C-3176273,2,2021-05-13 06:19:40,2021-05-13 13:17:27,40.611551,-74.030996,40.602301,-74.062016,1.7481759128299998,MTA Bridges &amp; Tunnels: Roadwork roadwork on Verrazano-Narrows Bridge Lower Level westbound (Kings/Richmond) right lane blocked,,I-278 W,R,Brooklyn,Kings,NY,11209,US,US/Eastern,KJRB,2021-05-13 05:51:00,51.0,51.0,48.0,30.1,10.0,VAR,3.0,0.0,Fair,False,False,False,False,False,False,False,False,False,False,False,False,False,Day,Day,Day,Day
C-3176274,2,2021-11-05 15:02:42,2021-11-05 15:27:42,27.822991,-82.679488,27.835604,-82.681248,0.878085439237,Stationary traffic on US-19 N from 54th Ave (US-19) to FL-694/Gandy Blvd/Park Blvd (US-19) due to roadwork.,5613.0,34th St N,R,Saint Petersburg,Pinellas,FL,33714-1203,US,US/Eastern,KSPG,2021-11-05 14:53:00,69.0,69.0,96.0,29.84,0.75,NNE,20.0,0.68,Heavy Rain,False,False,True,False,False,False,False,False,False,False,False,True,False,Day,Day,Day,Day
C-3176275,2,2020-10-06 13:06:00,2020-10-07 03:27:40,26.25963,-80.188592,26.260823,-80.18628100000002,0.165225260027,Stationary traffic from NW 48th Ter to NW 25th Ct due to roadwork.,4848.0,W Copans Rd,R,Coconut Creek,Broward,FL,33063-3879,US,US/Eastern,KFXE,2020-10-06 12:53:00,89.0,89.0,67.0,29.92,10.0,ESE,15.0,0.0,Mostly Cloudy,False,False,False,False,False,False,False,False,False,False,False,False,False,Day,Day,Day,Day
C-3176276,2,2020-04-10 20:01:00,2020-04-11 06:59:00,37.85499,-122.49372,37.81377,-122.4779,2.97599339125,Between Monte Mar/Spencer Ave and Golden Gate Br South Tower - Bridge maintenance work. Lane closed.,,CA-1 S,R,Sausalito,Marin,CA,94965,US,US/Pacific,KSFO,2020-04-10 19:56:00,56.0,56.0,75.0,30.01,10.0,W,23.0,0.0,Mostly Cloudy / Windy,False,False,False,False,True,False,False,False,False,False,False,False,False,Night,Day,Day,Day
C-3176277,4,2019-04-19 12:56:56,2019-04-19 14:56:23,43.60812,-116.59906,43.610631,-116.595789,0.238491683026,At I-84/US-30 - Roadwork.,,ID-55,R,Nampa,Canyon,ID,83687,US,US/Mountain,KMAN,2019-04-19 12:55:00,73.0,73.0,41.0,27.29,10.0,ESE,9.0,0.0,Fair,False,False,False,False,False,False,False,False,False,False,False,False,False,Day,Day,Day,Day
C-3176278,2,2020-12-25 04:00:00,2020-12-25 14:45:00,39.701366,-75.601771,39.708274,-75.607331,0.561394161344,Construction on DE-141 NB near COMMONS BOULEVARD Construction. Expect long delays.,,DE-141 N,R,New Castle,New Castle,DE,19720,US,US/Eastern,KILG,2020-12-25 03:51:00,54.0,54.0,93.0,29.38,10.0,S,15.0,0.07,Light Rain,False,False,False,False,True,False,False,False,False,False,False,False,False,Night,Night,Night,Night
C-3176279,2,2020-10-19 07:00:00,2020-10-23 01:15:00,43.173611,-74.510217,43.188862,-74.522315,1.21733252062,Construction on NY-10 WB near NY-29A Drive with caution.,1479.0,State Highway 10,R,Caroga Lake,Fulton,NY,12032-5310,US,US/Eastern,KSCH,2020-10-19 07:47:00,48.0,45.0,93.0,29.91,15.0,SSE,8.0,0.0,Mostly Cloudy,False,False,False,False,False,False,False,False,False,False,False,False,False,Night,Day,Day,Day
C-3176280,2,2020-10-27 18:01:30,2020-10-28 03:13:30,26.681712,-80.244632,26.681772,-80.246946,0.142917182081,Stationary traffic on US-98 from Royal Palm Beach Blvd (US-98) to FL-882/Forest Hill Blvd/Crestwood Blvd (US-98) due to resurfacing work.,11959.0,Southern Blvd,R,Royal Palm Beach,Palm Beach,FL,33411-7619,US,US/Eastern,KPBI,2020-10-27 17:53:00,80.0,80.0,85.0,30.02,10.0,ENE,10.0,0.0,Mostly Cloudy,False,False,False,False,False,False,False,False,False,False,False,True,False,Day,Day,Day,Day
C-3176281,4,2021-05-09 23:23:20,2021-05-16 23:59:00,40.46878,-79.896077,40.46826400000001,-79.895673,0.0414974216217,Closed road from Lincoln Ave to Grotto St / Elrod Way due to roadwork.,7099.0,Lemington Ave,L,Pittsburgh,Allegheny,PA,15206-1256,US,US/Eastern,KAGC,2021-05-09 23:19:00,40.0,32.0,93.0,28.49,10.0,NNW,14.0,0.0,Cloudy,False,False,False,False,False,False,False,False,False,False,False,False,False,Night,Night,Night,Night
C-3176282,2,2021-05-14 16:08:00,2021-05-14 19:45:00,36.999431,-120.104953,37.015961,-120.12506299999998,1.59234516096,Slow traffic on CA-99 N from Avenue 17 (CA-99) to Road 23/Exit 159 (CA-99) due to roadwork.,,CA-99 N,R,Madera,Madera,CA,93638,US,US/Pacific,KMAE,2021-05-14 15:53:00,92.0,92.0,18.0,29.53,10.0,W,8.0,0.0,Fair,False,False,False,False,False,False,False,False,False,False,False,False,False,Day,Day,Day,Day
C-3176283,2,2021-10-05 17:57:00,2021-10-05 20:53:22,33.464069,-112.012918,33.466192,-112.01292,0.1466853750009999,Stationary traffic from AZ-202/Red Mountain Fwy (N 32nd St) to E Thomas Rd (N 32nd St) due to roadwork.,1411.0,N 32nd St,R,Phoenix,Maricopa,AZ,85008-4804,US,US/Mountain,KPHX,2021-10-05 17:51:00,80.0,80.0,47.0,28.66,10.0,E,14.0,0.0,Mostly Cloudy,True,False,False,False,False,False,False,False,True,True,False,False,False,Day,Day,Day,Day
C-3176284,2,2020-05-11 14:16:02,2020-05-22 07:16:23,39.9866,-104.98784,39.89768,-104.98772,6.1437901549300005,Between E-470/Northwest Pky and CO-128/120th Ave/Exit 223 - Construction work.,,I-25 S,R,Broomfield,Broomfield,CO,80023,US,US/Mountain,KEIK,2020-05-12 14:24:00,63.0,63.0,58.0,24.73,10.0,NNE,8.0,0.0,Fair,False,False,False,False,False,False,False,False,False,False,False,False,False,Day,Day,Day,Day
C-3176285,2,2021-05-29 13:18:46,2021-05-29 20:26:57,25.795313,-80.129245,25.792313,-80.13075500000002,0.22757218598,Stationary traffic on FL-A1A from 20th St to Washington Ave due to roadwork.,1946.0,Collins Ave,L,Miami Beach,Miami-Dade,FL,33139-1912,US,US/Eastern,KMIA,2021-05-29 12:53:00,86.0,86.0,57.0,29.95,10.0,ESE,12.0,0.0,Mostly Cloudy,True,False,True,False,False,False,False,False,True,False,False,True,False,Day,Day,Day,Day
C-3176286,2,2019-04-10 10:33:03,2019-07-13 01:14:26,40.337867,-76.906657,40.323148,-76.898841,1.09715166895,Between PA-443/Fishing Creek Valley Rd and I-81 - Roadwork. Open. Traffic problem.,5233.0,N Front St,R,Harrisburg,Dauphin,PA,17110-1717,US,US/Eastern,KCXY,2019-04-10 10:56:00,58.0,58.0,36.0,29.5,10.0,NNW,12.0,0.0,Fair,False,False,False,False,False,False,False,False,False,False,False,False,False,Day,Day,Day,Day
C-3176287,2,2021-08-20 09:21:28,2021-08-20 09:46:30,25.94739,-80.149336,25.948393,-80.146698,0.177943692597,Slow traffic on US-1 N - FL-860 - FL-5 from NE 25th Ct to NE 187th St due to roadwork.,2564.0,NE Miami Gardens Dr,R,Miami,Miami-Dade,FL,33180-2706,US,US/Eastern,KHWO,2021-08-20 08:53:00,83.0,83.0,72.0,29.99,10.0,CALM,0.0,0.0,Fair,False,False,True,False,False,False,False,False,True,False,False,True,False,Day,Day,Day,Day
C-3176288,2,2020-11-14 17:49:00,2020-11-14 18:12:30,33.450383,-112.075059,33.45037,-112.07255,0.144644205184,Stationary traffic from N 1st Ave (W Monroe St) to N 3rd St (E Monroe St) due to roadwork.,59.0,W Monroe St,L,Phoenix,Maricopa,AZ,85003-1707,US,US/Mountain,KPHX,2020-11-14 17:51:00,71.0,71.0,18.0,28.83,10.0,CALM,0.0,0.0,Fair,False,False,True,False,False,False,True,False,False,False,False,True,False,Night,Day,Day,Day
C-3176289,2,2021-04-15 21:38:00,2021-04-16 23:04:53,28.157909000000004,-81.796415,28.157671,-81.801775,0.326925232504,Construction on I-4 WB near FL-559 Expect long delays.,,I-4 W,R,Polk City,Polk,FL,33868,US,US/Eastern,KGIF,2021-04-15 21:53:00,72.0,72.0,78.0,29.74,10.0,SSW,7.0,0.0,Fair,False,False,False,False,False,False,False,False,False,False,False,False,False,Night,Night,Night,Night
C-3176290,2,2021-10-30 15:16:02,2021-10-30 17:44:49,28.25979,-81.605851,28.260776,-81.612188,0.3916274117670001,Slow traffic from CR-545/S Lake Wilson Rd (Osceola Polk Line Rd/CR-532) to I-4 (Osceola Polk Line Rd/CR-532) due to roadwork.,7949.0,Osceola Polk Line Rd,R,Davenport,Osceola,FL,33896,US,US/Eastern,KISM,2021-10-30 14:56:00,71.0,71.0,57.0,29.69,10.0,W,14.0,0.0,Fair,False,False,False,False,False,False,False,False,False,False,False,True,False,Day,Day,Day,Day
C-3176291,4,2020-12-03 22:15:00,2020-12-04 17:45:00,37.390998,-77.424516,37.391165,-77.421657,0.157369403166,On Rt. 608 (Reymet Rd) in the County of Chesterfield from Friend Ave; Rt. 1410N/S (Chesterfield County) to Jean Dr; Rt. 1467N/S (Chesterfield County) motorists can expect potential delays in this area from 12/03/20 at 2:15 PM until 12/04/20 at 9:00 AM due to bridge work. All east lanes are closed. All west lanes are closed.,2382.0,Reymet Rd,R,North Chesterfield,Chesterfield,VA,23237-3716,US,US/Eastern,KFCI,,,,,,,,,,,False,False,False,False,False,False,False,False,False,False,False,False,False,Night,Night,Night,Night
C-3176292,1,2021-08-11 08:00:00,2021-08-13 17:00:00,28.003389,-82.42031899999998,,,0.409999996424,Road closed due to utility work on Hanna Ave both ways between 34th St and 36th St.,3499.0,E Hanna Ave,R,Tampa,Hillsborough,FL,33610-3740,US,US/Eastern,KVDF,2021-08-11 07:55:00,79.0,79.0,94.0,30.11,10.0,CALM,0.0,0.0,Fair,False,False,False,False,False,False,False,False,True,False,False,False,False,Day,Day,Day,Day
C-3176293,2,2021-10-18 18:05:30,2021-10-18 18:26:00,28.544038,-81.285829,28.539198,-81.285854,0.334415593271,Slow traffic on FL-551 from Valencia College Ln (N Goldenrod Rd/FL-551) to Lake Underhill Rd (S Goldenrod Rd/FL-551) due to roadwork.,95.0,S Goldenrod Rd,L,Orlando,Orange,FL,32807,US,US/Eastern,KORL,2021-10-18 17:53:00,77.0,77.0,54.0,29.95,10.0,ENE,13.0,0.0,Fair,False,False,True,False,False,False,False,False,False,False,False,True,False,Day,Day,Day,Day
C-3176294,3,2021-07-12 07:00:00,2021-07-12 18:00:00,34.747719000000004,-89.454422,,,0.0,Left lane closed and left hand shoulder closed due to bridge maintenance work on I-22 both ways at Exit 30 MS-4.,,Craft St,R,Holly Springs,Marshall,MS,38635,US,US/Central,KOLV,2021-07-12 06:50:00,73.0,73.0,100.0,29.55,10.0,S,9.0,0.0,Cloudy,False,False,False,False,False,False,False,False,False,False,False,False,False,Day,Day,Day,Day
C-3176295,2,2021-10-25 14:27:30,2021-10-25 14:48:00,40.165633,-76.308058,40.160186,-76.307611,0.377091236132,Stationary traffic on PA-501 from Newport Rd (Furnace Hills Pike/PA-501) to Lincoln Ave (N Broad St/PA-501) due to roadwork.,419.0,N Broad St,L,Lititz,Lancaster,PA,17543-1028,US,US/Eastern,KLNS,2021-10-25 14:53:00,67.0,67.0,70.0,29.37,10.0,S,6.0,0.0,Partly Cloudy,False,False,False,False,False,False,False,False,False,False,False,True,False,Day,Day,Day,Day
C-3176296,2,2021-04-02 06:41:30,2021-12-22 06:10:30,44.700256,-88.24375500000002,44.715889,-88.23012800000002,1.2706134625299998,Slow traffic on WI-32 - County Hwy-S from Deer Dr / S Chase Rd to Safian Rd due to roadwork.,879.0,State Highway 32,L,Pulaski,Shawano,WI,54162,US,US/Central,KGRB,2021-08-30 12:53:00,81.0,81.0,50.0,29.2,10.0,W,8.0,0.0,Fair,False,False,False,False,False,False,False,False,False,False,False,False,False,Day,Day,Day,Day
C-3176297,2,2018-01-02 08:57:02,2018-02-01 00:00:00,30.037741,-89.91583299999998,,,0.0,Restrictions due to paving repairs on Peltier St both ways between Henri Dr and Palace St.,4801.0,Palace St,R,New Orleans,Orleans,LA,70129-1640,US,US/Central,KNEW,2018-01-02 08:53:00,26.1,15.6,60.0,30.59,10.0,NE,11.5,,Mostly Cloudy,False,False,True,False,False,False,False,False,False,False,False,False,False,Day,Day,Day,Day
C-3176298,2,2020-08-29 07:36:30,2020-08-29 08:19:30,44.190477,-69.828811,44.205417,-69.824911,1.05017790359,Queuing traffic on I-295 from US-201/Exit 49 (I-295) to ME-9/ME-126/Exit 51 (I-295) due to bridge maintenance work.,,I-295 N,R,Gardiner,Kennebec,ME,04345,US,US/Eastern,KAUG,2020-08-29 07:53:00,60.0,60.0,69.0,29.4,10.0,ESE,6.0,0.0,Cloudy,False,False,False,False,False,False,False,False,False,False,False,False,False,Day,Day,Day,Day
C-3176299,2,2021-11-05 18:03:01,2021-11-05 20:10:20,41.908274,-87.837841,41.907853,-87.83503,0.14744099164,Slow traffic on IL-171 - IL-64 from N 5th Ave to Braddock Dr due to roadwork.,8607.0,W North Ave,L,Melrose Park,Cook,IL,60160-1609,US,US/Central,KORD,2021-11-05 17:51:00,48.0,45.0,48.0,29.51,10.0,S,7.0,0.0,Fair,False,False,False,False,False,False,False,False,False,False,False,False,False,Night,Day,Day,Day
C-3176300,2,2018-07-06 11:03:38,2018-10-09 16:09:48,40.16205,-78.25578,40.14424,-78.295362,2.42562950319,Between Six Mile Run Rd and N Woodcock Valley Rd - Roadwork. Lane blocked.,,Six Mile Run Rd,R,Saxton,Bedford,PA,16678,US,US/Eastern,KAOO,2018-07-06 10:53:00,75.0,,82.0,30.17,10.0,NW,5.8,,Mostly Cloudy,False,False,False,False,False,False,False,False,False,True,False,False,False,Day,Day,Day,Day
C-3176301,2,2021-11-23 11:18:00,2021-11-23 14:39:18,28.593083,-81.363816,28.593725,-81.365094,0.0893243435266,Slow traffic on FL-424A - US-92 E - FL-426 - US-17 N - US-92 W - US-17 S from Ward Ave to W Comstock Ave due to roadwork.,1077.0,W Fairbanks Ave,R,Winter Park,Orange,FL,32789-4753,US,US/Eastern,KORL,2021-11-23 10:53:00,63.0,63.0,54.0,30.01,10.0,N,16.0,0.0,Fair,False,False,True,False,False,False,False,False,False,False,False,False,False,Day,Day,Day,Day
C-3176302,3,2019-10-17 17:11:49,2019-10-21 17:11:08,34.06705,-118.39577,34.06707,-118.39919,0.19575124754,At Beverly Dr - Roadwork.,9348.0,Wilshire Blvd,L,Beverly Hills,Los Angeles,CA,90212-3201,US,US/Pacific,KSMO,2019-10-17 16:51:00,68.0,68.0,70.0,29.58,10.0,WSW,12.0,0.0,Fair,False,False,False,False,False,False,False,False,True,False,False,True,False,Day,Day,Day,Day
C-3176303,2,2020-05-27 14:28:10,2020-05-27 15:28:10,39.83181,-75.42732,39.83912,-75.40878000000002,1.10574876185,Between I-495/SR-92/Naamans Rd/Exit 11 and PA-452/Market St/Exit 2 - Roadwork. Right lane closed.,,I-95 N,R,Marcus Hook,Delaware,PA,19061,US,US/Eastern,KPHL,2020-05-27 14:54:00,81.0,81.0,50.0,30.18,10.0,S,6.0,0.0,Mostly Cloudy,False,False,False,False,True,False,False,False,False,False,False,False,False,Day,Day,Day,Day
C-3176304,2,2021-11-13 14:33:04,2021-11-13 16:42:14,25.685064,-80.427401,25.68402,-80.43001,0.177748089321,Slow traffic on FL-94 from N Kendall Dr to SW 90th Ter due to roadwork.,,SW 88th St,R,Miami,Miami-Dade,FL,33186,US,US/Eastern,KTMB,2021-11-13 14:53:00,86.0,86.0,53.0,29.93,10.0,W,8.0,0.0,Fair,False,False,False,False,False,False,False,False,False,False,False,False,False,Day,Day,Day,Day
C-3176305,2,2021-06-17 14:21:30,2021-06-17 15:06:34,40.273209,-76.816406,40.285563,-76.820944,0.886463642852,Slow traffic on US-322 W - I-83 N from US-322/Derry St/Exit 47 (I-83) to US-22/Jonestown Rd/Exit 50 (I-83) due to roadwork.,,I-83 N,R,Harrisburg,Dauphin,PA,17109,US,US/Eastern,KCXY,2021-06-17 13:56:00,77.0,77.0,25.0,29.64,10.0,NNW,10.0,0.0,Fair,False,False,False,False,False,False,False,False,False,False,False,False,False,Day,Day,Day,Day
C-3176306,2,2021-11-30 13:29:00,2021-11-30 13:49:30,41.868543,-87.833557,41.871018,-87.833653,0.171077532137,Slow traffic on IL-171 from Roosevelt Rd (1st Ave/IL-171) to I-290/Eisenhower Expy/Harrison St (S 1st Ave/IL-171) due to roadwork.,1930.0,S 1st Ave,R,Maywood,Cook,IL,60153-3302,US,US/Central,KORD,2021-11-30 13:51:00,52.0,52.0,40.0,29.28,10.0,W,10.0,0.0,Fair,False,False,False,False,False,False,False,False,False,False,False,True,False,Day,Day,Day,Day
C-3176307,2,2020-09-29 13:40:00,2020-10-06 11:12:58,42.359699,-76.600318,42.360118,-76.599559,0.0483707614227,Roadwork on NY-13 from Main St (Newfield) (South) (Elmira Rd/NY-13) to Main St (Newfield) (North) (Elmira Rd/NY-13).,1868.0,Elmira Rd,L,Newfield,Tompkins,NY,14867-9460,US,US/Eastern,KITH,2020-09-29 13:27:00,57.0,57.0,88.0,28.72,2.0,CALM,0.0,0.0,Rain,False,False,False,False,False,False,False,False,False,False,False,False,False,Day,Day,Day,Day
C-3176308,2,2018-08-16 21:00:00,2018-08-19 08:00:00,43.03142,-88.04731,43.028,-88.04729,0.236301653961,At Zoo Fwy - Ramps closed. Construction work.,101.0,N Mayfair Rd,L,Milwaukee,Milwaukee,WI,53226-4215,US,US/Central,KMWC,2018-08-16 20:55:00,73.4,,73.0,29.95,10.0,NE,5.8,,Clear,False,False,True,False,False,False,False,False,False,False,False,True,False,Night,Night,Night,Day
C-3176309,3,2019-12-15 22:30:00,2019-12-16 17:30:00,25.81357,-80.206734,,,0.40000000596,Entry ramp to I-95 Northbound from Airport Expy Eastbound closed due to construction work.,,NW 7th Ave,R,Miami,Miami-Dade,FL,33127,US,US/Eastern,KMIA,2019-12-15 22:53:00,74.0,74.0,68.0,30.14,10.0,E,8.0,0.0,Partly Cloudy,False,False,False,False,False,False,False,False,False,False,False,False,False,Night,Night,Night,Night
C-3176310,2,2021-07-12 17:17:44,2021-07-12 20:00:50,40.321888,-75.934321,40.32324600000001,-75.93011,0.2408539926689999,Slow traffic from Crestmont St to US-422 E due to roadwork.,2.0,Crestmont St,R,Reading,Berks,PA,19611-1648,US,US/Eastern,KRDG,2021-07-12 17:10:00,88.0,88.0,61.0,29.7,10.0,NNW,6.0,0.0,Thunder in the Vicinity,False,False,False,False,False,False,False,False,False,False,False,False,False,Day,Day,Day,Day
C-3176311,4,2020-04-28 05:04:12,2020-04-28 07:03:07,32.961490000000005,-97.03942,32.95003,-97.04032,0.793527920396,At I-635 - Roadwork.,,TX-121 S,R,Grapevine,Tarrant,TX,76051,US,US/Central,KDFW,2020-04-28 05:01:00,68.0,68.0,96.0,29.22,3.0,SSE,23.0,0.04,T-Storm / Windy,False,False,False,False,False,False,False,False,False,False,False,False,False,Night,Night,Night,Night
C-3176312,2,2021-05-02 17:08:15,2021-05-03 07:50:00,25.685419,-80.411775,25.685678,-80.403669,0.5050457244659999,Stationary traffic on FL-94 from 137th Ave (N Kendall Dr) to 130th Ave/132nd Ave (N Kendall Dr) due to roadwork.,13406.0,SW 88th St,R,Miami,Miami-Dade,FL,33186,US,US/Eastern,KTMB,2021-05-02 16:53:00,87.0,87.0,53.0,29.93,10.0,SE,14.0,0.0,Fair,False,False,True,False,False,False,False,False,False,False,False,True,False,Day,Day,Day,Day
C-3176313,2,2020-09-25 21:42:48,2020-09-26 02:33:27,44.145775,-122.570473,44.148726,-122.576874,0.377205279832,Roadwork on OR-126 from NFD-2611 (OR-126) to Goodpasture Rd (OR-126).,45650.0,McKenzie Hwy,L,Vida,Lane,OR,97488-9728,US,US/Pacific,KEUG,2020-09-25 21:54:00,61.0,61.0,90.0,29.64,7.0,SSW,6.0,0.0,Light Rain,False,False,False,False,False,False,False,False,False,False,False,False,False,Night,Night,Night,Night
C-3176314,2,2021-09-23 14:18:45,2021-09-23 16:23:52,42.780737,-71.228601,42.782427,-71.22979000000002,0.13141639684,Slow traffic on NH-28 from Veterans Memorial Pkwy (S Broadway/NH-28) to NH-111/Salem Rd (N Broadway/NH-28) due to roadwork.,12.0,S Broadway,R,Salem,Rockingham,NH,03079-3023,US,US/Eastern,KLWM,2021-09-23 13:54:00,76.0,76.0,82.0,29.93,10.0,VAR,7.0,0.02,Mostly Cloudy,False,False,False,False,False,False,False,False,False,False,False,False,False,Day,Day,Day,Day
C-3176315,2,2020-06-08 00:00:01,2020-06-08 23:30:00,39.9637,-105.50761,39.9637,-105.50761,0.0,At CO-93/CO-7/Broadway St/Broadway - Construction work.,319.0,Boulder Canyon Dr,L,Nederland,Boulder,CO,80466,US,US/Mountain,KCRV,2020-06-08 00:12:00,64.0,64.0,45.0,24.44,10.0,WNW,5.0,0.0,Fair,False,False,False,False,False,False,False,False,False,False,False,False,False,Night,Night,Night,Night
C-3176316,2,2021-03-15 06:28:00,2021-12-22 15:37:00,25.877287,-80.35809499999998,25.878246,-80.355182,0.192829149801,Slow traffic on US-27 S - FL-25 from NW 100th Rd to NW 105th Way due to roadwork.,9726.0,NW 116th Way,L,Medley,Miami-Dade,FL,33178-1180,US,US/Eastern,KMIA,2021-03-15 06:53:00,67.0,67.0,90.0,30.09,10.0,CALM,0.0,0.0,Fair,False,False,False,False,False,False,False,False,False,False,False,False,False,Night,Night,Night,Day
C-3176317,3,2018-12-20 07:00:00,2018-12-20 15:00:00,41.081188,-73.922546,,,6.21999979019,Left lane closed due to bridge maintenance work on I-87 Northbound from Exit 9 I-87 to Exit 10 US-9W Hillside Ave.,,I-287 W,R,Nyack,Rockland,NY,10960,US,US/Eastern,KHPN,2018-12-20 06:56:00,28.0,,92.0,30.13,10.0,Calm,,,Clear,False,False,False,False,False,False,False,False,False,False,False,False,False,Night,Day,Day,Day
C-3176318,4,2020-11-19 18:39:10,2020-11-20 01:24:10,38.673025,-85.777126,38.677104,-85.778098,0.286667618144,Construction on US-31 NB near ARMORY PL Expect delays.,,S Gardner St,R,Scottsburg,Scott,IN,47170,US,US/Eastern,KLOU,2020-11-19 18:53:00,58.0,58.0,32.0,29.69,10.0,SSE,10.0,0.0,Fair,False,False,False,False,False,False,False,False,False,False,False,False,False,Night,Night,Night,Day
C-3176319,4,2019-09-10 13:03:22,2019-09-10 18:01:02,34.11123,-118.33588,34.1099,-118.33406,0.138869046284,Ramp closed to Highland Ave/Exit 9B - Closed due to roadwork.,,N Highland Ave,R,Los Angeles,Los Angeles,CA,90068,US,US/Pacific,KBUR,2019-09-10 12:53:00,73.0,73.0,57.0,29.07,10.0,S,8.0,0.0,Partly Cloudy,False,False,False,False,False,False,False,False,False,False,False,True,False,Day,Day,Day,Day
