ID,Severity,Start_Time,End_Time,Start_Lat,Start_Lng,End_Lat,End_Lng,Distance(mi),Description,Number,Street,Side,City,County,State,Zipcode,Country,Timezone,Airport_Code,Weather_Timestamp,Temperature(F),Wind_Chill(F),Humidity(%),Pressure(in),Visibility(mi),Wind_Direction,Wind_Speed(mph),Precipitation(in),Weather_Condition,Amenity,Bump,Crossing,Give_Way,Junction,No_Exit,Railway,Roundabout,Station,Stop,Traffic_Calming,Traffic_Signal,Turning_Loop,Sunrise_Sunset,Civil_Twilight,Nautical_Twilight,Astronomical_Twilight
C-3281147,2,2020-08-05 16:01:00,2020-08-05 23:15:00,35.455015,-120.714308,35.459175,-120.681718,1.85655155704,Construction on CA-41 NB near OLD MORRO RD Expect long delays.,13775.0,Morro Rd,L,Atascadero,San Luis Obispo,CA,93422-2025,US,US/Pacific,KPRB,2020-08-05 15:53:00,84.0,84.0,34.0,29.02,10.0,SSW,18.0,0.0,Fair,False,False,False,False,False,False,False,False,False,False,False,False,False,Day,Day,Day,Day
C-3281148,4,2020-11-02 07:11:02,2020-11-09 07:59:00,31.80642700000001,-106.455292,31.806429,-106.453777,0.0889577368903,Closed road from Justus St to N Copia St due to roadwork.,3354.0,Justus St,R,El Paso,El Paso,TX,79930-4714,US,US/Mountain,KELP,2020-11-02 06:40:00,50.0,50.0,50.0,26.47,10.0,CALM,0.0,,Fair,False,False,False,False,False,False,False,False,False,False,False,False,False,Day,Day,Day,Day
C-3281149,2,2020-07-27 16:00:00,2020-08-01 06:59:00,43.093954,-77.80449899999998,43.094207,-77.803306,0.0626789039226,Utility work on I-490 both directions from Exit 4 - I-490 (Chili) to Exit 7B - NY 531 (Gates) Short duration work at various locations to modify certain pole foundations and replace certain poles on I 490 EB ramps between Exit 04 and Exit 7B Monday July 27th 2020 thru Friday July 31st 2020 Monday thru Friday 09:00 AM thru 03:00 PM right shoulder closed,,I-490 E,R,Churchville,Monroe,NY,14428,US,US/Eastern,KROC,2020-07-27 15:54:00,80.0,80.0,74.0,29.16,10.0,NW,12.0,0.0,Mostly Cloudy,False,False,False,False,True,False,False,False,False,False,False,False,False,Day,Day,Day,Day
C-3281150,2,2021-02-09 13:00:30,2021-02-09 14:50:00,33.953181,-96.416555,33.957604,-96.416554,0.30560020004,Slow traffic on US-69 N - US-75 N from US-75 Bus/US-69 Bus (US-75/US-69) to US-70 Byp (US-75/US-69) due to roadwork.,4272.0,S Highway 69,L,Durant,Bryan,OK,74701-1955,US,US/Central,KDUA,2021-02-09 12:55:00,28.0,21.0,100.0,29.46,7.0,NNW,7.0,0.0,Cloudy,False,False,False,False,False,False,False,False,False,False,False,False,False,Day,Day,Day,Day
C-3281151,2,2021-03-04 05:57:30,2021-12-31 18:05:37,41.924839,-87.785474,41.923664,-87.784537,0.0943991631235,Stationary traffic from W Wrightwood Ave to N Mulligan Ave due to roadwork.,2463.0,N Narragansett Ave,L,Chicago,Cook,IL,60639,US,US/Central,KORD,2021-07-02 17:51:00,72.0,72.0,51.0,29.34,10.0,NNE,8.0,0.0,Mostly Cloudy,False,False,False,False,False,False,False,False,False,False,False,False,False,Night,Day,Day,Day
C-3281152,2,2021-11-12 16:43:12,2021-11-12 17:05:23,40.493501,-79.901164,40.495683,-79.90925899999998,0.451266490349,Slow traffic on PA-28 S from Delafield Rd/Exit 7 (PA-28) to Highland Park Bridge/Exit 6 (PA-28) due to roadwork.,,PA-28 S,R,Pittsburgh,Allegheny,PA,15215,US,US/Eastern,KAGC,2021-11-12 16:53:00,53.0,53.0,32.0,28.54,10.0,SSW,7.0,0.0,Fair,False,False,False,False,False,False,False,False,False,False,False,False,False,Day,Day,Day,Day
C-3281153,2,2020-09-26 12:34:30,2020-09-27 02:52:38,42.153741,-87.960278,42.153421,-87.958964,0.0708446189691,Stationary traffic on IL-83 from S Buffalo Grove Rd to Weiland Rd / McHenry Rd due to roadwork.,,E Lake Cook Rd,R,Buffalo Grove,Lake,IL,60089,US,US/Central,KPWK,2020-09-26 12:52:00,70.0,70.0,78.0,29.09,10.0,SSW,16.0,0.0,Cloudy,False,False,False,False,False,False,False,False,False,False,False,False,False,Day,Day,Day,Day
C-3281154,2,2021-07-25 20:04:30,2021-07-25 22:07:26,28.256090000000004,-81.487791,28.255735,-81.486198,0.100005231345,Slow traffic on US-92 E - US-17 N from CR-532/Osceola Polk Line Rd (US-92/US-17) to Poinciana Blvd (US-92/US-17) due to roadwork.,,S Orange Blossom Trl,R,Kissimmee,Osceola,FL,34758,US,US/Eastern,KISM,2021-07-25 19:56:00,88.0,88.0,62.0,29.81,10.0,NE,12.0,0.0,Partly Cloudy,False,False,True,False,False,False,False,False,False,False,False,True,False,Day,Day,Day,Day
C-3281155,2,2021-10-20 16:26:44,2021-11-17 14:23:30,30.235837,-85.633071,30.233209,-85.628096,0.348092414699,Stationary traffic on County Hwy-390 from FL-77/Ohio Ave (CR-390) to CR-389 (CR-390) due to roadwork.,1499.0,E 15th St,R,Lynn Haven,Bay,FL,32444-4017,US,US/Eastern,KECP,2021-10-20 16:53:00,78.0,78.0,68.0,30.08,10.0,SSE,9.0,0.0,Mostly Cloudy,False,False,False,False,False,False,False,False,False,False,False,True,False,Day,Day,Day,Day
C-3281156,2,2020-11-09 17:06:42,2020-11-09 23:13:02,42.787531,-78.816422,42.74877100000001,-78.835352,2.84498357954,Road maintenance operations right lane closed on I-90 - NYS Thruway eastbound from After Exit 56 (I-90) - Blasdell (Rte 179) to After Exit 56 (I-90) - Blasdell (Rte 179) until 2:30 PM 11/09/2020 [CARS CAD-203140106],,I-90 W,R,Buffalo,Erie,NY,14219,US,US/Eastern,KBUF,2020-11-09 16:54:00,71.0,71.0,38.0,29.37,10.0,CALM,0.0,0.0,Fair,False,False,False,False,False,False,False,False,False,False,False,False,False,Night,Day,Day,Day
C-3281157,2,2018-09-04 09:00:00,2018-09-04 15:00:00,37.78257,-122.472458,,,0.430000007153,#3 lane closed due to construction work on CA-1 Park Presidio Blvd both ways between Geary Blvd and Clement St.,1210.0,Clement St,R,San Francisco,San Francisco,CA,94118-2115,US,US/Pacific,KSFO,2018-09-04 08:56:00,60.1,,80.0,29.9,9.0,SSW,5.8,,Overcast,False,False,True,False,False,False,False,False,False,False,False,True,False,Day,Day,Day,Day
C-3281158,2,2021-02-09 14:22:00,2021-02-10 03:19:39,33.507686,-112.134187,33.51027,-112.134177,0.178538325587,Slow traffic from US-60/W Grand Ave (N 35th Ave) to W Bethany Home Rd (N 35th Ave) due to roadwork.,3500.0,W Mariposa St,R,Phoenix,Maricopa,AZ,85019-3017,US,US/Mountain,KGEU,2021-02-09 13:58:00,71.0,71.0,17.0,28.76,10.0,ESE,6.0,0.0,Fair,True,False,True,False,False,False,False,False,True,True,False,False,False,Day,Day,Day,Day
C-3281159,4,2020-08-02 14:00:00,2020-08-03 00:45:00,38.873702,-82.29875799999998,38.865613,-82.299542,0.56048568798,Construction on OH-850 EB near JACKSON PIKE Road closed. Take alternate route.,1877.0,State Route 850,L,Bidwell,Gallia,OH,45614-9502,US,US/Eastern,K3I2,2020-08-02 13:55:00,73.0,73.0,75.0,29.13,10.0,WSW,15.0,0.0,Cloudy,False,False,False,False,False,False,False,False,False,False,False,False,False,Day,Day,Day,Day
C-3281161,3,2018-06-08 06:47:21,2018-06-15 05:00:00,42.253059,-83.184364,,,0.550000011921,Entry ramp to I-75 Northbound from Howard St Southbound blocked due to construction work.,,Fisher Fwy N,R,Lincoln Park,Wayne,MI,48146,US,US/Eastern,KDTW,2018-06-08 06:53:00,62.1,,65.0,30.14,9.0,NNE,8.1,,Mostly Cloudy,False,False,False,False,False,False,False,False,False,False,False,False,False,Day,Day,Day,Day
C-3281162,2,2020-09-11 21:21:32,2020-09-13 03:40:25,33.179218,-96.341661,33.198721,-96.334086,1.41692660558,Roadwork on FM-2194 from TX-78E/N Main St (FM-2194) to FM-36 (FM-2194).,1510.0,FM 2194,L,Farmersville,Collin,TX,75442,US,US/Central,KTKI,2020-09-11 20:53:00,73.0,73.0,81.0,29.41,10.0,CALM,0.0,0.0,Fair,False,False,False,False,False,False,False,False,False,False,False,False,False,Night,Night,Night,Night
C-3281163,2,2020-10-30 15:00:30,2020-10-30 22:02:35,42.48006,-83.47223000000002,42.480954,-83.476375,0.22006317965,Slow traffic from Meadowbrook Rd (Grand River Ave) to Taft Rd (Grand River Ave) due to roadwork.,43129.0,Grand River Ave,L,Novi,Oakland,MI,48375-1735,US,US/Eastern,KPTK,2020-10-30 14:53:00,36.0,29.0,57.0,29.15,10.0,NNW,9.0,0.0,Cloudy,False,False,False,False,False,False,False,False,False,False,False,False,False,Day,Day,Day,Day
C-3281164,2,2020-08-31 19:10:33,2020-08-31 22:58:40,31.96306400000001,-95.271426,31.96279,-95.27011,0.0794306531326,Stationary traffic on US-69 S - US-79 S - US-69 N - US-79 N from W Rusk St / S Bolton St to E Larissa St due to roadwork.,300.0,S Ragsdale St,R,Jacksonville,Cherokee,TX,75766-4938,US,US/Central,KJSO,2020-08-31 19:15:00,90.0,90.0,62.0,29.07,10.0,SE,8.0,0.0,Partly Cloudy,False,False,False,False,False,False,False,False,False,False,False,False,False,Day,Day,Day,Day
C-3281165,2,2021-03-17 07:00:00,2021-03-17 16:45:00,44.827967,-68.682327,44.827162,-68.65737299999999,1.22409115109,Eddington route 9 one lane due to water main repair expect delays wednesday 3-17-21 from 7am to 4pm,199.0,Main Rd,R,Eddington,Penobscot,ME,04428-3002,US,US/Eastern,KBGR,2021-03-17 06:53:00,15.0,15.0,80.0,29.92,10.0,CALM,0.0,0.0,Partly Cloudy,False,False,False,False,False,False,False,False,False,False,False,False,False,Day,Day,Day,Day
C-3281166,2,2021-02-02 18:01:00,2021-02-03 02:25:42,39.620294,-86.479825,39.613677,-86.479763,0.457203066023,Stationary traffic on IN-39 from US-40/Cumberland St (Morgan St/IN-39) to I-70 (IN-39) due to roadwork.,9752.0,S State Road 39,L,Mooresville,Hendricks,IN,46158-7471,US,US/Eastern,KIND,2021-02-02 17:54:00,29.0,18.0,75.0,29.29,10.0,NW,14.0,0.0,Cloudy,False,False,False,False,False,False,False,False,False,False,False,False,False,Day,Day,Day,Day
C-3281167,2,2019-01-22 09:03:02,2019-01-26 09:03:01,25.7725,-80.215448,25.77254,-80.214089,0.0846028381487,Between SW 17th Ave and SW 7th Ave - Construction work.,1235.0,SW 1st St,R,Miami,Miami-Dade,FL,33135-2401,US,US/Eastern,KMIA,2019-01-22 08:53:00,73.0,,53.0,30.32,10.0,East,17.3,,Scattered Clouds,False,False,True,False,False,False,False,False,False,False,False,False,False,Day,Day,Day,Day
C-3281168,2,2021-09-17 10:54:30,2021-09-17 12:59:41,42.601656,-82.952515,42.605746,-82.95264399999998,0.282668227715,Slow traffic from 18 Mile Rd (Garfield Rd) to 19 Mile Rd (Garfield Rd) due to roadwork.,41491.0,Garfield Rd,L,Clinton Township,Macomb,MI,48038-1961,US,US/Eastern,KMTC,2021-09-17 10:56:00,76.0,76.0,96.0,29.52,10.0,S,3.0,0.0,Fair,False,False,True,False,False,False,False,False,False,False,False,False,False,Day,Day,Day,Day
C-3281169,2,2016-06-21 21:13:34,2016-06-22 03:13:34,39.24105,-76.59042,39.24102,-76.59348,0.163760681355,At Frankfurst Ave/Shell Rd/Exit 8 - Construction work.,,I-895 S,R,Curtis Bay,Baltimore City,MD,21226,US,US/Eastern,KDMH,2016-06-21 20:54:00,73.0,,90.0,29.81,,North,,,,False,False,False,False,True,False,False,False,False,False,False,False,False,Night,Night,Day,Day
C-3281170,2,2021-08-16 09:32:30,2021-08-16 10:35:00,39.840644,-85.554199,39.832843,-85.57515699999998,1.2356770527299998,Slow traffic on I-70 W from IN-3/Exit 123 (I-70) to IN-9/Exit 104 (I-70) due to roadwork.,,I-70 W,R,Knightstown,Henry,IN,46148,US,US/Eastern,KMQJ,2021-08-16 09:35:00,68.0,68.0,100.0,29.16,10.0,ENE,8.0,,Mostly Cloudy,False,False,False,False,False,False,False,False,False,False,False,False,False,Day,Day,Day,Day
C-3281171,2,2021-09-25 18:38:30,2021-09-25 18:52:30,35.037440000000004,-107.35506399999998,35.028048,-107.336174,1.25029678697,Slow traffic on I-40 E from NM-124/Exit 114 (I-40) to Indian Service Rte 491/Exit 117 (I-40) due to roadwork.,,I-40 E,R,Casa Blanca,Cibola,NM,87007,US,US/Mountain,KGNT,2021-09-25 18:26:00,55.0,55.0,89.0,23.84,7.0,N,3.0,0.06,Light Rain,False,False,False,False,False,False,False,False,False,False,False,False,False,Day,Day,Day,Day
C-3281172,1,2021-04-12 05:24:25,2021-04-23 23:59:00,36.118889,-97.065437,,,0.0,Road closed due to utility work on Knoblock St both ways between 4th Ave and 3rd Ave.,567.0,W 3rd Ave,L,Stillwater,Payne,OK,74074-3004,US,US/Central,KSWO,2021-04-12 05:53:00,52.0,52.0,49.0,28.84,10.0,NNE,15.0,0.0,Fair,False,False,True,False,False,False,False,False,False,True,False,False,False,Night,Night,Night,Night
C-3281173,2,2020-07-14 07:00:00,2020-07-23 16:44:21,42.983966,-82.852069,42.978515,-82.84053,0.694294791584,Construction on I-69 EB near RILEY CENTER Expect delays.,,I-69 E,R,Memphis,St. Clair,MI,48041,US,US/Eastern,KPHN,2020-07-14 06:57:00,55.0,55.0,94.0,29.38,10.0,CALM,0.0,0.0,Fair,False,False,False,False,False,False,False,False,False,False,False,False,False,Day,Day,Day,Day
C-3281174,4,2021-01-30 10:30:00,2021-12-28 18:43:30,40.777505,-74.05856899999998,40.766495,-74.06711899999998,0.882521259358,New Jersey Tpke S - I-95 S is closed from Lincoln Tunnel Toll Plaza (New Jersey Tpke (E Spur)/I-95) to Seaview Dr (New Jersey Tpke (E Spur)/I-95) due to roadwork.,,New Jersey Tpke S,R,Secaucus,Hudson,NJ,07094,US,US/Eastern,KTEB,2021-12-02 20:51:00,54.0,54.0,64.0,29.54,10.0,SW,10.0,0.0,Fair,False,False,False,False,False,False,False,False,False,False,False,False,False,Day,Day,Day,Day
C-3281175,2,2021-06-28 13:15:40,2021-06-28 14:05:56,30.781642,-98.566428,30.774582,-98.588108,1.37631200407,Stationary traffic on TX-29 from CR-202/Lone Grove Cutoff Rd (TX-29) to FM-2241 (TX-29) due to roadwork.,501.0,County Road 202,L,Llano,Llano,TX,78643,US,US/Central,KAQO,2021-06-28 13:35:00,86.0,86.0,55.0,28.78,8.0,VAR,7.0,0.0,Partly Cloudy,False,False,False,False,False,False,False,False,False,False,False,False,False,Day,Day,Day,Day
C-3281176,2,2021-02-24 04:26:00,2021-02-24 07:32:00,25.789436,-80.23959599999998,25.794266,-80.239756,0.333869623732,Stationary traffic on FL-9 from 14th St (FL-9) to 20th St (FL-9) due to roadwork.,,NW 16th Ter,R,Miami,Miami-Dade,FL,33125,US,US/Eastern,KMIA,2021-02-24 04:32:00,73.0,73.0,84.0,30.07,10.0,E,3.0,0.0,Partly Cloudy,False,False,False,False,False,False,False,False,False,False,False,True,False,Night,Night,Night,Night
C-3281177,2,2021-06-28 17:34:30,2021-06-28 19:37:22,39.704691,-104.940594,39.706035,-104.940754,0.093250221239,Slow traffic on CO-2 from E Exposition Ave to E Cherry Creek South Dr due to roadwork.,4001.0,E Exposition Ave,R,Denver,Arapahoe,CO,80246,US,US/Mountain,KBKF,2021-06-28 17:58:00,70.0,70.0,43.0,24.56,10.0,NE,6.0,0.0,Partly Cloudy,False,False,True,True,False,False,False,False,True,True,False,True,False,Day,Day,Day,Day
C-3281178,2,2020-09-05 14:35:00,2020-09-06 04:28:53,26.527541,-80.092423,26.528231,-80.090396,0.1340699772519999,Queuing traffic on FL-804 - FL-807 from 31st Ter S to Old Boynton Rd due to resurfacing work.,,W Boynton Beach Blvd,R,Boynton Beach,Palm Beach,FL,33436,US,US/Eastern,KBCT,2020-09-05 14:53:00,91.0,91.0,61.0,30.03,10.0,E,12.0,0.0,Partly Cloudy,False,False,False,False,False,False,False,False,False,False,False,False,False,Day,Day,Day,Day
C-3281179,3,2018-04-27 19:00:00,2018-04-28 10:00:00,42.87075,-78.84524499999998,,,4.3000001907300005,Left lane closed due to construction work on I-190 Southbound from I-190 Exit 8 / Virginia St / NY-266 Niagara St to I-190 Exit 4 / Smith St / Clifford St.,,Smith St,R,Buffalo,Erie,NY,14210,US,US/Eastern,KBUF,2018-04-27 18:54:00,60.1,,42.0,29.66,10.0,NE,9.2,,Mostly Cloudy,False,False,False,False,True,False,False,False,False,False,False,False,False,Day,Day,Day,Day
C-3281180,2,2021-03-16 06:49:00,2021-03-16 12:33:48,35.821165,-90.671267,35.821219,-90.677843,0.3684341625199999,Slow traffic on AR-18 from US-49/Stadium Blvd (E Highland Dr) to S Caraway Rd (E Highland Dr) due to roadwork.,2813.0,E Highland Dr,L,Jonesboro,Craighead,AR,72401-6222,US,US/Central,KJBR,2021-03-16 06:53:00,47.0,47.0,86.0,29.6,10.0,CALM,0.0,0.0,Fair,False,False,False,False,False,False,False,False,False,False,False,True,False,Night,Day,Day,Day
C-3281181,2,2020-05-15 09:01:00,2020-05-15 15:01:00,33.87704,-118.14263,33.86195,-118.04192,5.8709422913900005,Between Lakewood Blvd Route 19 and Los Angeles-Orange County Line - Maintenance work.,,Artesia Fwy E,R,Bellflower,Los Angeles,CA,90706,US,US/Pacific,KLGB,2020-05-15 09:08:00,67.0,67.0,70.0,29.89,10.0,S,8.0,0.0,Partly Cloudy,False,False,False,False,False,False,False,False,False,False,False,False,False,Day,Day,Day,Day
C-3281182,2,2016-06-22 06:00:52,2016-06-22 12:00:52,35.095095,-106.728444,35.0914,-106.73579,0.48749138678,At Unser Blvd/Exit 154 - Roadwork.,,I-40 W,R,Albuquerque,Bernalillo,NM,87120,US,US/Mountain,KAEG,2016-06-22 05:47:00,62.6,,42.0,30.17,10.0,ESE,4.6,,Partly Cloudy,False,False,False,False,False,False,False,False,False,False,False,False,False,Day,Day,Day,Day
C-3281183,2,2020-04-16 09:15:54,2020-04-16 15:00:00,40.61692,-74.45298000000003,40.61011,-74.46396,0.743678291121,Between Somerset St and CR-529/Washington Ave - Roadwork. Right lane closed.,,US-22 E,R,Plainfield,Somerset,NJ,07060,US,US/Eastern,KLDJ,2020-04-16 09:35:00,44.0,41.0,43.0,30.09,10.0,NNW,6.0,0.0,Partly Cloudy,True,False,False,False,False,False,False,False,False,False,False,True,False,Day,Day,Day,Day
C-3281184,2,2021-03-10 18:00:00,2021-12-28 15:58:12,33.52197,-112.099626,33.524115,-112.100555,0.157569879079,Stationary traffic from W Montebello Ave to N 20th Ave due to roadwork.,5777.0,N 19th Ave,R,Phoenix,Maricopa,AZ,85015-2433,US,US/Mountain,KPHX,2021-09-10 09:51:00,92.0,92.0,25.0,28.75,10.0,ESE,9.0,0.0,Fair,True,False,False,False,False,False,False,False,True,False,False,False,False,Day,Day,Day,Day
C-3281185,2,2020-09-28 15:59:30,2020-09-29 00:55:16,33.451411,-112.078965,33.452265999999995,-112.082557,0.215333651326,Stationary traffic from N 4th Ave to W Polk St due to roadwork.,400.0,W Van Buren St,R,Phoenix,Maricopa,AZ,85003-1635,US,US/Mountain,KPHX,2020-09-28 15:51:00,101.0,101.0,10.0,28.66,10.0,WNW,6.0,0.0,Partly Cloudy,False,False,True,False,False,False,False,False,True,True,False,False,False,Day,Day,Day,Day
C-3281186,2,2021-06-10 09:00:00,2021-06-10 16:00:00,34.266904,-83.469087,34.272526,-83.465716,0.433516253974,Lane closed on GA-15 - US-441 N from I-85/GA-403 (US-441) to GA-164 (Commerce) (South) (US-441) due to roadwork.,30199.0,Highway 441 S,R,Commerce,Banks,GA,30529-6364,US,US/Eastern,K19A,,,,,,,,,,,False,False,False,False,False,False,False,False,False,False,False,False,False,Day,Day,Day,Day
C-3281187,2,2018-05-17 08:30:00,2018-05-17 15:30:00,33.457287,-112.392471,,,0.0,Intermittent lane closures due to maintenance work on Estrella Pkwy at Roosevelt St.,974.0,N Estrella Pkwy,L,Goodyear,Maricopa,AZ,85338-9274,US,US/Mountain,KGYR,2018-05-17 08:47:00,80.6,,20.0,29.81,10.0,Calm,,,Partly Cloudy,False,False,True,False,False,False,False,False,False,False,False,True,False,Day,Day,Day,Day
C-3281188,2,2021-06-28 09:19:00,2021-06-29 10:04:00,43.235632,-71.475473,43.227502,-71.496703,1.20736823023,Construction on I-393 WB near EXIT 3 Expect delays.,,I-393 W,R,Concord,Merrimack,NH,03301,US,US/Eastern,KCON,2021-06-28 08:51:00,84.0,84.0,63.0,29.76,10.0,SW,7.0,0.0,Fair,False,False,False,False,False,False,False,False,False,False,False,False,False,Day,Day,Day,Day
C-3281189,2,2016-07-06 20:27:04,2016-07-07 02:27:04,41.1255,-75.35923000000003,41.12,-75.35546,0.42768388257,At Fork St - Construction work.,418.0,Pocono Blvd,L,Mount Pocono,Monroe,PA,18344-1418,US,US/Eastern,KMPO,2016-07-06 20:53:00,73.0,,71.0,29.87,10.0,West,3.5,,Clear,False,False,True,False,False,False,False,False,False,False,False,True,False,Day,Day,Day,Day
C-3281190,2,2020-12-21 13:51:00,2020-12-21 20:54:30,25.738015,-80.242952,25.740763,-80.23781,0.372112244971,Stationary traffic on US-1 N - FL-9 - FL-5 from SW 30th Ct to SW 28th Ln due to roadwork.,2900.0,SW 30th Ct,R,Miami,Miami-Dade,FL,33133-3616,US,US/Eastern,KMIA,2020-12-21 13:53:00,76.0,76.0,69.0,30.01,10.0,NW,10.0,0.0,Mostly Cloudy,False,False,True,False,False,False,False,False,False,False,False,True,False,Day,Day,Day,Day
C-3281191,4,2021-08-09 14:54:07,2021-08-16 23:59:00,42.69397,-70.8983,42.69276,-70.89837,0.0836785795343,Closed road from Country Club Way to Edge St due to roadwork.,2.0,Court Ln,R,Ipswich,Essex,MA,01938-3027,US,US/Eastern,KBVY,2021-08-09 14:53:00,73.0,73.0,81.0,30.07,9.0,NE,8.0,0.0,Cloudy,False,False,False,False,False,False,False,False,False,False,False,False,False,Day,Day,Day,Day
C-3281192,2,2021-07-17 10:39:22,2021-07-17 13:05:47,29.953908,-90.082734,29.972984000000004,-90.064262,1.72040299756,Slow traffic on I-10 E from Poydras St exit [234B] to exit [236B] due to roadwork.,,I-10 E,R,New Orleans,Orleans,LA,70112,US,US/Pacific,KAUD,2021-07-17 10:55:00,89.0,89.0,72.0,30.12,10.0,SE,12.0,0.0,Thunder,False,False,False,False,False,False,False,False,False,False,False,True,False,Day,Day,Day,Day
C-3281193,2,2018-07-03 09:07:11,2018-07-03 15:09:11,40.360567,-75.31160799999998,40.360297,-75.311448,0.0204689099711,At PA-152/Park Ave - Roadwork. Traffic problem.,224.0,N Main St,R,Sellersville,Bucks,PA,18960-2332,US,US/Eastern,KUKT,2018-07-03 09:15:00,86.0,,74.0,30.19,10.0,East,3.5,,Clear,False,False,False,False,False,False,False,False,False,False,False,False,False,Day,Day,Day,Day
C-3281194,2,2019-03-25 09:03:30,2019-04-02 18:02:04,41.684367,-73.06826600000002,41.65232,-73.07936,2.28707486544,Between CT-222/Main St/Exit 40 and US-6/CT-254/Exit 38 - Bridge maintenance work.,,CT-8 S,R,Thomaston,Litchfield,CT,06787,US,US/Eastern,KOXC,2019-03-26 17:51:00,41.0,32.8,26.0,30.3,10.0,North,16.1,,Clear,False,False,False,False,False,False,False,False,False,False,False,False,False,Day,Day,Day,Day
C-3281195,2,2019-06-29 05:22:30,2019-08-18 20:22:00,43.05941,-124.137563,43.0594,-124.136605,0.0483675005171,At Guerin Ln - Maintenance work.,951.0,Roseburg Rd,R,Myrtle Point,Coos,OR,97458,US,US/Pacific,KOTH,2019-06-29 04:56:00,50.0,50.0,100.0,30.15,10.0,SE,6.0,0.0,Cloudy,False,False,False,False,False,False,False,False,False,False,False,False,False,Night,Day,Day,Day
C-3281196,2,2020-03-15 07:48:23,2020-03-19 07:50:05,40.43629,-75.90905,40.44833,-75.8983,1.00577032883,At PA-73/Main St/Lake Shore Dr - Roadwork. Open.,,Allentown Pike,R,Reading,Berks,PA,19605,US,US/Eastern,KRDG,2020-03-15 07:54:00,40.0,40.0,86.0,30.05,10.0,CALM,0.0,0.0,Mostly Cloudy,False,False,False,False,False,False,False,False,False,False,False,False,False,Day,Day,Day,Day
C-3281197,2,2020-09-29 14:06:46,2020-11-20 06:36:46,41.37637,-87.02705999999998,41.31832,-87.02584,4.01137217799,At IN-8/Indiana St - Roadwork.,401.0,S State Road 49,L,Valparaiso,Porter,IN,46383-7858,US,US/Central,KVPZ,2020-09-29 13:56:00,59.0,59.0,58.0,29.02,10.0,WSW,9.0,0.0,Cloudy,False,False,False,False,False,False,False,False,False,False,False,True,False,Day,Day,Day,Day
C-3281198,2,2021-06-17 16:32:56,2021-06-17 16:56:26,40.708891,-73.956974,40.706695,-73.950411,0.375741001501,Slow traffic from Marcy Ave/Taylor St (S 5th St) to Montrose Ave/Union Ave (S 5th St) due to roadwork.,,Brooklyn Queens Expy,R,Brooklyn,Kings,NY,11211,US,US/Eastern,KJRB,2021-06-17 16:51:00,75.0,,32.0,29.85,10.0,,,0.0,Mostly Cloudy,False,False,False,False,False,False,False,False,False,False,False,True,False,Day,Day,Day,Day
C-3281199,4,2017-04-10 20:01:12,2017-04-11 02:01:12,40.414594,-80.009302,40.4292,-79.9993,1.13808156971,Closed at PJ McArdle Roadway - Closed due to roadwork.,,Liberty Tunl,R,Pittsburgh,Allegheny,PA,15226,US,US/Eastern,KAGC,2017-04-10 19:53:00,73.9,,26.0,30.04,10.0,SSW,5.8,,Clear,False,False,False,False,False,False,False,False,False,False,False,True,False,Night,Day,Day,Day
C-3281200,2,2020-04-12 15:30:23,2020-04-12 16:00:23,34.16466,-118.83544,34.26311,-119.23232,23.674546620700003,Between CA-23/Westlake Blvd/Exit 40 and CA-126/Main St - Roadwork. Left lane closed.,,CA-23 N,R,Westlake Village,Ventura,CA,91361,US,US/Pacific,KCMA,2020-04-12 15:55:00,62.0,62.0,72.0,29.97,10.0,W,8.0,0.0,Cloudy,False,False,False,False,False,False,False,False,False,False,False,False,False,Day,Day,Day,Day
C-3281201,2,2021-12-12 19:57:00,2021-12-12 20:17:00,40.667257,-73.994524,40.665528,-73.99640600000002,0.154918454723,Slow traffic from 16th St to Brooklyn Queens Expy due to roadwork.,52.0,16th St,R,Brooklyn,Kings,NY,11215-4711,US,US/Eastern,KJRB,2021-12-12 19:51:00,44.0,42.0,38.0,30.13,10.0,VAR,5.0,0.0,Fair,True,False,True,False,True,False,False,False,False,False,False,False,False,Night,Night,Night,Night
C-3281202,2,2020-11-13 15:03:00,2020-11-13 21:32:00,41.115087,-81.582124,41.11813,-81.588937,0.412278501629,Slow traffic on OH-18 from OH-59 (W Market St/OH-18) to Ghent Rd (W Market St/OH-18) due to roadwork.,2081.0,W Market St,R,Akron,Summit,OH,44313-6903,US,US/Eastern,KAKR,2020-11-13 14:54:00,53.0,53.0,50.0,28.91,10.0,W,12.0,0.0,Fair,False,False,False,False,False,False,False,False,False,False,False,False,False,Day,Day,Day,Day
C-3281203,2,2019-10-16 00:00:00,2021-12-06 17:12:37,45.068421,-93.327365,45.069293,-93.329477,0.119379661608,Slow traffic on County Hwy-152 from 62nd Ave N to France Ave N due to roadwork.,6258.0,Brooklyn Blvd,R,Minneapolis,Hennepin,MN,55429-4034,US,US/Central,KMIC,2021-11-06 15:53:00,67.0,67.0,30.0,28.99,10.0,WSW,9.0,0.0,Fair,False,False,True,False,False,False,False,False,True,False,False,False,False,Night,Night,Night,Night
C-3281204,2,2021-12-01 07:45:00,2021-12-01 08:05:00,28.336461,-82.501351,28.321229,-82.503132,1.05799042918,Slow traffic on FL-45 - US-41 S - US-41 N from CR-578/County Line Rd (US-41) to FL-52 (US-41) due to roadwork.,12312.0,US Highway 41,R,Spring Hill,Pasco,FL,34610-7916,US,US/Eastern,KBKV,2021-12-01 07:53:00,42.0,42.0,100.0,30.16,10.0,CALM,0.0,0.0,Fair,False,False,False,False,False,False,False,False,False,False,False,True,False,Day,Day,Day,Day
C-3281205,2,2021-06-21 19:21:30,2021-06-21 19:47:00,28.357592,-81.497435,28.349923,-81.490412,0.6805323684260001,Stationary traffic on FL-535 from I-4 (CR-535) to N Poinciana Blvd (CR-535) due to roadwork.,,State Road 535,R,Orlando,Orange,FL,32821,US,US/Eastern,KMCO,2021-06-21 18:53:00,75.0,75.0,84.0,29.91,10.0,SE,6.0,0.0,Light Rain,False,False,True,False,False,False,False,False,False,False,False,True,False,Day,Day,Day,Day
C-3281206,2,2020-03-24 19:01:01,2020-03-28 19:01:12,41.15925,-80.43294,41.18493,-80.44359,1.85876559285,Between PA-208/Exit 5 and I-80/Exit 1B/Exit 1A - Roadwork. Hard shoulder closed.,,I-376 W,R,Pulaski,Mercer,PA,16143,US,US/Eastern,KUCP,2020-03-24 18:56:00,44.0,44.0,71.0,28.9,10.0,CALM,0.0,0.0,Fair,False,False,False,False,False,False,False,False,False,False,False,False,False,Day,Day,Day,Day
C-3281207,4,2021-05-05 00:00:00,2021-06-05 00:45:00,39.767232,-104.960964,39.766973,-104.960962,0.0178955108888,Construction on N GAYLORD ST SB near E 35TH AVE Expect delays.,3610.0,N Gaylord St,R,Denver,Denver,CO,80205-3523,US,US/Mountain,KBKF,2021-05-05 00:58:00,43.0,43.0,86.0,24.44,10.0,CALM,0.0,0.0,Partly Cloudy,False,False,True,False,False,False,False,False,False,False,False,False,False,Night,Night,Night,Night
C-3281208,2,2021-01-25 12:49:30,2021-01-25 15:58:30,33.567566,-112.112876,33.567543,-112.108251,0.266270708094,Stationary traffic from I-17/N Black Canyon Hwy (W Dunlap Ave) to N 19th Ave (W Dunlap Ave) due to roadwork.,2504.0,W Dunlap Ave,R,Phoenix,Maricopa,AZ,85021-2709,US,US/Mountain,KDVT,2021-01-25 12:53:00,49.0,44.0,80.0,28.05,7.0,SSE,14.0,0.02,Light Rain,True,False,True,False,False,True,False,False,False,False,False,True,False,Day,Day,Day,Day
C-3281209,3,2017-12-12 02:14:00,2017-12-12 06:00:00,41.089527,-73.453743,,,2.0,Right and center lane closed due to construction work on I-95 Southbound from Exit 14 Scribner Ave to Exit 13 US-1 Post Rd.,,I-95 N,R,Darien,Fairfield,CT,06820,US,US/Eastern,KHPN,2017-12-12 01:56:00,34.0,31.0,67.0,29.89,10.0,ESE,3.5,,Mostly Cloudy,False,False,False,False,False,False,False,False,False,False,False,False,False,Night,Night,Night,Night
C-3281210,2,2021-06-29 00:00:00,2021-07-09 00:45:00,39.696486,-104.868304,39.696486,-104.865976,0.123763820122,Construction on E MISSISSIPPI AVE EB near S GENEVA ST Expect delays.,,S Geneva St,R,Denver,Arapahoe,CO,80247,US,US/Mountain,KBKF,2021-06-29 00:58:00,56.0,56.0,75.0,24.61,10.0,SSE,3.0,0.0,Partly Cloudy,False,False,True,False,False,False,False,False,True,True,False,True,False,Night,Night,Night,Night
C-3281211,2,2019-01-04 00:18:46,2019-01-04 05:59:00,33.87553,-118.073624,,,0.289999991655,Entry ramp to CA-91 Eastbound from Norwalk Blvd Southbound closed due to paving repairs.,17202.0,Ibex Ave,R,Cerritos,Los Angeles,CA,90703-2738,US,US/Pacific,KFUL,2019-01-04 00:53:00,43.0,,,30.08,10.0,Calm,,,Clear,False,False,False,False,False,False,False,False,False,False,False,False,False,Night,Night,Night,Night
C-3281212,2,2021-06-03 21:38:30,2021-06-04 00:30:30,41.53657000000001,-87.58230999999998,41.56162,-87.58346,1.7318113807599995,Slow traffic on IL-394 N - Bishop Ford Fwy N from Glenwood Dyer Rd (IL-394) to I-294/I-94/I-80/Exit 74 (IL-394) due to roadwork.,,Bishop Ford Fwy N,R,Chicago Heights,Cook,IL,60411,US,US/Central,KIGQ,2021-06-03 21:35:00,75.0,75.0,44.0,29.22,10.0,SW,7.0,0.0,Fair,False,False,False,False,False,False,False,False,False,False,False,False,False,Night,Night,Night,Day
C-3281213,4,2020-03-07 10:46:49,2020-10-14 08:08:56,47.922325,-97.067791,47.922808,-97.067791,0.0333721216424,Closed road from University Ave to N Columbia Rd due to roadwork.,,Cornell St,R,Grand Forks,Grand Forks,ND,58203,US,US/Central,KGFK,2020-03-07 10:53:00,33.0,25.0,82.0,28.99,10.0,S,10.0,0.0,Mostly Cloudy,False,False,False,False,False,False,False,False,False,False,False,False,False,Day,Day,Day,Day
C-3281214,2,2021-09-14 15:12:00,2021-09-14 15:34:00,27.89182000000001,-81.599677,27.897289,-81.599754,0.37790116525,Stationary traffic on FL-25 - US-27 N from CR-17B/Hunt Brothers Rd (US-27) to FL-60 (US-27) due to roadwork.,,Highway 27,R,Lake Wales,Polk,FL,33853,US,US/Eastern,KBOW,2021-09-14 14:50:00,90.0,90.0,55.0,29.83,10.0,ENE,5.0,0.0,Mostly Cloudy,False,False,True,False,False,False,False,False,False,False,False,True,False,Day,Day,Day,Day
C-3281215,3,2020-05-12 09:05:42,2020-05-12 15:00:00,40.48969,-80.08075,40.48895,-80.07939,0.0878712688542,At Neville Rd/Fleming Park Brg - Roadwork. Single alternate lane traffic.,1621.0,Robinson Blvd,L,Mc Kees Rocks,Allegheny,PA,15136-2019,US,US/Eastern,KPIT,2020-05-12 08:51:00,43.0,37.0,60.0,28.9,10.0,NW,10.0,0.0,Partly Cloudy,False,False,False,False,False,False,False,False,True,False,False,False,False,Day,Day,Day,Day
C-3281216,2,2021-09-04 20:13:30,2021-09-04 20:28:00,39.825809,-85.638542,39.826904,-85.606503,1.70176759661,Slow traffic on I-70 E from IN-9/Exit 104 (I-70) to IN-109/Exit 115 (I-70) due to roadwork.,,I-70 E,R,Charlottesville,Hancock,IN,46117,US,US/Eastern,KMQJ,2021-09-04 20:15:00,68.0,68.0,100.0,28.96,10.0,SSW,8.0,,Cloudy,False,False,False,False,False,False,False,False,False,False,False,False,False,Night,Day,Day,Day
C-3281217,2,2021-03-27 06:24:00,2021-03-27 19:30:42,25.794325,-80.238373,25.793727,-80.239823,0.0992160187169,Slow traffic on FL-9 from NW 25th Ave to NW South River Dr due to roadwork.,2552.0,NW 20th St,L,Miami,Miami-Dade,FL,33142-7104,US,US/Eastern,KMIA,2021-03-27 06:53:00,75.0,75.0,82.0,30.15,10.0,E,6.0,0.0,Fair,False,False,False,False,False,False,False,False,False,False,False,False,False,Night,Night,Night,Day
C-3281218,2,2017-02-01 08:00:44,2017-02-01 14:00:44,37.89008,-121.543256,37.89009,-121.527407,0.864212354663,At CR-J2/Tracy Blvd - Construction work.,19029.0,W Highway 4,R,Stockton,San Joaquin,CA,95206,US,US/Pacific,KSCK,2017-02-01 07:55:00,45.0,,100.0,30.01,0.5,Calm,,,Fog,False,False,False,False,False,False,False,False,False,False,False,False,False,Day,Day,Day,Day
C-3281219,2,2020-06-29 03:01:00,2020-06-30 01:44:00,39.311774,-120.48868,39.324064,-120.39543,5.0563590210400005,Lane closure due to Roadway Excavation between Kingvale Uc and Soda Springs Oc,,I-80 E,R,Norden,Placer,CA,95724,US,US/Pacific,KTRK,2020-06-29 02:55:00,34.0,34.0,81.0,24.08,10.0,WSW,3.0,0.0,Fair,False,False,False,False,True,False,False,False,False,False,False,False,False,Night,Night,Night,Night
C-3281220,2,2019-05-07 15:30:01,2019-05-08 15:30:00,41.53464,-72.73121,41.52905,-72.7419,0.674453994366,Between CT-147/Baileyville Rd and E Main St/Exit 13 - Roadwork. Lane blocked.,524.0,Meriden Rd,L,Middlefield,Middlesex,CT,06455-1013,US,US/Eastern,KMMK,2019-05-07 15:53:00,67.0,67.0,54.0,29.99,10.0,S,15.0,0.0,Fair,False,False,True,False,True,False,False,False,False,False,False,True,False,Day,Day,Day,Day
C-3281221,2,2021-07-17 10:32:30,2021-07-17 15:55:00,33.461528,-111.98703,33.465396000000005,-111.987024,0.267253570587,Stationary traffic from AZ-202/Red Mountain Fwy (N 44th St) to E McDowell Rd (N 44th St) due to roadwork.,1159.0,N 44th St,R,Phoenix,Maricopa,AZ,85008-5704,US,US/Mountain,KPHX,2021-07-17 10:51:00,89.0,89.0,45.0,28.75,10.0,E,5.0,0.0,Mostly Cloudy,False,False,True,False,False,False,False,False,False,False,False,True,False,Day,Day,Day,Day
C-3281222,2,2021-11-09 17:31:06,2021-11-09 20:03:42,29.725731,-95.344984,29.726844,-95.342888,0.147410548197,Slow traffic from Holman St to State Highway 35 due to roadwork.,3219.0,Cullen Blvd,L,Houston,Harris,TX,77004-2654,US,US/Central,KMCJ,2021-11-09 17:53:00,69.0,69.0,75.0,30.08,10.0,SE,8.0,0.0,Mostly Cloudy,False,False,False,False,False,False,False,False,False,False,False,False,False,Night,Day,Day,Day
C-3281223,2,2021-10-25 17:47:00,2021-10-25 18:07:00,40.019396,-105.258472,40.014692,-105.258514,0.3250230439909999,Slow traffic on US-36 E - CO-119 from Valmont Rd (CO-119/28th St/US-36) to CO-7/Arapahoe Ave (28th St/US-36) due to roadwork.,1819.0,28th St,L,Boulder,Boulder,CO,80301-1003,US,US/Mountain,KBDU,2021-10-25 17:55:00,63.0,63.0,32.0,24.48,10.0,CALM,0.0,0.0,Fair,False,True,True,False,False,False,False,False,False,False,True,True,False,Day,Day,Day,Day
C-3281224,2,2021-08-11 09:04:30,2021-08-11 09:25:30,42.154165,-87.958538,42.153457,-87.951918,0.3426008034809999,Stationary traffic from IL-83/McHenry Rd (E Lake Cook Rd) to US-45/IL-21/Milwaukee Ave (E Lake Cook Rd) due to roadwork.,73.0,E Lake Cook Rd,L,Buffalo Grove,Lake,IL,60089,US,US/Central,KPWK,2021-08-11 08:52:00,81.0,81.0,88.0,29.12,10.0,SSW,9.0,0.0,Mostly Cloudy,False,False,False,False,False,False,False,False,False,False,False,True,False,Day,Day,Day,Day
C-3281225,2,2020-09-24 16:30:00,2020-10-10 00:45:00,33.582322999999995,-111.78849,33.582322999999995,-111.787453,0.0596909338605,E SHEA BL / N 136TH ST - Construction - EB Shea Blvd curb and right turn lanes restricted at 136th St,13565.0,E Shea Blvd,R,Scottsdale,Maricopa,AZ,85259,US,US/Mountain,KSDL,2020-09-24 16:53:00,103.0,103.0,13.0,28.16,10.0,VAR,5.0,0.0,Fair,False,False,True,False,False,False,False,False,False,False,False,True,False,Day,Day,Day,Day
C-3281226,2,2021-10-30 19:36:00,2021-10-30 21:38:14,29.418023,-98.486168,29.418406,-98.489673,0.2125995386859999,Slow traffic from I-37/US-281 (E Durango Blvd/Judge H F Garcia Mem Blvd) to S Saint Marys St (E Durango Blvd/Judge H F Garcia Mem Blvd) due to roadwork.,643.0,E Cesar E Chavez Blvd,R,San Antonio,Bexar,TX,78206-1120,US,US/Central,KSSF,2021-10-30 19:53:00,66.0,66.0,56.0,29.24,10.0,ESE,3.0,0.0,Fair,False,False,False,False,False,False,False,False,False,False,False,False,False,Night,Night,Day,Day
C-3281227,3,2020-04-30 06:00:00,2020-04-30 15:00:00,33.701626,-117.949486,,,2.69000005722,Left lane closed due to bridge maintenance work on I-405 Southbound between Warner Ave and Talbert Ave.,,I-405 S,R,Fountain Valley,Orange,CA,92708,US,US/Pacific,KSNA,2020-04-30 05:53:00,66.0,66.0,78.0,29.89,7.0,CALM,0.0,0.0,Cloudy,False,False,False,False,False,False,False,False,False,False,False,False,False,Night,Day,Day,Day
C-3281228,2,2020-04-21 06:15:26,2020-04-21 18:00:00,36.7565,-119.16459,36.7565,-119.16459,0.0,At Millwood Rd/NF-13597 - Roadwork. Single alternate lane traffic.,36003.0,Dunlap Rd,R,Squaw Valley,Fresno,CA,93675-9356,US,US/Pacific,KFAT,2020-04-21 05:53:00,50.0,50.0,83.0,29.78,10.0,NW,8.0,0.0,Fair,False,False,False,False,False,False,False,False,False,False,False,False,False,Day,Day,Day,Day
C-3281229,2,2018-12-14 08:39:56,2018-12-14 11:08:41,40.150711,-75.061073,,,0.589999973774,Road closed due to construction work on Spur Rd both ways between PA-232 Huntingdon Pike and Byberry Rd.,1194.0,Spur Rd,R,Huntingdon Valley,Montgomery,PA,19006-3726,US,US/Eastern,KPNE,2018-12-14 08:54:00,46.0,44.8,83.0,30.48,6.0,East,3.5,,Haze,False,False,False,False,False,False,False,False,False,False,False,False,False,Day,Day,Day,Day
C-3281230,2,2021-03-23 15:39:49,2021-03-23 16:40:21,28.809531,-97.396126,28.820671,-97.416546,1.45623057838,Stationary traffic on TX-119 from US-183 (TX-119) to FM-884 (TX-119) due to roadwork.,894.0,State Highway 119,L,Goliad,Goliad,TX,77963,US,US/Central,KVCT,2021-03-23 15:51:00,85.0,85.0,20.0,29.59,10.0,WSW,5.0,0.0,Fair,False,False,False,False,False,False,False,False,False,False,False,False,False,Day,Day,Day,Day
C-3281231,2,2020-09-22 17:47:16,2020-09-22 22:45:00,41.82805,-72.481308,41.823767,-72.498635,0.939910548761,Construction on I-84 WB near EXIT 65 Construction. Right lane closed.,,I-84 W,R,Vernon Rockville,Tolland,CT,06066,US,US/Eastern,KHFD,2020-09-22 17:53:00,69.0,69.0,18.0,29.83,10.0,NW,14.0,0.0,Fair,False,False,False,False,True,False,False,False,False,False,False,False,False,Day,Day,Day,Day
C-3281232,2,2021-03-28 12:49:12,2021-03-28 17:03:35,32.941012,-87.080931,32.942785,-87.11068,1.7293326391900004,Slow traffic from CR-20/Antioch Rd (Montgomery Rd/US-82) to AL-58/Stallings Rd/Walnut St (US-82) due to roadwork.,3614.0,Montgomery Hwy,R,Centreville,Bibb,AL,35042-6068,US,US/Central,KEET,2021-03-28 12:53:00,64.0,64.0,72.0,29.43,10.0,NW,12.0,0.0,Mostly Cloudy,False,False,False,False,False,False,False,False,False,False,False,False,False,Day,Day,Day,Day
C-3281233,2,2021-11-09 15:41:00,2021-11-09 18:07:33,33.47936,-112.073714,33.480165,-112.071914,0.117703691246,Slow traffic from E Roanoke Ave to N 3rd St due to roadwork.,2803.0,N Central Ave,R,Phoenix,Maricopa,AZ,85004-1020,US,US/Mountain,KPHX,2021-11-09 15:51:00,80.0,80.0,20.0,28.8,10.0,SSW,5.0,0.0,Mostly Cloudy,False,False,False,False,False,False,False,False,False,True,False,False,False,Day,Day,Day,Day
C-3281234,4,2020-08-21 12:38:59,2020-08-29 06:59:00,40.852872,-73.959099,40.851656,-73.952996,0.329836191853,Road I-95 is closed from Hudson Ter (George Washington Bridge (Upper Level)/I-95) to US-9/178th St/Henry Hudson Pkwy (George Washington Bridge (Upper Level)/I-95) due to bridge closed accident roadwork.,,George Washington Brg,R,Fort Lee,Bergen,NJ,07024,US,US/Eastern,KTEB,2020-08-21 12:51:00,82.0,82.0,56.0,29.92,10.0,WSW,10.0,0.0,Fair,False,False,False,False,False,False,False,False,False,False,False,False,False,Day,Day,Day,Day
C-3281235,2,2020-10-15 14:00:00,2020-10-16 00:45:00,39.607998,-75.716278,39.608076,-75.715412,0.0464121916472,Construction on US-40 EB near DE-72 Drive with caution.,2000.0,Pulaski Hwy,R,Newark,New Castle,DE,19702-3504,US,US/Eastern,KILG,2020-10-15 13:51:00,74.0,74.0,50.0,29.86,10.0,S,18.0,0.0,Fair,False,False,True,False,False,False,False,False,False,False,False,True,False,Day,Day,Day,Day
C-3281236,2,2021-11-06 11:32:30,2021-11-06 12:06:00,25.899482,-80.185929,25.899849,-80.176793,0.568402091294,Slow traffic on FL-916 from FL-915/NE 6th Ave (NE 135th St/FL-916) to US-1/Biscayne Blvd (NE 135th St/FL-916) due to roadwork.,626.0,NE 135th St,R,North Miami,Miami-Dade,FL,33161-7519,US,US/Eastern,KOPF,2021-11-06 11:35:00,67.0,67.0,81.0,29.94,10.0,NW,12.0,0.0,Mostly Cloudy,True,False,False,False,False,False,False,False,False,False,False,False,False,Day,Day,Day,Day
C-3281237,2,2021-04-14 11:39:38,2021-12-17 19:03:55,33.509458,-112.167387,33.508285,-112.168788,0.114380675297,Slow traffic from N 47th Ave to W Pierson St / N Maryvale Pkwy due to roadwork.,5063.0,W Camelback Rd,L,Phoenix,Maricopa,AZ,85031-1331,US,US/Mountain,KGEU,2021-04-14 11:58:00,77.0,77.0,20.0,28.68,10.0,SW,6.0,0.0,Fair,False,False,False,False,False,False,False,False,True,False,False,False,False,Day,Day,Day,Day
C-3281239,2,2021-06-18 21:39:04,2021-06-18 22:36:30,40.685669,-73.978711,40.680841,-73.97511999999998,0.382986393887,Stationary traffic from Nevins St (Flatbush Ave) to Grand Army Plz (Grand Army Plz/Flatbush Ave) due to roadwork.,102.0,Flatbush Ave,L,Brooklyn,Kings,NY,11217-1412,US,US/Eastern,KJRB,2021-06-18 21:51:00,77.0,77.0,40.0,29.78,10.0,VAR,3.0,0.0,Fair,True,False,False,False,False,False,True,False,True,False,False,True,False,Night,Night,Day,Day
C-3281240,2,2020-07-13 07:00:00,2020-09-05 07:30:00,44.898603,-91.453177,44.898749,-91.456309,0.153620254227,Construction on WI-29 WB near CHIPPEWA RIV Expect delays.,,WI-29 W,R,Chippewa Falls,Chippewa,WI,54729,US,US/Central,KEAU,2020-07-13 06:56:00,61.0,61.0,90.0,29.02,10.0,NE,3.0,0.0,Fair,False,False,False,False,False,False,False,False,False,False,False,False,False,Day,Day,Day,Day
C-3281241,2,2021-02-09 14:00:00,2021-02-10 02:45:00,34.358037,-117.609091,34.356381,-117.615281,0.3711485974229999,Construction on CA-2 WB near DUMP RD Expect delays.,2260.0,State Highway 2,L,Wrightwood,San Bernardino,CA,92397,US,US/Pacific,KGXA,,,,,,,,,,,False,False,False,False,False,False,False,False,False,True,False,False,False,Day,Day,Day,Day
C-3281242,2,2020-07-17 14:00:00,2020-07-18 00:45:00,39.549626,-83.607636,39.546,-83.611197,0.314262249855,Construction on OH-729 SB near FAYETTE Allow extra time.,4598.0,Grassy Branch Rd,R,Sabina,Fayette,OH,45169,US,US/Eastern,KILN,2020-07-17 13:54:00,83.0,83.0,54.0,29.05,10.0,SE,6.0,0.0,Fair,False,False,False,False,False,False,False,False,False,False,False,False,False,Day,Day,Day,Day
C-3281243,2,2021-05-17 08:18:00,2021-05-17 17:55:10,34.011277,-81.149057,34.000953,-81.172358,1.5132773790600005,Slow traffic on I-20 W from Bush River Rd/Exit 63 (I-20) to US-1/Exit 58 (I-20) due to roadwork.,,I-20 W,R,Lexington,Lexington,SC,29072,US,US/Eastern,KCAE,2021-05-17 07:56:00,61.0,61.0,72.0,29.98,10.0,WSW,3.0,0.0,Mostly Cloudy,False,False,False,False,False,False,False,False,False,False,False,False,False,Day,Day,Day,Day
C-3281244,2,2020-06-18 08:14:02,2020-06-22 08:15:15,40.75422,-76.95199000000002,40.75032,-76.958,0.4142038417599999,At PA-104 - Roadwork. Open.,9.0,Red Bank Rd,L,Middleburg,Snyder,PA,17842,US,US/Eastern,KSEG,2020-06-18 08:12:00,67.0,67.0,90.0,29.69,10.0,CALM,0.0,0.0,Cloudy,False,False,False,False,False,False,False,False,False,False,False,False,False,Day,Day,Day,Day
C-3281245,2,2021-02-19 00:19:00,2021-02-19 00:43:00,31.951934,-94.66775,31.926503000000004,-94.682227,1.9514028623,Slow traffic on TX-315 from FM-95 (TX-315) to US-259 (TX-315) due to roadwork.,1898.0,E Highway 315,R,Mount Enterprise,Rusk,TX,75681,US,US/Central,KRFI,2021-02-19 00:15:00,24.0,24.0,73.0,29.99,10.0,NNW,3.0,0.0,Fair,False,False,False,False,False,False,False,False,False,False,False,False,False,Night,Night,Night,Night
C-3281246,2,2021-09-12 14:12:00,2021-09-12 16:15:43,33.523351,-112.099668,33.524116,-112.100376,0.0667599612353,Stationary traffic from W Montebello Ave to N 20th Ave due to roadwork.,5959.0,N 19th Ave,R,Phoenix,Maricopa,AZ,85015,US,US/Mountain,KPHX,2021-09-12 13:51:00,105.0,105.0,16.0,28.66,10.0,NE,3.0,0.0,Fair,True,False,False,False,False,False,False,False,True,False,False,False,False,Day,Day,Day,Day
C-3281247,2,2020-03-24 05:28:59,2020-03-25 05:28:59,42.53414,-83.11443,42.53398,-83.11824,0.194294257303,At I-75 - Construction work. Lane blocked.,,W 14 Mile Rd,R,Troy,Oakland,MI,48083,US,US/Eastern,KVLL,2020-03-24 05:35:00,35.0,35.0,90.0,29.41,10.0,CALM,0.0,0.0,Cloudy,False,False,False,False,False,False,False,False,False,False,False,True,False,Night,Night,Night,Night
C-3281248,2,2021-07-25 14:35:11,2021-07-25 20:14:31,42.729022,-86.14829399999998,42.736728,-86.09738,2.6382150274700003,Stationary traffic on I-196 E - US-31 N from CR-2/Blue Star Hwy/Exit 41 (I-196) to MI-40/Exit 49 (I-196) due to roadwork.,,I-196 E,R,Holland,Allegan,MI,49423,US,US/Eastern,KBIV,2021-07-25 14:53:00,84.0,84.0,44.0,29.22,10.0,W,7.0,0.0,Fair,False,False,False,False,True,False,False,False,False,False,False,False,False,Day,Day,Day,Day
C-3281249,2,2021-10-26 04:35:47,2021-11-15 02:58:24,37.757352,-81.15706999999998,37.756442,-81.155876,0.0905948117482,Roadwork on WV-3/S Fayette St (S Eisenhower Dr/US-19) from I-64 (Beaver) (WV-3/Ritter Dr/US-19) to US-19 N - WV-3 - US-19 S.,101.0,Boggs Ct,R,Beckley,Raleigh,WV,25801-6970,US,US/Eastern,KBKW,2021-10-26 04:31:00,47.0,42.0,100.0,27.18,5.0,WNW,10.0,0.0,Cloudy,False,False,False,False,False,False,False,False,False,False,False,False,False,Night,Night,Night,Night
C-3281251,2,2021-07-19 14:59:28,2021-10-15 15:48:35,45.225577,-93.395143,45.224299,-93.398826,0.1998015893259999,Stationary traffic on County Hwy-116 from 7th Ave (CR-116) to Sunfish Lake Blvd (CR-116) due to roadwork.,,Bunker Lake Blvd NW,R,Anoka,Anoka,MN,55303,US,US/Central,KANE,2021-07-19 14:45:00,86.0,86.0,35.0,29.19,10.0,VAR,6.0,0.0,Cloudy,False,False,True,False,False,False,False,False,False,False,False,False,False,Day,Day,Day,Day
C-3281252,2,2020-08-29 01:48:30,2020-08-29 08:06:48,42.614347,-87.951092,42.611824,-87.942548,0.468120647832,Roadwork from I-94/US-41 (Burlington Rd) to 38th St (Burlington Rd).,,Burlington Rd,R,Kenosha,Kenosha,WI,53144,US,US/Central,KENW,2020-08-29 01:53:00,73.0,73.0,73.0,28.89,10.0,WNW,7.0,0.0,Fair,False,False,False,False,False,False,False,False,False,False,False,False,False,Night,Night,Night,Night
C-3281253,2,2021-09-21 11:33:05,2021-09-21 11:55:00,28.438185,-98.893829,28.441975,-98.921599,1.70736522649,Stationary traffic on TX-97 from San Antonio (TX-97) to FM-469 (TX-97) due to roadwork.,,TX-97,R,Cotulla,La Salle,TX,78014,US,US/Central,KCOT,2021-09-21 11:53:00,93.0,93.0,52.0,29.53,10.0,VAR,7.0,0.0,Fair,False,False,False,False,False,False,False,False,False,False,False,False,False,Day,Day,Day,Day
C-3281254,2,2020-04-21 09:01:12,2020-04-21 15:00:00,42.64155,-73.61283,42.64508,-73.63756,1.28032576266,At CR-66/Lape Rd - Roadwork. Roadway reduced to 1 lane.,3748.0,W Sand Lake Rd,L,West Sand Lake,Rensselaer,NY,12196-1931,US,US/Eastern,KALB,2020-04-21 08:51:00,46.0,39.0,56.0,29.15,10.0,S,18.0,0.0,Mostly Cloudy,False,False,False,False,False,False,False,False,False,False,False,False,False,Day,Day,Day,Day
C-3281255,2,2017-05-29 09:02:04,2017-05-29 15:02:04,42.95872,-78.86955999999998,42.93299,-78.86556,1.7892474850599998,Between Kenmore Ave and RT-198/Scajaquada Expy - Construction work.,2735.0,Delaware Ave,R,Buffalo,Erie,NY,14217-2701,US,US/Eastern,KBUF,2017-05-29 08:54:00,61.0,,93.0,29.77,10.0,SW,6.9,0.12,Light Rain,False,False,True,False,False,False,False,False,False,False,False,True,False,Day,Day,Day,Day
C-3281256,2,2021-11-23 10:01:00,2021-11-23 16:01:00,41.998269,-121.518808,41.998286,-121.519491,0.0350902164690999,Lane closure due to Traffic Signal Work between 0.6 mi south of Route 161 (Oregon State Line) and Route 161 (Oregon State Line),22000.0,Stateline Rd,R,Tulelake,Klamath,OR,96134-8401,US,US/Pacific,KLMT,2021-11-23 09:53:00,39.0,34.0,65.0,25.92,10.0,WNW,7.0,0.0,Partly Cloudy,False,False,False,False,False,False,False,False,False,False,False,False,False,Day,Day,Day,Day
C-3281257,2,2021-06-01 10:00:00,2021-06-04 23:59:59,41.056691,-73.821247,41.057731,-73.821967,0.0810593032408,Bridge work on Saw Mill River Parkway southbound between Exit 21W - Frontage Road (Greenburgh) and Exit 5A - CR 33II; Palmer Road (Yonkers) D264412 -29103709 Tuesday June 1st 2021 thru Friday June 4th 2021 Tuesday/ Wednesday/ Thursday/ Friday 10:00 AM thru 03:00 PM various lane closures,,Saw Mill River Pkwy N,R,Elmsford,Westchester,NY,10523,US,US/Eastern,KHPN,2021-06-01 09:56:00,66.0,66.0,56.0,29.79,10.0,CALM,0.0,0.0,Fair,False,False,False,False,True,False,False,False,False,False,False,False,False,Day,Day,Day,Day
C-3281258,2,2021-07-24 08:56:56,2021-07-24 11:41:56,47.889296,-91.840897,47.877766,-91.84097,0.79665430865,Construction on MN-1 SB near E JAMES ST Allow extra time.,2315.0,Highway 1,R,Ely,St. Louis,MN,55731-8208,US,US/Central,KELO,2021-07-24 08:55:00,70.0,70.0,88.0,28.26,10.0,W,9.0,0.0,Fair,False,False,False,False,False,False,False,False,False,False,False,False,False,Day,Day,Day,Day
C-3281259,2,2020-11-05 05:57:30,2020-11-05 08:49:30,35.013803,-85.182462,35.006753,-85.205602,1.3971759200100002,Stationary traffic on I-75 from TN-320/Brainerd Rd/Exit 3 (I-75) to I-24/TN-2/Exit 2 (I-75) due to roadwork.,,I-75 S,R,Chattanooga,Hamilton,TN,37421,US,US/Eastern,KCHA,2020-11-05 05:53:00,42.0,42.0,92.0,29.67,10.0,CALM,0.0,0.0,Shallow Fog,False,False,False,False,False,False,False,False,False,False,False,False,False,Night,Night,Night,Day
C-3281260,2,2017-08-01 21:01:49,2017-08-02 03:01:49,27.995690000000003,-82.32628000000003,28.05769,-82.3537,4.59866098891,Between I-4/Exit 261 and SR-582/Fowler Ave/Exit 265 - Construction work.,,I-75 N,R,Tampa,Hillsborough,FL,33610,US,US/Eastern,KVDF,2017-08-01 20:55:00,82.4,,84.0,30.05,10.0,SW,5.8,,Overcast,False,False,False,False,False,False,False,False,False,False,False,False,False,Night,Night,Day,Day
C-3281261,3,2020-02-11 01:40:22,2020-02-11 04:30:00,47.147171,-122.504578,,,0.0,Intermittent lane closures due to construction during the night on I-5 Southbound at Bridgeport Way.,,I-5 S,R,Lakewood,Pierce,WA,98499,US,US/Pacific,KTCM,2020-02-11 01:58:00,32.0,27.0,100.0,30.06,10.0,S,5.0,0.0,Cloudy,False,False,False,False,False,False,False,False,False,False,False,False,False,Night,Night,Night,Night
C-3281262,2,2020-08-10 17:21:27,2020-08-10 21:45:00,40.666891,-73.76577900000002,40.667491,-73.772109,0.334322151889,Construction on SOUTHERN PKWY WB near FARMERS BLVD Drive with caution.,,Belt Pkwy W,R,Springfield Gardens,Queens,NY,11413,US,US/Eastern,KJFK,2020-08-10 16:51:00,83.0,83.0,74.0,29.97,10.0,S,18.0,0.0,Fair,False,False,False,False,False,False,False,False,False,False,False,False,False,Day,Day,Day,Day
C-3281263,2,2021-06-14 18:24:30,2021-06-14 18:44:00,39.842838,-104.984123,39.848934,-104.985457,0.427096902882,Slow traffic on I-25 N from exit [217A] to exit [220] due to roadwork.,,I-25 N,R,Denver,Adams,CO,80229,US,US/Mountain,KBJC,2021-06-14 17:54:00,95.0,95.0,12.0,24.48,10.0,NE,6.0,0.0,Partly Cloudy,False,False,False,False,False,False,False,False,False,False,False,False,False,Day,Day,Day,Day
C-3281264,2,2021-08-03 15:44:42,2021-08-03 16:06:11,45.017765,-92.988281,45.020203,-92.984019,0.267777316549,Slow traffic on Officer Richard Crittenden Senior Memorial Hwy - MN-36 - MN-36 E from McKnight Rd (MN-36) to Hadley Ave (MN-36) due to roadwork.,,Highway 36 E,R,Saint Paul,Ramsey,MN,55109,US,US/Central,KSTP,2021-08-03 15:53:00,85.0,85.0,37.0,29.29,8.0,SW,10.0,0.0,Fair,False,False,False,False,False,False,False,False,False,False,False,False,False,Day,Day,Day,Day
C-3281265,2,2021-03-10 08:37:19,2021-03-10 23:23:06,28.452476,-81.47081800000002,28.449867,-81.469654,0.1936374544269999,Slow traffic on FL-482 from Carrier Dr to Canada Ave due to roadwork.,7645.0,International Dr,L,Orlando,Orange,FL,32819-8263,US,US/Eastern,KMCO,2021-03-10 08:53:00,67.0,67.0,59.0,30.32,10.0,ENE,9.0,0.0,Fair,False,False,False,False,False,False,False,False,False,False,False,False,False,Day,Day,Day,Day
C-3281266,2,2021-08-03 16:45:30,2021-08-03 19:05:10,33.406776,-112.045373,33.407831,-112.047109,0.123851384923,Slow traffic from S 17th St to E Wood St due to roadwork.,1676.0,E Broadway Rd,L,Phoenix,Maricopa,AZ,85040-2406,US,US/Mountain,KPHX,2021-08-03 16:51:00,111.0,111.0,14.0,28.58,10.0,S,5.0,0.0,Fair,False,False,False,False,False,False,False,False,False,False,False,False,False,Day,Day,Day,Day
C-3281267,4,2019-06-04 01:05:24,2019-06-04 06:04:39,33.53009,-86.80253,33.52155,-86.823074,1.32226763537,Closed between 31st St/Exit 126B and I-65/Exit 124A - Closed due to roadwork.,,I-20 W,R,Birmingham,Jefferson,AL,35203,US,US/Central,KBHM,2019-06-04 00:53:00,73.0,73.0,57.0,29.37,10.0,CALM,0.0,0.0,Fair,False,False,False,False,True,False,False,False,False,False,False,False,False,Night,Night,Night,Night
C-3281268,2,2021-11-23 07:30:00,2021-11-23 07:51:30,33.638902,-111.996147,33.640613,-111.99616,0.11822120593,Stationary traffic from E Greenway Rd (N 40th St) to E Bell Rd (N 40th St) due to roadwork.,16809.0,N 40th St,R,Phoenix,Maricopa,AZ,85032-3344,US,US/Mountain,KSDL,2021-11-23 07:53:00,64.0,64.0,35.0,28.3,10.0,CALM,0.0,0.0,Fair,False,False,True,False,False,False,False,False,False,False,False,True,False,Day,Day,Day,Day
C-3281269,3,2020-07-20 06:00:00,2020-08-14 23:59:00,40.106499,-80.75347099999998,,,0.0,Road closed due to slide repair on OH-647 Colerain Pike both ways between CR-4 Glenns Run Rd and Martins Ferry Crossing.,70014.0,Mount Pleasant Pike,R,Martins Ferry,Belmont,OH,43935-9785,US,US/Eastern,KHLG,2020-07-20 06:05:00,72.0,72.0,84.0,28.74,10.0,WSW,5.0,0.0,Cloudy,False,False,False,False,False,False,False,False,False,False,False,False,False,Night,Day,Day,Day
C-3281270,2,2021-12-10 14:52:56,2021-12-10 17:12:39,40.841667,-73.998319,40.842269,-74.00191600000002,0.1925621705229999,Slow traffic on US-1 N - US-1 S - US-9 N - US-9 S from US Highway 46 to Maple Ave due to roadwork.,,US-1 S,R,Palisades Park,Bergen,NJ,07650,US,US/Eastern,KTEB,2021-12-10 14:51:00,48.0,48.0,52.0,30.1,10.0,CALM,0.0,0.0,Cloudy,False,False,False,False,False,False,False,False,False,False,False,False,False,Day,Day,Day,Day
C-3281271,2,2021-02-18 09:17:30,2021-02-18 17:21:38,31.965740000000004,-90.956572,31.96556,-90.958852,0.1342230079959999,Roadwork on Old Highway 18 (MS-18) from Natchez Trace Pkwy (MS-18) to MS-18.,2200.0,Highway 18,R,Port Gibson,Claiborne,MS,39150,US,US/Central,KVKS,2021-02-18 07:53:00,28.0,18.0,88.0,30.11,5.0,N,12.0,0.0,Cloudy,False,False,False,False,False,False,False,False,False,False,False,False,False,Day,Day,Day,Day
C-3281272,2,2020-05-05 09:01:00,2020-05-06 16:01:00,33.91686,-117.28745,33.9314,-117.28886,1.0078654700299998,Between Alessandro Blvd and Eucalyptus Ave - Maintenance work. Lane closed.,,Escondido Fwy N,R,Riverside,Riverside,CA,92508,US,US/Pacific,KRIV,2020-05-05 08:58:00,76.0,76.0,48.0,28.36,10.0,CALM,0.0,0.0,Fair,False,False,False,False,False,False,False,False,False,False,False,False,False,Day,Day,Day,Day
C-3281273,3,2020-03-26 10:16:11,2020-03-26 16:00:00,41.509892,-72.116821,,,0.0,Right lane closed due to construction on I-395 Governor John Davis Lodge Tpke Northbound at Exit 11 CT-82.,,CT-2A E,R,Norwich,New London,CT,06360,US,US/Eastern,KGON,2020-03-26 09:56:00,42.0,35.0,65.0,30.01,10.0,NNW,15.0,0.0,Fair,False,False,False,False,False,False,False,False,False,False,False,False,False,Day,Day,Day,Day
C-3281274,2,2020-05-20 22:17:36,2020-05-21 05:29:59,41.58204,-87.24407,41.58204,-87.24407,0.0,At US-6/IN-51/Ripley St/Exit 15 - Roadwork. Two lanes closed.,,I-80 W,R,Lake Station,Lake,IN,46405,US,US/Central,KGYY,2020-05-20 22:15:00,60.0,60.0,58.0,29.51,7.0,E,8.0,0.0,Heavy Rain,False,False,False,False,False,False,False,False,False,False,False,False,False,Night,Night,Night,Night
C-3281275,2,2017-03-02 09:01:50,2017-03-02 15:01:50,40.74401,-73.83723,40.74047,-73.83768,0.245722495463,At I-495/I-678/Horace Harding Expy - Construction work.,,College Point Blvd,R,Flushing,Queens,NY,11355,US,US/Eastern,KLGA,2017-03-02 08:51:00,48.0,,33.0,29.63,10.0,West,34.5,,Scattered Clouds,False,False,False,False,False,False,False,False,False,False,False,True,False,Day,Day,Day,Day
C-3281276,2,2020-07-16 03:00:00,2020-07-17 13:45:00,32.727466,-97.810281,32.727286,-97.797511,0.742360638069,Construction on I-20 EB near FM-1884 Construction. Right lane closed.,,I-20 E,R,Weatherford,Parker,TX,76086,US,US/Central,KMWL,2020-07-16 02:53:00,78.0,78.0,76.0,28.9,10.0,SSE,10.0,0.0,Fair,False,False,False,False,True,False,False,False,False,False,False,False,False,Night,Night,Night,Night
C-3281277,4,2020-06-10 11:51:36,2020-06-16 11:49:23,39.6965,-75.61389,39.69776,-75.60271,0.60070048783,Closed at I-95/Delaware Tpke/Exit 2/Exit 3 - Closed due to roadwork.,413.0,Airport Rd,R,New Castle,New Castle,DE,19720-1573,US,US/Eastern,KILG,2020-06-12 11:51:00,83.0,83.0,34.0,30.04,10.0,NNW,9.0,0.0,Fair,False,False,False,False,False,False,False,False,False,False,False,True,False,Day,Day,Day,Day
C-3281278,2,2021-11-13 18:26:30,2021-11-13 20:30:42,33.639621000000005,-112.229426,33.638039,-112.228259,0.128273827077,Slow traffic from W Campo Bello Dr to N 77th Ave due to roadwork.,17198.0,N 79th Ave,L,Glendale,Maricopa,AZ,85308,US,US/Mountain,KDVT,2021-11-13 18:53:00,73.0,73.0,18.0,28.42,10.0,N,5.0,0.0,Fair,False,False,False,False,False,False,False,False,False,False,False,False,False,Night,Night,Night,Day
C-3281279,2,2021-03-04 08:08:00,2021-03-11 05:19:51,40.808653,-78.351055,40.80978,-78.350737,0.0796243178316,Utility work on PA 153 northbound between (Beginning of PA - 153) and TWENTY EIGHTH DIVISION HW. There is a lane restriction.,4934.0,Morann Ave,R,Houtzdale,Clearfield,PA,16651-1534,US,US/Eastern,KFIG,2021-03-04 07:54:00,33.0,25.0,75.0,28.33,10.0,NW,9.0,0.0,Mostly Cloudy,False,False,False,False,False,False,False,False,False,False,False,False,False,Day,Day,Day,Day
C-3281280,3,2017-10-20 05:47:03,2017-10-31 05:47:03,42.00827,-87.94028,42.022709000000006,-87.9405,0.997703804824,Between IL-72 and IL-83/Oakton St - Roadwork.,,Elmhurst Rd,R,Elk Grove Village,Cook,IL,60007,US,US/Central,KORD,2017-10-20 05:51:00,51.1,,83.0,30.16,10.0,Calm,,,Clear,False,False,False,False,False,False,False,False,False,False,False,True,False,Night,Night,Night,Day
C-3281281,2,2020-11-03 17:12:00,2020-11-04 01:04:30,40.015589,-75.21526,40.041392,-75.251059,2.60109180404,Stationary traffic on Schuylkill Expy W - I-76 W from City Ave exit [339] to exit [337] due to roadwork.,,Righters Ferry Rd,R,Bala Cynwyd,Montgomery,PA,19004,US,US/Eastern,KLOM,2020-11-03 17:15:00,51.0,51.0,52.0,29.82,10.0,SW,3.0,0.0,Fair,False,False,False,False,False,False,False,False,False,False,False,False,False,Night,Day,Day,Day
C-3281282,2,2021-07-07 17:25:26,2021-07-07 17:51:11,40.468023,-78.41469599999998,40.466712,-78.418707,0.229471292846,Slow traffic from Russell Dr to Kentucky Ave due to roadwork.,5627.0,Goods Ln,R,Altoona,Blair,PA,16601-9117,US,US/Eastern,KAOO,2021-07-07 17:32:00,80.0,80.0,58.0,28.41,10.0,WSW,16.0,0.0,Thunder in the Vicinity,False,False,False,False,False,False,False,False,False,False,False,False,False,Day,Day,Day,Day
C-3281283,3,2020-06-03 11:19:20,2020-07-18 16:47:42,32.655809999999995,-97.06186,32.76617,-97.06306,7.625468906210001,Between TX-303-SPUR/Pioneer Pky and Park Row Dr - Construction work.,,TX-360 N,R,Arlington,Tarrant,TX,76018,US,US/Central,KGKY,2020-06-03 10:53:00,87.0,87.0,48.0,29.34,10.0,SSW,7.0,0.0,Fair,False,False,False,False,False,False,False,False,False,False,False,False,False,Day,Day,Day,Day
C-3281284,4,2017-08-30 19:13:44,2017-08-31 01:13:45,40.44285,-79.99094000000002,40.45905,-79.999131,1.19930483975,Between Bedford Ave/Mario Lemieux Pl and I-279 - Roadwork.,,Mario Lemieux Pl,R,Pittsburgh,Allegheny,PA,15219,US,US/Eastern,KAGC,2017-08-30 18:53:00,73.0,,61.0,30.01,10.0,South,5.8,,Overcast,False,False,False,False,True,False,False,False,False,False,False,True,False,Day,Day,Day,Day
C-3281285,2,2020-11-10 22:44:00,2020-11-10 23:07:31,40.18369600000001,-75.273893,40.182078,-75.275463,0.139161660024,Slow traffic on US-202 from Sumneytown Pike (DeKalb Pike/US-202) to PA-73/Skippack Pike (DeKalb Pike/US-202) due to roadwork.,253.0,Dekalb Pike,L,Ambler,Montgomery,PA,19002-1947,US,US/Eastern,KLOM,2020-11-10 22:35:00,60.0,60.0,91.0,29.81,10.0,S,5.0,0.0,Fair,False,False,False,False,False,False,False,False,False,False,False,False,False,Night,Night,Night,Night
C-3281286,2,2021-09-14 14:14:00,2021-12-15 16:06:53,26.098434,-80.136651,26.101189,-80.136712,0.190389996385,Slow traffic on US-1 N - FL-A1A - FL-5 from FL-84/24th St (US-1) to FL-736/Davie Blvd (US-1) due to roadwork.,1830.0,S Federal Hwy,L,Fort Lauderdale,Broward,FL,33316-2936,US,US/Eastern,KFLL,2021-10-11 10:53:00,83.0,83.0,74.0,29.9,10.0,SSW,3.0,0.0,Mostly Cloudy,False,False,False,False,False,False,False,False,False,False,False,False,False,Day,Day,Day,Day
C-3281287,2,2017-11-01 10:20:43,2017-11-01 16:20:43,38.745707,-112.107982,38.794102,-112.075842,3.76543554394,Between I-70-BL/Exit 37 and I-70-BL/Exit 40 - Construction work. Lane blocked.,,US-89 N,R,Richfield,Sevier,UT,84701,US,US/Mountain,KU24,2017-11-01 10:15:00,54.0,54.0,54.0,25.1,10.0,S,14.0,,Partly Cloudy,False,False,False,False,False,False,False,False,False,False,False,False,False,Day,Day,Day,Day
C-3281288,2,2020-08-13 16:30:00,2020-08-24 12:45:00,33.42196,-111.999767,33.420986,-111.999772,0.0672976083522,Construction on 38TH ST near 42ND ST Allow extra time.,3800.0,E University Dr,L,Phoenix,Maricopa,AZ,85034-7204,US,US/Mountain,KPHX,2020-08-13 16:51:00,113.0,113.0,11.0,28.52,10.0,NNW,7.0,0.0,Partly Cloudy,False,False,False,False,False,False,False,False,False,False,False,False,False,Day,Day,Day,Day
C-3281289,2,2019-03-11 00:00:01,2019-03-12 00:00:01,38.098492,-103.74738,38.078191,-103.74764,1.40273676951,At US-50/CR-18 - Construction work.,31991.0,State Highway 71,L,Rocky Ford,Otero,CO,81067-9528,US,US/Mountain,KLHX,2019-03-11 00:53:00,28.9,20.4,75.0,30.06,10.0,East,9.2,,Clear,False,False,False,False,False,False,False,False,False,True,False,False,False,Night,Night,Night,Night
C-3281290,2,2021-02-02 00:38:04,2021-02-02 04:40:11,35.07628,-81.732428,35.050169,-81.801937,4.32524696618,Stationary traffic on I-85 S from Hyatt St/Exit 90 (I-85) to SC-110/Exit 83 (I-85) due to roadwork.,,I-85 S,R,Gaffney,Cherokee,SC,29341,US,US/Eastern,KEHO,2021-02-02 00:35:00,35.0,24.0,54.0,28.89,10.0,NNW,20.0,0.0,Cloudy,False,False,False,False,False,False,False,False,False,False,False,False,False,Night,Night,Night,Night
C-3281291,4,2020-05-23 18:34:39,2020-08-11 02:46:27,38.60023,-86.68685,38.61681,-86.71583000000004,1.93920931,Closed between IN-56/N CR-825/Main St/Sand Hill Rd and IN-550 - Closed due to roadwork.,12766.0,US Highway 150,L,Shoals,Martin,IN,47581-7410,US,US/Eastern,KDCY,2020-05-23 18:35:00,74.0,74.0,74.0,29.4,7.0,SW,13.0,0.0,Rain,False,False,False,False,False,False,False,False,False,False,False,False,False,Day,Day,Day,Day
C-3281292,4,2016-11-14 22:25:44,2016-11-15 04:25:44,41.69021,-83.52696,41.68867,-83.52689000000002,0.106465146282,Closed between N Expressway Dr and Berwin St - Closed due to roadwork.,3701.0,Stickney Ave,L,Toledo,Lucas,OH,43608-1309,US,US/Eastern,KDUH,2016-11-14 22:34:00,44.6,,62.0,29.93,10.0,Calm,,,Clear,False,False,True,False,False,False,False,False,False,False,False,True,False,Night,Night,Night,Night
C-3281293,2,2020-10-23 11:57:30,2020-10-23 22:14:15,26.103019,-80.13691899999998,26.100217,-80.136186,0.198870145943,Stationary traffic on US-1 S - FL-A1A - FL-5 from SE 15th St to Miami Rd due to roadwork.,598.0,SE 15th St,R,Fort Lauderdale,Broward,FL,33316-1944,US,US/Eastern,KFLL,2020-10-23 11:53:00,85.0,85.0,69.0,29.96,10.0,ESE,20.0,0.0,Partly Cloudy,False,False,True,False,False,False,False,False,False,False,False,False,False,Day,Day,Day,Day
C-3281294,2,2021-02-09 14:19:30,2021-02-10 01:30:45,26.318285,-80.091511,26.31925,-80.090616,0.0867057896125,Slow traffic on US-1 N - FL-810 - FL-5 from SE 9th Ter to NE Eller St due to roadwork.,920.0,E Hillsboro Blvd,R,Deerfield Beach,Broward,FL,33441-3554,US,US/Eastern,KPMP,2021-02-09 13:53:00,81.0,81.0,72.0,30.08,10.0,SE,13.0,0.0,Partly Cloudy,False,False,False,False,False,False,False,False,False,False,False,True,False,Day,Day,Day,Day
C-3281295,2,2021-04-02 23:01:00,2021-04-03 06:46:00,34.072975,-118.23453899999998,34.058718,-118.253402,1.4615079715,Construction on I-110 SB near I-5 Construction. Expect long delays.,,Arroyo Seco Pkwy,R,Los Angeles,Los Angeles,CA,90012,US,US/Pacific,KCQT,2021-04-02 22:52:00,57.0,57.0,83.0,29.87,8.0,W,3.0,0.0,Fair,False,False,False,False,True,False,False,False,False,False,False,False,False,Night,Night,Night,Night
C-3281296,2,2017-07-05 09:00:00,2017-07-05 15:00:00,40.180107,-74.672569,,,3.33999991417,Resurfacing work during the day time on County Hwy-524 Broad St both ways between Gropps Lake Bridge and Yardville Hamilton Squ Rd .,8.0,Yardville Hamilton Squ Rd,R,Trenton,Mercer,NJ,08620,US,US/Eastern,KTTN,2017-07-05 08:53:00,73.0,,71.0,30.16,10.0,ENE,8.1,,Overcast,False,False,True,False,False,False,False,False,False,False,False,False,False,Day,Day,Day,Day
C-3281297,2,2021-03-02 05:30:00,2021-03-02 21:33:30,39.032367,-95.588861,39.033682,-95.596583,0.424286802775,Slow traffic on I-70 W from I-470/Kansas Tpke (I-70) to I-470/KS-4/Exit 366 (I-70) due to roadwork.,,I-70 W,R,Tecumseh,Shawnee,KS,66542,US,US/Central,KTOP,2021-03-02 05:53:00,24.0,24.0,81.0,29.3,10.0,CALM,0.0,0.0,Fair,False,False,False,False,False,False,False,False,False,False,False,False,False,Night,Night,Night,Day
C-3281298,2,2021-12-13 15:46:35,2021-12-13 18:20:31,25.684137,-80.416422,25.685394,-80.417583,0.113000164654,Slow traffic on FL-825 - FL-94 from SW 96th St to SW 137th Ct due to roadwork.,8913.0,SW 137th Ave,L,Miami,Miami-Dade,FL,33186,US,US/Eastern,KTMB,2021-12-13 15:53:00,81.0,81.0,60.0,30.18,10.0,ENE,13.0,0.0,Mostly Cloudy,False,False,True,False,False,False,False,False,True,False,False,False,False,Day,Day,Day,Day
C-3281299,4,2020-06-20 20:04:14,2020-06-25 20:02:12,39.95401,-82.99082,39.9526,-83.01118000000002,1.0827551876,Closed at Sr 315 - Closed due to roadwork.,,East Fwy W,R,Columbus,Franklin,OH,43215,US,US/Eastern,KCMH,2020-06-20 19:51:00,87.0,87.0,35.0,29.06,10.0,ENE,6.0,0.0,Fair,False,False,False,False,False,False,False,False,False,False,False,False,False,Day,Day,Day,Day
C-3281300,2,2021-06-30 07:01:00,2021-06-30 18:01:00,39.308084,-120.71611,39.303964,-120.71054,0.411960218649,One-Way Traffic closure due to Maintenance Operation between (Excelsior Rd Rt 1054) and (Old Road),,State Highway 20,R,Nevada City,Nevada,CA,95959,US,US/Pacific,KGOO,2021-06-30 06:55:00,81.0,81.0,32.0,26.65,10.0,E,7.0,0.0,Fair,False,False,False,False,False,False,False,False,False,False,False,False,False,Day,Day,Day,Day
C-3281301,4,2020-06-10 07:50:45,2020-06-10 12:49:22,45.59964,-122.04816,45.55981,-122.17327,6.6467435408,Closed between I-84/US-30/Columbia Riv Hwy/FRTG Rd and NE Corbett Hill Rd - Closed due to roadwork.,,E Historic Columbia River Hwy,R,Corbett,Multnomah,OR,97019,US,US/Pacific,KTTD,2020-06-10 07:53:00,62.0,62.0,84.0,30.06,7.0,E,8.0,0.0,Light Rain,False,False,False,False,False,False,False,False,False,False,False,False,False,Day,Day,Day,Day
C-3281302,2,2021-02-28 12:09:30,2021-12-31 00:00:15,42.08844600000001,-122.603379,42.064042,-122.602615,1.68661098584,Slow traffic on OR-99 S - Pacific Highway 1 S - I-5 S from OR-99/Exit 11 (I-5) to OR-99/Exit 1 (I-5) due to roadwork.,,I-5 S,R,Ashland,Jackson,OR,97520,US,US/Pacific,KMFR,2021-04-25 07:53:00,42.0,42.0,79.0,28.37,9.0,NE,3.0,0.01,Light Rain,False,False,False,False,False,False,False,False,False,False,False,False,False,Day,Day,Day,Day
C-3281303,3,2020-06-11 09:00:00,2020-06-16 15:00:00,42.43439,-82.97814,42.43626,-82.97691,0.1436242644009999,Between Fordham St and Lappin St - Construction work.,14241.0,Gratiot Ave,L,Detroit,Wayne,MI,48205-2425,US,US/Eastern,KDET,2020-06-11 08:53:00,65.0,65.0,68.0,29.29,10.0,W,12.0,0.0,Mostly Cloudy,False,False,False,False,False,False,False,False,False,True,False,False,False,Day,Day,Day,Day
C-3281304,3,2020-10-09 04:40:45,2020-10-09 06:01:00,37.775082,-122.233063,,,0.75,One lane closed due to construction during the night on I-880 both ways from Exit 39B 23rd Ave to Exit 39A 29th Ave.,,I-880 N,R,Oakland,Alameda,CA,94601,US,US/Pacific,KOAK,2020-10-09 04:53:00,62.0,62.0,75.0,29.97,10.0,W,8.0,0.0,Cloudy,False,False,False,False,False,False,False,False,False,False,False,False,False,Night,Night,Night,Night
C-3281305,2,2021-08-23 01:56:00,2021-08-23 02:21:00,46.872447,-113.984111,46.863725,-113.963894,1.12924951404,Slow traffic on US-12 E - I-90 E - MT-200 E from Orange St/Exit 104 (I-90) to MT-200/Exit 107 (I-90) due to roadwork.,,I-90 E,R,Missoula,Missoula,MT,59802,US,US/Mountain,KMSO,2021-08-23 01:53:00,51.0,51.0,80.0,26.49,10.0,NNW,3.0,0.0,Fair,False,False,False,False,False,False,False,False,False,False,False,False,False,Night,Night,Night,Night
C-3281306,2,2021-11-14 16:29:30,2021-11-14 18:30:33,41.758987,-87.74249300000002,41.760136,-87.741639,0.0907735695942,Slow traffic on IL-50 from State Rd / W 76th St to W 73rd St due to roadwork.,,S State Rd,R,Chicago,Cook,IL,60638,US,US/Central,KMDW,2021-11-14 16:09:00,37.0,26.0,62.0,29.17,10.0,WNW,21.0,0.0,Mostly Cloudy / Windy,False,False,False,False,False,False,False,False,True,False,False,True,False,Day,Day,Day,Day
C-3281307,2,2021-11-07 17:29:30,2021-11-07 19:04:30,29.703294,-95.459063,29.725024,-95.460192,1.5029277931600002,Stationary traffic on I-610 N from Evergreen St/Exit 5 (I-610) to US-59/Exit 8 (I-610) due to roadwork.,,I-610 N,R,Bellaire,Harris,TX,77401,US,US/Central,KMCJ,2021-11-07 17:53:00,63.0,63.0,60.0,30.15,10.0,SE,6.0,0.0,Fair,False,False,False,False,True,False,False,False,False,False,False,False,False,Day,Day,Day,Day
C-3281308,2,2021-10-04 06:00:00,2021-10-08 23:59:00,43.063099,-73.788461,43.059427,-73.787932,0.255112576284,NYSDOT TMC - Albany: roadwork on US 9 southbound between Avenue of the Pines; Saratoga State Park (Saratoga Springs) and NY 67 (Malta) Monday October 4th 2021 thru Friday October 8th 2021 Monday thru Friday 06:00 AM thru 05:00 PM 1 Right lane of 2 la,2.0,Avenue of the Pines,L,Saratoga Springs,Saratoga,NY,12866-6223,US,US/Eastern,KSCH,2021-10-04 07:45:00,59.0,59.0,100.0,29.58,2.0,ENE,7.0,0.0,Drizzle,False,False,True,False,False,False,False,False,False,False,False,True,False,Night,Night,Day,Day
C-3281309,2,2020-11-10 13:31:30,2020-11-10 20:01:13,29.854136,-98.726267,29.829308,-98.737192,1.83615861376,Slow traffic on FM-1376 from Cypress Ln to Summit Trl due to roadwork.,343.0,Sisterdale Rd,R,Boerne,Kendall,TX,78006-7043,US,US/Central,K5C1,2020-11-10 13:35:00,64.0,64.0,42.0,28.46,10.0,N,9.0,0.0,Cloudy,False,False,False,False,False,False,False,False,False,False,False,False,False,Day,Day,Day,Day
C-3281310,2,2016-08-19 09:02:28,2016-08-19 15:02:28,38.763901,-76.90614599999998,38.76669,-76.890508,0.864228978256,Between Gwynndale Dr and Branch Ave - Construction work.,9200.0,Piscataway Rd,R,Clinton,Prince Georges,MD,20735-3653,US,US/Eastern,KADW,2016-08-19 08:58:00,78.8,,67.0,30.01,10.0,North,5.8,,Clear,False,False,False,False,False,False,False,False,False,False,False,False,False,Day,Day,Day,Day
C-3281311,2,2021-08-24 07:54:00,2021-08-24 10:32:43,32.785025,-96.737447,32.782293,-96.737623,0.189039876272,Slow traffic from I-30/US-67/R L Thornton Fwy (Dolphin Rd) to Hatcher St/Spring Ave (Dolphin Rd) due to roadwork.,4966.0,Dolphin Rd,R,Dallas,Dallas,TX,75223,US,US/Central,KDAL,2021-08-24 07:53:00,80.0,80.0,74.0,29.47,10.0,SSW,5.0,0.0,Fair,False,False,False,False,False,False,False,False,False,False,False,False,False,Day,Day,Day,Day
C-3281312,2,2021-08-23 02:23:52,2021-08-27 00:02:41,47.907568,-120.216753,47.918512,-120.211872,0.789221172834,Roadwork from Granite Fls to Dinghy Rd.,11083.0,S Lakeshore Rd,L,Chelan,Chelan,WA,98816,US,US/Pacific,KEAT,2021-08-23 01:55:00,56.0,56.0,49.0,28.51,10.0,W,9.0,0.0,Fair,False,False,False,False,False,False,False,False,False,False,False,False,False,Night,Night,Night,Night
C-3281313,2,2021-12-02 08:05:30,2021-12-02 08:25:30,41.680416,-93.598621,41.679921,-93.600632,0.109265641145,Slow traffic on US-69 S - US-69 N from NE 15th St to NE 60th Ave due to roadwork.,1602.0,NE 66th Ave,L,Des Moines,Polk,IA,50313-1238,US,US/Central,KIKV,2021-12-02 08:15:00,46.0,43.0,66.0,28.98,10.0,NW,7.0,0.0,Fair,False,False,False,False,False,False,False,False,False,False,False,False,False,Day,Day,Day,Day
C-3281314,4,2020-09-23 12:16:00,2020-09-23 14:45:00,34.80856,-82.285076,34.80509,-82.283376,0.258424758529,Construction on I-385 SB near EXIT 35 Use alternate exit ramp.,,Golden Strip Fwy S,R,Greenville,Greenville,SC,29607,US,US/Eastern,KGMU,2020-09-23 11:53:00,74.0,74.0,46.0,28.98,10.0,ENE,5.0,0.0,Fair,False,False,False,False,False,False,False,False,False,False,False,True,False,Day,Day,Day,Day
C-3281315,2,2021-02-26 05:40:00,2021-02-26 06:29:30,45.999738,-120.651176,46.029996,-120.60471,3.0564413900700003,Slow traffic on US-97 N - US-97 S from Jenkins Creek Rd (US-97) to BIA 63 Rd/Pine Springs Rd (US-97) due to roadwork.,2852.0,Highway 97,R,Goldendale,Klickitat,WA,98620,US,US/Pacific,KDLS,2021-02-26 05:38:00,42.0,35.0,82.0,29.68,10.0,WNW,15.0,0.07,Light Rain,False,False,False,False,False,False,False,False,False,False,False,False,False,Night,Night,Night,Day
C-3281316,2,2020-05-14 19:00:00,2020-05-15 05:00:00,39.74013,-104.83345,39.74013,-104.83345,0.0,At I-225 - Construction work.,13430.0,E Colfax Ave,R,Aurora,Arapahoe,CO,80011-5512,US,US/Mountain,KBKF,2020-05-14 18:58:00,55.0,55.0,66.0,24.32,10.0,E,9.0,0.0,Mostly Cloudy,False,False,False,False,False,False,False,False,False,False,False,False,False,Day,Day,Day,Day
C-3281317,2,2021-06-21 21:40:30,2021-09-30 13:44:30,40.013354,-105.258557,40.017456,-105.259415,0.287034787385,Slow traffic on CO-119 - US-36 W from Colorado Ave to 26th St due to roadwork.,1524.0,28th St,R,Boulder,Boulder,CO,80303-1039,US,US/Mountain,KBDU,2021-09-11 13:35:00,95.0,95.0,13.0,24.76,10.0,ENE,9.0,0.0,Fair,False,False,False,False,False,False,False,False,True,False,False,False,False,Night,Night,Day,Day
C-3281318,2,2021-04-07 13:00:00,2021-04-07 19:45:00,41.436608,-85.05342399999998,41.490719,-85.05386899999998,3.73878502162,Construction on I-69 NB near US-6 Construction. Shoulder closed.,,I-69 N,R,Waterloo,DeKalb,IN,46793,US,US/Eastern,KGWB,2021-04-07 12:55:00,75.0,75.0,47.0,28.98,10.0,S,3.0,0.0,Partly Cloudy,False,False,False,False,False,False,False,False,False,False,False,False,False,Day,Day,Day,Day
C-3281319,2,2019-01-31 05:52:21,2019-06-30 15:00:00,39.636082,-81.89858199999998,,,0.0,Intermittent lane closures due to construction work on OH-78 both ways at Ross Rd.,2101.0,Ross Rd NW,L,Malta,Morgan,OH,43758-9234,US,US/Eastern,KZZV,2019-01-31 05:53:00,-5.1,-15.8,69.0,30.45,10.0,SSW,4.6,,Clear,False,False,False,False,False,False,False,False,False,False,False,False,False,Night,Night,Night,Night
C-3281320,2,2021-07-27 21:56:00,2021-07-27 22:25:00,37.283067,-102.615457,37.264345,-102.615433,1.29356767383,Slow traffic on US-385 N - US-385 S - US-287 S - US-287 N from US-160 (US-385/US-287) to CO--OK State Border (US-385/US-287) due to roadwork.,37493.0,US Highway 287,R,Springfield,Baca,CO,81073-9504,US,US/Mountain,KSPD,2021-07-27 21:56:00,74.0,74.0,55.0,25.69,,SSE,10.0,0.0,,False,False,False,False,False,False,False,False,False,False,False,False,False,Night,Night,Night,Night
C-3281321,4,2021-03-20 02:36:04,2021-03-27 23:59:00,40.710042,-73.96052900000002,40.709522,-73.958839,0.0955267888095,Closed road from Williamsburg Brg E to Brooklyn Queens Expy / Borinquen Pl due to roadwork.,180.0,S 5th St,L,Brooklyn,Kings,NY,11211,US,US/Eastern,KJRB,2021-03-20 02:51:00,35.0,35.0,37.0,30.39,10.0,VAR,3.0,0.0,Fair,True,False,False,False,True,False,False,False,False,False,False,True,False,Night,Night,Night,Night
C-3281322,2,2020-10-06 12:15:30,2020-10-06 23:45:10,40.72238400000001,-73.99332199999998,40.719918,-73.993002,0.171206394985,Slow traffic from E Houston St to Chrystie St due to roadwork.,230.0,Bowery,L,New York,New York,NY,10012-4203,US,US/Eastern,KJRB,2020-10-06 11:51:00,65.0,65.0,52.0,30.03,10.0,VAR,3.0,0.0,Fair,True,False,True,False,False,False,True,False,True,False,False,True,False,Day,Day,Day,Day
C-3281323,2,2021-05-28 11:09:00,2021-05-28 11:26:00,42.998889,-82.43253299999998,42.992619,-82.41114300000002,1.16452789435,Slow traffic on ON-402 E - Bluewater from Blue Water Bridge (ON-402) to ON-40B/Front St/Exit 1 (ON-402) due to roadwork.,,Blue Water Brg E,R,Port Huron,St. Clair,MI,48060,US,US/Eastern,KPHN,2021-05-28 11:15:00,43.0,38.0,81.0,29.36,7.0,NNE,8.0,0.0,Rain,False,False,False,False,False,False,False,False,False,False,False,False,False,Day,Day,Day,Day
C-3281324,3,2020-06-11 00:00:00,2020-06-11 23:59:00,43.025364,-78.782623,,,0.0,Left lane closed due to construction work on I-990 at Exit 3 Audubon Pkwy.,,John James Audubon Pkwy,R,Buffalo,Erie,NY,14228,US,US/Eastern,KBUF,2020-06-11 00:14:00,68.0,68.0,90.0,28.98,4.0,SSW,21.0,0.18,Heavy Rain / Windy,False,False,False,False,False,False,False,False,False,False,False,False,False,Night,Night,Night,Night
C-3281326,3,2021-01-12 08:18:23,2021-01-12 15:01:00,37.389706,-122.162781,,,5.32999992371,One lane closed due to barrier repairs on I-280 Northbound from El Monte Rd to Page Mill Rd.,,I-280 N,R,Los Altos,Santa Clara,CA,94022,US,US/Pacific,KNUQ,2021-01-12 05:20:00,46.0,46.0,93.0,30.22,10.0,CALM,0.0,,Fair,False,False,False,False,False,False,False,False,False,False,False,False,False,Day,Day,Day,Day
C-3281327,2,2020-09-16 05:00:00,2020-09-16 12:45:00,45.696569,-120.735808,45.673179,-120.830388,4.84288336424,Construction on I-84 WB near MP 109 Allow extra time.,,I-84 W,R,Wasco,Sherman,OR,97065,US,US/Pacific,KDLS,2020-09-16 04:53:00,55.0,55.0,69.0,29.82,1.0,CALM,0.0,0.0,Haze,False,False,False,False,True,False,False,False,False,False,False,False,False,Night,Night,Night,Night
C-3281328,2,2021-02-19 03:16:00,2021-02-19 14:59:52,30.320475,-90.972453,30.319551,-90.975634,0.20017718927,Slow traffic on LA-73 - LA-42 from Ronald Rd to Adams Ln due to roadwork.,38099.0,Highway 42,R,Prairieville,Ascension,LA,70769-4005,US,US/Central,KL38,2021-02-19 03:21:00,30.0,22.0,79.0,30.25,10.0,NNW,9.0,0.0,Partly Cloudy,False,False,False,False,False,False,False,False,False,False,False,False,False,Night,Night,Night,Night
C-3281329,2,2021-03-05 05:51:00,2021-12-29 20:27:30,33.582693,-84.377348,33.58275,-84.377996,0.0375068072104,Stationary traffic from Old Dixie Hwy to Lees Mill Rd due to roadwork.,6242.0,Tara Blvd,L,Jonesboro,Clayton,GA,30236-1005,US,US/Eastern,KATL,2021-11-15 14:52:00,61.0,61.0,26.0,29.07,10.0,NW,9.0,0.0,Fair,False,False,True,False,False,False,False,False,False,False,False,True,False,Night,Night,Night,Day
C-3281330,2,2021-08-13 08:33:34,2021-08-14 09:21:26,39.384767,-76.734305,39.384591,-76.73411999999998,0.0156678088893,Construction on MD-140 EB near BALTO BELTWAY Drive with caution. Expect delays.,,Reisterstown Rd,R,Pikesville,Baltimore County,MD,21208,US,US/Eastern,KDMH,,,,,,,,,,,False,False,True,False,False,False,False,False,False,False,False,True,False,Day,Day,Day,Day
C-3281331,2,2020-04-17 21:04:52,2020-04-18 06:00:00,34.5257,-117.31728,34.55451,-117.2892,2.5527451968,Between Roy Rogers Dr and Stoddard Wells Rd (South) - Roadwork. Two lanes closed.,,I-15 N,R,Victorville,San Bernardino,CA,92395,US,US/Pacific,KVCV,2020-04-17 19:45:00,,,,26.94,10.0,S,9.0,0.0,Fair,False,False,False,False,True,False,False,False,False,False,False,False,False,Night,Night,Night,Night
C-3281332,2,2021-09-07 20:15:00,2021-11-15 17:40:26,28.35743,-81.49542,28.355928,-81.49601700000002,0.109943504535,Stationary traffic on FL-536 - FL-535 at International Dr S due to roadwork.,8253.0,World Center Dr,L,Orlando,Orange,FL,32821-5407,US,US/Eastern,KMCO,2021-09-07 19:53:00,79.0,79.0,82.0,29.87,10.0,CALM,0.0,0.0,Light Rain,False,False,False,False,False,False,False,False,False,False,False,False,False,Night,Night,Day,Day
C-3281333,2,2020-11-06 14:53:00,2020-11-06 15:25:30,40.74998400000001,-73.949182,40.749511,-73.94666,0.135994182408,Stationary traffic from 11th St to 21st St due to roadwork.,4398.0,11th St,R,Long Island City,Queens,NY,11101-6902,US,US/Eastern,KNYC,2020-11-06 14:51:00,69.0,69.0,42.0,30.1,10.0,SW,5.0,0.0,Fair,False,False,False,False,False,False,False,False,False,False,False,True,False,Day,Day,Day,Day
C-3281334,2,2021-01-25 16:00:00,2021-01-26 23:45:00,43.228354,-88.105283,43.227543,-88.10390699999998,0.0890991793276999,Construction on WI-145 SB near MAIN ST Right lane closed. Expect delays.,,W157N11617 Fond du Lac Ave,R,Germantown,Washington,WI,53022-2601,US,US/Central,KMWC,2021-01-25 15:45:00,27.0,15.0,69.0,29.2,10.0,NNE,14.0,0.0,Cloudy,False,False,True,False,False,False,False,False,False,False,False,False,False,Day,Day,Day,Day
C-3281335,2,2020-07-13 16:00:00,2020-07-13 21:45:00,43.00236500000001,-87.916105,43.003905,-87.91585500000002,0.107151096159,Construction on I-43 NB near BECHER ST Expect delays.,,I-43 N,R,Milwaukee,Milwaukee,WI,53207,US,US/Central,KMKE,2020-07-13 15:52:00,75.0,75.0,69.0,29.26,10.0,E,13.0,0.0,Partly Cloudy,False,False,False,False,True,False,False,False,False,False,False,False,False,Day,Day,Day,Day
C-3281336,2,2021-12-24 15:21:00,2021-12-24 15:42:00,38.188809,-120.007857,38.200469,-120.012897,0.8508461251430001,Slow traffic on CA-108 from Pinecrest Lake Rd (Sonora Pass Hwy/CA-108) to Forest Route 5N32A (Sonora Pass Hwy/CA-108) due to roadwork.,29131.0,Pine Ave,L,Long Barn,Tuolumne,CA,95335,US,US/Pacific,KO22,2021-12-24 15:15:00,45.0,45.0,87.0,27.63,10.0,CALM,0.0,0.0,Mostly Cloudy,False,False,False,False,False,False,False,False,False,True,False,False,False,Day,Day,Day,Day
C-3281337,2,2020-05-19 00:00:00,2020-10-16 15:48:03,41.415005,-74.42319599999998,41.415209,-74.423425,0.0184246489637,Construction / Road Work on I-84 both directions between Exit 3 (I-84) - Middletown - Goshen (US 6 - Rte 17M) (Wawayanda) and Exit 6 (I-84) - Newburgh (NY 17K) (Newburgh) various lane closures,,Route 17M,R,New Hampton,Orange,NY,10958,US,US/Eastern,KMGJ,2020-05-19 00:54:00,54.0,54.0,83.0,29.72,10.0,NNE,6.0,0.0,Fair,False,False,False,False,True,False,False,False,False,False,False,False,False,Night,Night,Night,Night
C-3281338,3,2019-03-28 13:57:03,2019-04-01 13:56:34,40.70241,-74.24714,40.72464,-74.22861999999998,1.81655604722,Between Union Toll Plz and Madison Ave/Exit 143 - Construction work. Two lanes blocked.,,Garden State Pkwy N,R,Hillside,Union,NJ,07205,US,US/Eastern,KEWR,2019-03-28 13:51:00,50.0,,48.0,30.35,10.0,ESE,11.5,,Mostly Cloudy,False,False,False,False,False,False,False,False,False,False,False,True,False,Day,Day,Day,Day
C-3281339,2,2021-11-02 15:37:30,2021-11-02 18:06:30,38.958073,-85.843965,38.959124,-85.83470200000002,0.5029439193140001,Stationary traffic on US-50 W - US-50 E from IN-11/S Broadway St (US-50) to US-31 (US-50) due to roadwork.,,E Tipton St,R,Seymour,Jackson,IN,47274,US,US/Eastern,KBAK,2021-11-02 15:50:00,46.0,41.0,37.0,29.58,10.0,NW,12.0,,Fair,False,False,False,False,False,False,False,False,False,False,False,True,False,Day,Day,Day,Day
C-3281340,2,2021-01-30 11:08:30,2021-01-30 20:26:32,39.033078,-95.592813,39.034866,-95.604271,0.627235822501,Slow traffic on I-70 W from I-470/Kansas Tpke (I-70) to I-470/KS-4/Exit 366 (I-70) due to roadwork.,,I-70 W,R,Tecumseh,Shawnee,KS,66542,US,US/Central,KTOP,2021-01-30 11:18:00,50.0,50.0,89.0,28.62,5.0,S,8.0,0.03,Rain,False,False,False,False,False,False,False,False,False,False,False,False,False,Day,Day,Day,Day
C-3281341,3,2016-09-19 19:00:23,2016-09-20 05:00:00,40.654003,-74.13404799999998,,,0.0,Road closed due to construction work on Bayonne Brg both ways between New York and New Jersey. Detour in operation - All traffic diverted to the Goethals Bridge.,,Bayonne Brg N,R,Bayonne,Hudson,NJ,07002,US,US/Eastern,KEWR,2016-09-19 18:51:00,72.0,,84.0,30.05,10.0,SE,3.5,,Overcast,False,False,True,False,True,False,False,False,False,False,False,False,False,Night,Day,Day,Day
C-3281342,2,2020-09-05 14:11:30,2020-09-05 18:22:00,41.875563,-87.657395,41.87371,-87.64569399999998,0.615450734577,Stationary traffic on Eisenhower Expy E - I-290 E - Chicago-Kansas City Expressway E from Racine Ave exit [29A] to I-90 E due to roadwork.,,Chicago-Kansas City Expressway E,R,Chicago,Cook,IL,60607,US,US/Central,KMDW,2020-09-05 13:53:00,82.0,82.0,33.0,29.51,10.0,NW,20.0,0.0,Fair,False,False,False,False,False,False,False,False,False,False,False,False,False,Day,Day,Day,Day
C-3281343,3,2019-08-06 04:50:35,2019-08-12 23:59:00,43.737389,-84.24707,,,0.0,Road closed due to paving repairs on Eastman Rd both ways from Hubbard Rd to Schneider Ct.,4351.0,N Eastman Rd,L,Midland,Midland,MI,48642-7396,US,US/Eastern,KIKW,2019-08-06 04:55:00,68.0,68.0,88.0,29.1,10.0,W,3.0,0.0,Cloudy,True,False,False,False,False,False,False,False,False,False,False,False,False,Night,Night,Night,Day
C-3281344,2,2020-10-13 13:12:00,2020-10-14 01:04:32,43.633811,-116.355745,43.635165,-116.354178,0.122034690738,Stationary traffic on ID-55 from N Centrepoint Way to W Baldcypress St due to roadwork.,3141.0,E Ustick Rd,R,Meridian,Ada,ID,83646,US,US/Mountain,KMAN,2020-10-13 13:15:00,61.0,61.0,55.0,27.44,10.0,SE,8.0,0.0,Partly Cloudy,False,False,False,False,False,False,False,False,False,False,False,False,False,Day,Day,Day,Day
C-3281345,2,2021-08-27 17:13:30,2021-08-27 17:39:00,40.84064,-81.25948000000002,40.836363,-81.259698,0.295732190134,Slow traffic on OH-44 from US-62/Atlantic Blvd NE (Ravenna Ave NE/OH-44) to Georgetown St NE (Ravenna Ave NE/OH-44) due to roadwork.,605.0,N Chapel St,L,Louisville,Stark,OH,44641-1256,US,US/Eastern,KCAK,2021-08-27 16:51:00,90.0,90.0,48.0,28.8,10.0,CALM,0.0,0.0,Partly Cloudy,False,False,True,False,False,False,True,False,False,False,False,True,False,Day,Day,Day,Day
C-3281346,2,2021-12-20 12:44:00,2021-12-20 13:04:00,45.253594,-121.711325,45.250493,-121.71048600000002,0.218110591276,Stationary traffic on US-26 E - US-26 W from OR-35/Mount Hood Hwy (US-26) to Oregon Skyline Rd (US-26) due to roadwork.,37200.0,High Meadows Rd,R,Government Camp,Clackamas,OR,97028,US,US/Pacific,KCZK,2021-12-20 12:53:00,40.0,31.0,83.0,29.99,6.0,E,17.0,0.02,Light Rain,False,False,False,False,False,False,False,False,False,False,False,False,False,Day,Day,Day,Day
C-3281347,2,2020-05-27 11:55:02,2020-05-27 18:57:42,40.5784,-105.00116,40.6068,-105.00118,1.96225339577,Between Prospect Rd/Exit 268 and Mountain Vista Dr/Exit 271 - Construction work.,,US-87 N,R,Fort Collins,Larimer,CO,80524,US,US/Mountain,KFNL,2020-05-27 11:56:00,78.0,78.0,30.0,25.0,10.0,VAR,7.0,0.0,Fair,False,False,False,False,False,False,False,False,False,False,False,False,False,Day,Day,Day,Day
C-3281348,2,2020-10-13 14:00:00,2020-10-13 22:45:00,35.066071,-88.655177,35.069592,-88.622176,1.88203118618,Construction on TN-57 NB near WHITE OAK CEMETERY RD Drive with caution.,6604.0,Highway 57 W,R,Ramer,McNairy,TN,38367-6419,US,US/Central,KCRX,2020-10-13 13:55:00,72.0,72.0,33.0,29.69,10.0,NW,5.0,0.0,Fair,False,False,True,False,False,False,True,False,False,False,False,False,False,Day,Day,Day,Day
C-3281349,2,2021-10-09 09:06:00,2021-10-09 11:07:19,35.329311,-106.56971,35.330571,-106.571521,0.134164789226,Slow traffic on NM-44 - US-550 N from NM-313/Camino Del Pueblo (NM-44/US-550) to NM-528 (NM-44/US-550) due to roadwork.,1054.0,W Highway 550,L,Bernalillo,Sandoval,NM,87004-5981,US,US/Mountain,KAEG,2021-10-09 08:50:00,63.0,63.0,39.0,24.28,10.0,WSW,8.0,0.0,Fair,False,False,False,False,False,False,False,False,False,False,False,True,False,Day,Day,Day,Day
C-3281350,3,2018-10-25 10:11:12,2018-10-29 10:10:33,42.1942,-83.38561,42.19462,-83.3885,0.150756268832,Ramp to Eureka Rd/Exit 15 - Construction work.,,Eureka Rd,R,Romulus,Wayne,MI,48174,US,US/Eastern,KDTW,2018-10-25 09:53:00,41.0,,67.0,30.28,9.0,Calm,,,Scattered Clouds,False,False,False,False,False,False,False,False,False,False,False,True,False,Day,Day,Day,Day
C-3281351,4,2017-12-21 09:01:46,2017-12-21 15:01:46,29.8144,-95.383055,29.81431,-95.3918,0.524284566613,Closed at Main St/Exit 16 - Closed. Construction work.,1213.0,North Loop,L,Houston,Harris,TX,77022-6531,US,US/Central,KMCJ,2017-12-21 09:35:00,66.2,,83.0,29.97,9.0,Calm,,,Overcast,False,False,True,False,False,False,False,False,False,False,False,True,False,Day,Day,Day,Day
C-3281352,2,2021-10-08 09:54:30,2021-10-08 10:08:00,41.111274,-80.820755,41.115276,-80.805123,0.859432465267,Slow traffic on I-80 E from I-80/I-76 (I-80) to OH-46/Exit 223 (I-80) due to roadwork.,,I-80 E,R,North Jackson,Mahoning,OH,44451,US,US/Eastern,KYNG,2021-10-08 09:51:00,65.0,65.0,97.0,28.86,9.0,ESE,8.0,0.0,Cloudy,False,False,False,False,False,False,False,False,False,False,False,False,False,Day,Day,Day,Day
C-3281353,3,2020-06-23 21:53:43,2020-06-24 05:00:00,41.98255,-87.79611,41.9825,-87.80161,0.282503959543,Between Bryn Mawr Ave/Nagle Ave/Exit 82 and IL-43/Harlem Ave/81A - Roadwork. Right lane blocked.,,Kennedy Expy W,R,Chicago,Cook,IL,60656,US,US/Central,KORD,2020-06-23 21:51:00,66.0,66.0,70.0,29.09,10.0,NNE,9.0,0.0,Light Rain,False,False,False,False,True,False,False,False,False,False,False,False,False,Night,Night,Night,Day
C-3281354,2,2021-09-24 10:31:00,2021-09-24 11:13:00,33.4951,-112.018218,33.494562,-112.012987,0.303690969036,Slow traffic from N 28th St to E Fairmount Ave due to roadwork.,2951.0,E Indian School Rd,R,Phoenix,Maricopa,AZ,85016-6804,US,US/Mountain,KPHX,2021-09-24 10:51:00,81.0,81.0,36.0,28.77,10.0,SSW,14.0,0.0,Mostly Cloudy,True,False,False,False,False,False,False,False,True,False,False,False,False,Day,Day,Day,Day
C-3281355,2,2021-08-24 16:57:33,2021-08-24 19:40:10,40.822965,-73.93820500000002,40.821006,-73.939656,0.155166098575,Slow traffic from Macombs Dam Bridge/Macombs Pl (Adam Clayton Powell Jr Blvd) to W 135th St/Wesley Williams Pl (7th Ave) due to roadwork.,2536.0,Adam Clayton Powell Jr Blvd,L,New York,New York,NY,10039-3805,US,US/Eastern,KNYC,2021-08-24 17:51:00,86.0,86.0,44.0,29.86,10.0,CALM,0.0,0.0,Fair,False,False,True,False,False,False,False,False,False,False,False,True,False,Day,Day,Day,Day
C-3281356,2,2021-07-21 11:00:00,2021-07-21 11:26:00,30.560879,-97.682999,30.559842,-97.686348,0.2117427934679999,Stationary traffic from FM-1460/N A.W. Grimes Blvd (University Blvd) to I-35 (Whitestone Blvd) due to roadwork.,99.0,Cypress Blvd,R,Round Rock,Williamson,TX,78665-1002,US,US/Central,KGTU,2021-07-21 10:56:00,83.0,83.0,69.0,29.25,10.0,NNE,7.0,0.0,Mostly Cloudy,False,False,False,False,False,False,False,False,False,False,False,True,False,Day,Day,Day,Day
C-3281357,2,2021-12-21 03:56:00,2021-12-21 04:16:00,34.096131,-94.091525,34.095649,-94.09635,0.278070110236,Stationary traffic on US-70 W - US-70 E from US-278/AR-4/4th St (US-70) to Huffman Ln/Provo Rd (US-70) due to roadwork.,3936.0,US Highway 70,R,Lockesburg,Sevier,AR,71846,US,US/Central,KDEQ,2021-12-21 03:53:00,39.0,39.0,93.0,29.76,6.0,WNW,3.0,0.0,Cloudy,False,False,False,False,False,False,False,False,False,False,False,False,False,Night,Night,Night,Night
C-3281358,2,2021-09-30 07:47:30,2021-09-30 09:52:53,29.734299,-95.409328,29.734277,-95.411428,0.126001240842,Slow traffic from Montrose Blvd (Richmond Ave) to Kirby Dr (Richmond Ave) due to roadwork.,2052.0,Richmond Ave,R,Houston,Harris,TX,77098-3424,US,US/Central,KMCJ,2021-09-30 07:53:00,79.0,79.0,82.0,29.88,10.0,ENE,7.0,0.0,Partly Cloudy,False,False,False,False,False,False,False,False,False,True,False,False,False,Day,Day,Day,Day
C-3281359,2,2021-04-30 08:10:00,2021-09-07 14:04:30,39.995762,-85.157728,39.982593,-85.142022,1.23254854751,Slow traffic on US-35 S - US-35 N from S 1100 W (US-35) to Front St/Centerville Rd (US-35) due to roadwork.,14908.0,US Highway 35,R,Hagerstown,Wayne,IN,47346,US,US/Eastern,KMIE,2021-04-30 07:53:00,51.0,51.0,83.0,28.99,5.0,WSW,7.0,0.0,Fair,False,False,False,False,False,False,False,False,False,False,False,False,False,Day,Day,Day,Day
C-3281360,2,2020-11-04 16:19:43,2020-11-04 18:53:30,32.759704,-97.050451,32.759923,-97.068939,1.07433070049,Stationary traffic on I-30 from 19th St/Exit 32 (I-30) to Ballpark Way/Exit 29 (I-30) due to roadwork.,,Tom Landry Fwy,R,Arlington,Tarrant,TX,76011,US,US/Central,KGPM,2020-11-04 15:50:00,73.0,73.0,36.0,29.52,10.0,SE,13.0,0.0,Fair,False,False,False,False,False,False,False,False,False,False,False,False,False,Day,Day,Day,Day
C-3281361,2,2021-09-09 09:30:00,2021-09-23 17:45:00,33.364739,-111.851504,33.364433,-111.85151100000002,0.021146444808,Construction on EXTENSION SB near GUADALUPE Drive with caution.,798.0,W Naranja Cir,L,Mesa,Maricopa,AZ,85210-7778,US,US/Mountain,KFFZ,2021-09-09 09:51:00,94.0,94.0,30.0,28.71,10.0,ESE,7.0,0.0,Fair,False,False,True,False,False,False,False,False,False,False,False,True,False,Day,Day,Day,Day
C-3281362,4,2020-05-29 03:51:49,2020-05-29 08:51:08,40.28092,-74.50414,40.71818,-74.1348,35.9067685677,Closed between SGT John Basilone Memorial Brg and CR-602/Roosevelt Ave/Exit 12 - Closed due to roadwork.,,New Jersey Tpke N,R,Cranbury,Middlesex,NJ,08512,US,US/Eastern,KTTN,2020-05-29 03:53:00,70.0,70.0,93.0,29.81,7.0,S,6.0,0.0,Cloudy,False,False,False,False,False,False,False,False,False,False,False,False,False,Night,Night,Night,Day
C-3281363,2,2020-10-27 04:13:15,2020-10-27 18:01:00,37.312164,-122.276024,,,12.75,One lane closed and single alternate line traffic due to maintenance work on CA-84 La Honda Rd both ways from Old La Honda Rd to Pescadero Rd.,8142.0,La Honda Rd,R,La Honda,San Mateo,CA,94020,US,US/Pacific,KPAO,2020-10-27 08:47:00,55.0,55.0,47.0,30.12,10.0,CALM,0.0,,Fair,False,False,False,False,False,False,False,False,False,False,False,False,False,Night,Night,Night,Night
C-3281364,2,2021-09-04 16:00:30,2021-09-04 16:20:30,42.938088,-114.364979,42.93604000000001,-114.402795,1.91809071232,Slow traffic on US-93 S - US-26 E - US-93 N - US-26 W from 3rd St (US-93) to ID-75/N Rail St E/Greenwood St (US-93) due to roadwork.,98.0,N 200 E,L,Shoshone,Lincoln,ID,83352-5324,US,US/Mountain,KJER,2021-09-04 15:53:00,84.0,84.0,10.0,26.0,10.0,N,3.0,0.0,Fair,False,False,False,False,False,False,False,False,False,False,False,False,False,Day,Day,Day,Day
C-3281365,2,2021-06-02 10:50:28,2021-06-07 23:59:00,40.685623,-74.327713,40.684933,-74.330353,0.146304747005,Construction on US 22 westbound ramp from CR 577/Springfield Ave (Springfield Twp) Not currently Scheduled,,S Springfield Ave,R,Springfield,Union,NJ,07081,US,US/Eastern,KLDJ,2021-06-02 10:55:00,71.0,71.0,60.0,30.21,10.0,CALM,0.0,0.0,Fair,False,False,False,False,False,False,False,False,False,False,False,False,False,Day,Day,Day,Day
C-3281366,2,2020-09-01 19:44:00,2020-09-01 20:26:00,41.392205,-74.958641,41.383136,-74.951201,0.735785556827,Stationary traffic on US-6 from Well Rd (US-6) to Twin Lakes Rd (US-6) due to roadwork.,1112.0,Route 6,L,Shohola,Pike,PA,18458-3309,US,US/Eastern,KMSV,2020-09-01 19:56:00,65.0,65.0,93.0,28.63,10.0,E,6.0,0.0,Cloudy,False,False,False,False,False,False,False,False,False,False,False,False,False,Night,Day,Day,Day
C-3281367,3,2020-06-27 21:01:18,2020-06-28 05:00:00,33.76138,-84.38116,33.750029999999995,-84.38223,0.786615493458,Between GA-10/Freedom Pky/Exit 248 and Martin Luther King Dr/Exit 248 - Roadwork. Three lanes closed.,,I-75 S,R,Atlanta,Fulton,GA,30308,US,US/Eastern,KFTY,2020-06-27 20:53:00,71.0,71.0,100.0,29.13,10.0,SSW,3.0,0.0,Fair,False,False,False,False,False,False,False,False,False,False,False,False,False,Night,Day,Day,Day
C-3281368,2,2021-08-10 08:01:00,2021-08-10 17:46:00,37.295796,-120.357948,37.295467,-120.333892,1.32243763509,One-Way Traffic closure due to Bridge Inspection between Arboleda Road and Plainsburg-Planada Road,8038.0,State Highway 140,R,Merced,Merced,CA,95340,US,US/Pacific,KMCE,2021-08-10 07:53:00,71.0,71.0,51.0,29.72,10.0,NNW,8.0,0.0,Fair,False,False,False,False,False,False,False,False,False,False,False,False,False,Day,Day,Day,Day
C-3281369,2,2021-11-02 13:03:30,2021-11-02 16:42:30,32.341145000000004,-108.697441,32.327245,-108.63281200000002,3.8933528259,Stationary traffic on I-10 E - US-70 E from Main St/Exit 22 (I-10) to Ulmorris Rd/Exit 29 (I-10) due to roadwork.,,I-10 E,R,Lordsburg,Hidalgo,NM,88045,US,US/Mountain,KSVC,2021-11-02 12:55:00,67.0,67.0,17.0,24.76,10.0,NW,10.0,0.0,Fair,False,False,False,False,False,False,False,False,False,False,False,False,False,Day,Day,Day,Day
C-3281370,2,2019-05-13 09:03:33,2019-05-19 09:02:01,25.93989,-80.27077,25.940221,-80.26213100000002,0.537248871197,At 37th Ave - Construction work. Lane blocked.,4252.0,NW 183rd St,L,Miami Gardens,Miami-Dade,FL,33055-3039,US,US/Eastern,KOPF,2019-05-13 08:53:00,83.0,83.0,72.0,29.96,10.0,SW,7.0,0.0,Fair,False,False,False,False,False,False,False,False,False,False,False,False,False,Day,Day,Day,Day
C-3281371,2,2021-09-23 13:16:10,2021-09-23 13:29:10,40.707736,-74.155363,40.705737,-74.149467,0.338293281869,Slow traffic on I-78 E from Toll Plaza (I-78) to I-95/New Jersey Tpke (I-78) due to roadwork.,,I-78 E,R,Newark,Essex,NJ,07114,US,US/Eastern,KEWR,2021-09-23 12:51:00,80.0,80.0,71.0,29.9,10.0,SE,16.0,0.0,Cloudy,False,False,False,False,True,False,False,False,False,False,False,False,False,Day,Day,Day,Day
C-3281372,4,2020-03-30 23:43:37,2020-03-31 04:42:53,38.59077,-90.37718,38.5937,-90.37713,0.202461725992,Closed at MO-100/Manchester Rd - Closed due to roadwork.,439.0,N Berry Rd,L,Saint Louis,St. Louis County,MO,63122-2029,US,US/Central,KSTL,2020-03-30 23:51:00,56.0,56.0,40.0,29.38,10.0,NE,6.0,0.0,Cloudy,False,False,False,False,False,False,False,False,False,False,False,False,False,Night,Night,Night,Night
C-3281373,2,2019-10-09 11:17:35,2019-10-09 15:30:00,37.36462,-118.395317,,,0.0,Lane closed due to utility work on US-395 Main St Southbound at Grove St.,102.0,Grove St,L,Bishop,Inyo,CA,93514-2640,US,US/Pacific,KBIH,2019-10-09 10:56:00,81.0,81.0,7.0,25.62,10.0,N,12.0,0.0,Fair,True,False,True,False,False,False,False,False,False,False,False,True,False,Day,Day,Day,Day
C-3281374,3,2018-12-20 14:00:00,2018-12-20 15:00:00,42.485291,-83.431747,,,2.32999992371,Entry ramp to I-96 Southbound at Exit 1 from I-696 Westbound lane closed due to construction work.,,I-696 W,R,Farmington,Oakland,MI,48331,US,US/Eastern,KPTK,2018-12-20 13:53:00,41.0,38.0,93.0,29.72,4.0,SE,4.6,0.01,Light Rain,False,False,False,False,False,False,False,False,False,False,False,False,False,Day,Day,Day,Day
C-3281375,2,2021-12-06 19:01:00,2021-12-07 07:46:00,38.943368,-122.802135,38.942621,-122.792277,0.532266447843,Construction on CA-29 SB near PRIVATE DR Expect long delays.,7062.0,Highway 29,L,Kelseyville,Lake,CA,95451-2818,US,US/Pacific,KUKI,2021-12-06 18:56:00,50.0,50.0,89.0,29.38,8.0,CALM,0.0,0.0,Light Rain,False,False,False,False,False,False,False,False,False,False,False,False,False,Night,Night,Night,Night
C-3281376,4,2021-06-05 16:22:00,2021-08-27 06:01:00,37.811432,-121.993782,37.811018,-121.99413,0.0343376700495,Full closure due to Highway Construction between Sycamore Valley Rd and Route 680,,Sycamore Valley Rd,R,Danville,Contra Costa,CA,94526,US,US/Pacific,KCCR,2021-08-26 21:53:00,78.0,78.0,35.0,29.77,10.0,SSE,7.0,0.0,Fair,False,False,True,False,False,False,False,False,False,False,False,True,False,Day,Day,Day,Day
C-3281377,2,2017-08-28 05:29:01,2017-09-28 23:59:00,39.766937,-86.144226,,,0.589999973774,Intermittent lane closures due to gas main work on Washington St both ways between Southeastern Ave and Davidson St.,800.0,E Washington St,L,Indianapolis,Marion,IN,46202,US,US/Eastern,KEYE,2017-08-28 05:53:00,64.0,,90.0,30.02,8.0,East,5.8,0.04,Light Rain,False,False,True,False,False,False,False,False,False,False,False,False,False,Night,Night,Night,Night
C-3281378,2,2021-02-17 06:55:00,2021-02-17 20:12:45,42.154324,-87.962819,42.153611,-87.96068199999998,0.1200362506849999,Slow traffic from Church Rd to S McHenry Rd due to roadwork.,50.0,N Buffalo Grove Rd,L,Buffalo Grove,Lake,IL,60089-1702,US,US/Central,KPWK,2021-02-17 06:52:00,11.0,11.0,73.0,29.66,10.0,CALM,0.0,0.0,Cloudy,False,False,False,False,False,False,False,False,False,False,False,False,False,Day,Day,Day,Day
C-3281379,4,2021-02-19 00:00:00,2021-03-05 00:45:00,39.752199,-104.911683,39.754714,-104.911672,0.173770932555,Construction on N MAGNOLIA ST NB near E 24TH AVE Expect delays.,2398.0,N Magnolia St,R,Denver,Denver,CO,80207-4009,US,US/Mountain,KBKF,2021-02-19 00:58:00,16.0,5.0,72.0,24.42,10.0,S,9.0,0.0,Fair,False,False,False,False,False,False,False,False,False,False,False,False,False,Night,Night,Night,Night
C-3281380,2,2021-06-24 15:32:04,2021-06-24 15:56:50,40.819713,-73.934475,40.819355,-73.930628,0.202667006268,Stationary traffic from Lenox Ave/Malcolm X Blvd (145th St Bridge) to Exterior St (145th St Bridge) due to roadwork.,,W 145th St,R,New York,New York,NY,10039,US,US/Eastern,KNYC,2021-06-24 15:51:00,75.0,,41.0,30.25,10.0,,,0.0,Fair,False,False,False,False,False,False,False,False,False,False,False,True,False,Day,Day,Day,Day
C-3281381,2,2021-12-11 11:59:00,2021-12-11 14:07:40,25.929676,-80.12859,25.929832,-80.122711,0.365467351317,Stationary traffic on FL-826 from US-1/FL-5/Biscayne Blvd (FL-826) to FL-A1A/Collins Ave (FL-826) due to roadwork.,,Sunny Isles Blvd,R,North Miami Beach,Miami-Dade,FL,33160,US,US/Eastern,KHWO,2021-12-11 11:53:00,81.0,81.0,65.0,30.09,10.0,SE,14.0,0.0,Fair,False,False,True,False,False,False,False,False,False,False,False,True,False,Day,Day,Day,Day
C-3281382,4,2021-08-07 12:31:26,2021-08-14 23:59:00,40.728431,-73.99426700000002,40.727133,-73.99163100000001,0.164599657906,Closed road from Broadway (4th St) to Bowery (E 4th St) due to roadwork.,698.0,Broadway,R,New York,New York,NY,10012-1107,US,US/Eastern,KJRB,2021-08-07 12:51:00,83.0,83.0,53.0,29.98,10.0,CALM,0.0,0.0,Fair,True,False,True,False,False,False,False,False,True,False,False,True,False,Day,Day,Day,Day
