ID,Severity,Start_Time,End_Time,Start_Lat,Start_Lng,End_Lat,End_Lng,Distance(mi),Description,Number,Street,Side,City,County,State,Zipcode,Country,Timezone,Airport_Code,Weather_Timestamp,Temperature(F),Wind_Chill(F),Humidity(%),Pressure(in),Visibility(mi),Wind_Direction,Wind_Speed(mph),Precipitation(in),Weather_Condition,Amenity,Bump,Crossing,Give_Way,Junction,No_Exit,Railway,Roundabout,Station,Stop,Traffic_Calming,Traffic_Signal,Turning_Loop,Sunrise_Sunset,Civil_Twilight,Nautical_Twilight,Astronomical_Twilight
C-3167930,4,2020-04-07 13:18:59.000000000,2020-04-11 13:18:40.000000000,34.04852,-118.23393,34.04899,-118.23813,0.242625238252,Closed at Alameda St - Closed due to roadwork.,,Vignes St,R,Los Angeles,Los Angeles,CA,90012,US,US/Pacific,KCQT,2020-04-07 12:52:00,66.0,66.0,47.0,29.83,10.0,VAR,6.0,0.0,Cloudy,True,False,True,False,False,False,True,False,True,False,False,True,False,Day,Day,Day,Day
C-3167931,2,2021-10-25 12:46:00.000000000,2021-10-25 13:11:00.000000000,43.02118400000001,-89.417606,43.015374,-89.424846,0.543060436861,Stationary traffic from US-12/Greenway Cross/W Beltline Hwy (Fish Hatchery Rd/CR-D) to McKee Rd (Fish Hatchery Rd/CR-D) due to roadwork.,3298.0,Fish Hatchery Rd,R,Madison,Dane,WI,53713,US,US/Central,KMSN,2021-10-25 12:53:00,51.0,51.0,61.0,29.1,10.0,NNE,23.0,0.0,Mostly Cloudy / Windy,False,False,True,False,False,False,False,False,False,False,False,True,False,Day,Day,Day,Day
C-3167933,2,2017-08-15 09:00:00.000000000,2018-07-11 15:03:04.000000000,42.962272,-87.987648,42.96254,-87.979262,0.4244223922339999,Between 60th St/Exit 7 and WI-36/Loomis Rd/Exit 8 - Construction work.,,US-41 S,R,Milwaukee,Milwaukee,WI,53220,US,US/Central,KMKE,2017-08-15 08:52:00,73.0,,76.0,29.91,10.0,East,8.1,,Partly Cloudy,False,False,False,False,False,False,False,False,False,False,False,False,False,Day,Day,Day,Day
C-3167934,2,2021-12-22 10:26:30.000000000,2021-12-22 12:30:54.000000000,33.408345000000004,-111.926264,33.407434,-111.925152,0.0898639475423,Stationary traffic from E Encanto Dr to S Jentilly Ln due to roadwork.,1932.0,S Rural Rd,L,Tempe,Maricopa,AZ,85281,US,US/Mountain,KPHX,2021-12-22 10:51:00,62.0,62.0,35.0,28.9,10.0,ENE,3.0,0.0,Mostly Cloudy,False,False,False,False,False,False,False,False,False,False,False,False,False,Day,Day,Day,Day
C-3167935,2,2019-03-13 00:00:01.000000000,2019-03-14 00:00:01.000000000,38.098492,-103.74738,38.078191,-103.74764,1.40273676951,At US-50/CR-18 - Construction work.,31991.0,State Highway 71,L,Rocky Ford,Otero,CO,81067-9528,US,US/Mountain,KLHX,2019-03-13 00:53:00,52.0,,89.0,29.18,10.0,East,15.0,0.0,Overcast,False,False,False,False,False,False,False,False,False,True,False,False,False,Night,Night,Night,Night
C-3167936,2,2019-10-10 20:50:28.000000000,2019-10-14 21:00:44.000000000,40.42904,-80.13229,40.44279,-80.16020999999998,1.74884043137,Between I-79/Raymond P Shafer Hwy/Exit 64A and I-376/PA-60 - Roadwork. Lane blocked.,,I-376 W,R,Pittsburgh,Allegheny,PA,15205,US,US/Eastern,KPIT,2019-10-10 20:51:00,61.0,61.0,60.0,28.87,10.0,CALM,0.0,0.0,Fair,False,False,False,False,False,False,False,False,False,False,False,False,False,Night,Night,Night,Night
C-3167937,2,2021-04-25 18:00:00.000000000,2021-12-02 15:02:57.000000000,39.754625,-104.988699,39.755425,-104.98854,0.0559162533901999,Stationary traffic on CO-33 from 22nd St to Larimer St due to roadwork.,2248.0,Lawrence St,R,Denver,Denver,CO,80205-2021,US,US/Mountain,KBKF,2021-11-09 15:58:00,52.0,52.0,44.0,24.33,10.0,NW,6.0,0.0,Mostly Cloudy,False,False,True,False,False,False,False,False,True,False,False,False,False,Day,Day,Day,Day
C-3167938,2,2020-11-20 13:59:30.000000000,2020-11-21 01:08:41.000000000,30.163434,-92.041457,30.156492,-92.048366,0.632785870718,Slow traffic from Camellia Blvd (Kaliste Saloom Rd/LA-3095) to LA-3073/Ambassador Caffery Pkwy (Kaliste Saloom Rd/LA-3095) due to roadwork.,2254.0,Kaliste Saloom Rd,L,Lafayette,Lafayette,LA,70508-6806,US,US/Central,KLFT,2020-11-20 13:53:00,80.0,80.0,48.0,30.25,10.0,ENE,7.0,0.0,Cloudy,False,False,False,False,False,False,False,False,False,False,False,False,False,Day,Day,Day,Day
C-3167939,2,2021-11-05 14:51:30.000000000,2021-11-05 15:27:00.000000000,33.748639000000004,-117.867615,33.745529,-117.86763899999998,0.214884958508,Slow traffic from 17th St (Main St) to 1st St (Main St) due to roadwork.,469.0,N Main St,R,Santa Ana,Orange,CA,92701-4617,US,US/Pacific,KSNA,2021-11-05 14:53:00,72.0,72.0,57.0,29.87,7.0,SSW,7.0,0.0,Fair,False,False,False,False,False,False,False,False,False,False,False,True,False,Day,Day,Day,Day
C-3167940,2,2020-06-16 22:02:35.000000000,2020-06-22 22:00:37.000000000,37.72476,-122.15934,37.72501,-122.15875,0.0365788386375999,At Hays St - Construction work.,,Clarke St,R,San Leandro,Alameda,CA,94577,US,US/Pacific,KOAK,2020-06-17 21:53:00,68.0,68.0,61.0,29.93,10.0,WNW,6.0,0.0,Fair,False,False,True,False,False,False,False,False,True,True,False,False,False,Night,Night,Night,Day
C-3167941,2,2021-09-01 15:18:00.000000000,2021-12-01 12:12:00.000000000,41.089652,-81.52713100000003,41.088068,-81.523381,0.223859106435,Stationary traffic on OH-18 from Ghent Rd (W Market St/OH-18) to OH-59 (W Market St/OH-18) due to roadwork.,300.0,W Market St,L,Akron,Summit,OH,44303-2142,US,US/Eastern,KAKR,2021-09-01 14:54:00,79.0,79.0,44.0,28.69,10.0,NE,10.0,0.0,Fair,True,False,True,False,False,False,False,False,False,False,False,True,False,Day,Day,Day,Day
C-3167942,2,2021-11-15 20:00:00.000000000,2021-11-20 06:45:00.000000000,40.692511,-74.266023,40.692022,-74.268152,0.116539553826,NJ DOT - STMC: Construction bridge work on US 22 westbound in the vicinity of Garden State Parkway (Union Twp) 1 Left lane of 2 lanes closed Until 6:00 AM,1869.0,US Highway 22,R,Union,Union,NJ,07083-8324,US,US/Eastern,KEWR,2021-11-15 19:51:00,43.0,38.0,68.0,29.94,10.0,WSW,9.0,0.0,Fair,False,False,False,False,False,False,False,False,False,False,False,False,False,Night,Night,Night,Night
C-3167943,2,2021-01-26 16:16:13.000000000,2021-01-26 22:10:20.000000000,26.438795,-80.07157099999998,26.439809000000004,-80.0722,0.080142479127,Slow traffic on US-1 N - FL-5 from Eve St to Old Dixie Hwy / Linton Blvd due to roadwork.,,S Federal Hwy,R,Delray Beach,Palm Beach,FL,33483,US,US/Eastern,KBCT,2021-01-26 15:53:00,78.0,78.0,71.0,29.99,10.0,SSE,13.0,0.0,Fair,True,False,True,False,False,False,False,False,False,False,False,False,False,Day,Day,Day,Day
C-3167944,2,2020-04-18 08:15:00.000000000,2020-05-12 09:29:30.000000000,41.82465,-73.77184,41.82385,-73.77116,0.0654303053263,At US-44 - Roadwork.,,Taconic State Pkwy,R,Clinton Corners,Dutchess,NY,12514,US,US/Eastern,KPOU,2020-04-18 07:53:00,34.0,34.0,92.0,29.6,1.0,N,3.0,0.02,Light Snow,False,False,False,False,False,False,False,False,False,False,False,False,False,Day,Day,Day,Day
C-3167945,2,2021-12-07 07:50:03.000000000,2021-12-07 11:32:34.000000000,25.933164,-80.188464,25.928536,-80.18777,0.322659034309,Slow traffic on FL-915 - FL-826 from NE 172nd St to N Miami Beach Blvd due to roadwork.,17199.0,NE 6th Ave,R,Miami,Miami-Dade,FL,33162-2005,US,US/Eastern,KHWO,2021-12-07 07:53:00,68.0,68.0,87.0,30.09,10.0,N,3.0,0.0,Fair,False,False,True,False,False,False,False,False,True,False,False,True,False,Day,Day,Day,Day
C-3167946,2,2020-08-25 12:25:00.000000000,2020-08-26 02:20:01.000000000,25.73671400000001,-80.246874,25.735226,-80.251028,0.278235314959,Queuing traffic on US-1 S - FL-5 from McDonald St / SW 32nd Ave to Bird Rd due to roadwork.,3247.0,S Dixie Hwy,R,Miami,Miami-Dade,FL,33133,US,US/Eastern,KMIA,2020-08-25 12:53:00,88.0,88.0,70.0,29.97,10.0,ESE,16.0,0.0,Mostly Cloudy,False,False,True,False,False,False,False,False,False,False,False,True,False,Day,Day,Day,Day
C-3167947,2,2021-12-14 10:07:30.000000000,2021-12-14 10:44:00.000000000,35.156679,-101.883865,35.163826,-101.883902,0.493815092421,Slow traffic from Canyon Dr (N Western St) to SW 45th Ave (N Western St) due to roadwork.,4118.0,SW 49th Ave,R,Amarillo,Randall,TX,79109-5942,US,US/Central,KAMA,2021-12-14 09:53:00,63.0,63.0,25.0,26.35,10.0,SW,17.0,0.0,Fair,False,False,False,False,False,False,False,False,False,False,False,True,False,Day,Day,Day,Day
C-3167948,2,2020-09-25 12:52:00.000000000,2020-09-25 14:06:30.000000000,28.533224,-81.384281,28.545725,-81.382109,0.8737401947460001,Slow traffic on I-4 from Kaley Ave/35th St/Exit 35 (I-4) to Robinson St/Exit 40 (I-4) due to roadwork.,,I-4 E,R,Orlando,Orange,FL,32801,US,US/Eastern,KORL,2020-09-25 12:53:00,90.0,90.0,59.0,29.87,10.0,VAR,3.0,0.0,Fair,False,False,True,False,False,False,False,False,False,False,False,True,False,Day,Day,Day,Day
C-3167950,4,2020-08-14 03:01:00.000000000,2020-08-14 12:44:00.000000000,34.408159999999995,-118.576694,34.40698,-118.575844,0.0948418336364999,Construction on I-5 SB near VALENCIA BLVD Take alternate route.,,Valencia Blvd,R,Valencia,Los Angeles,CA,91355,US,US/Pacific,K3A6,2020-08-14 02:51:00,79.0,79.0,39.0,29.0,10.0,CALM,0.0,0.0,Fair,False,False,False,False,False,False,False,False,False,False,False,False,False,Night,Night,Night,Night
C-3167951,2,2020-08-13 15:24:10.000000000,2020-08-13 23:24:10.000000000,43.708739,-124.101509,43.711754,-124.099806,0.225011209473,Road maintenance operations are occurring. Use caution.,,Highway 101 S,R,Reedsport,Douglas,OR,97467,US,US/Pacific,KOTH,2020-08-13 14:56:00,67.0,67.0,51.0,30.11,10.0,N,25.0,0.0,Fair / Windy,False,False,False,False,False,False,False,False,False,False,False,False,False,Day,Day,Day,Day
C-3167952,2,2021-08-06 11:02:00.000000000,2021-10-13 18:13:30.000000000,40.005849,-105.258572,40.009483,-105.25856,0.251086289787,Slow traffic on N Foothills Hwy W - Denver Boulder Tpke W - US-36 W from Baseline Rd (Denver Boulder Tpke/US-36) to CO-7/Arapahoe Ave (28th St/US-36) due to roadwork.,,Denver Boulder Tpke W,R,Boulder,Boulder,CO,80303,US,US/Mountain,KBDU,2021-10-13 15:15:00,61.0,61.0,23.0,24.46,10.0,WSW,8.0,0.0,Fair,False,False,False,False,False,False,False,False,False,False,False,False,False,Day,Day,Day,Day
C-3167953,2,2020-09-19 22:04:07.000000000,2020-09-20 00:15:37.000000000,39.765891,-105.000119,39.760316,-105.005868,0.4915365608399999,Queuing traffic from Park Ave (Underpass) (I-25 HOV) to 20th St/Exit 212 (I-25 HOV) due to roadwork.,,I-25 N,R,Denver,Denver,CO,80202,US,US/Mountain,KBJC,2020-09-19 21:47:00,68.0,68.0,26.0,24.39,10.0,SE,3.0,0.0,Partly Cloudy,False,False,False,False,True,False,False,False,False,False,False,False,False,Night,Night,Night,Night
C-3167954,1,2020-03-22 05:15:05.000000000,2020-03-24 06:00:00.000000000,33.91052,-112.1459,33.79208,-112.13431,8.210403508639999,Between New River Rd/Exit 232 and AZ-74/Carefree Hwy/Exit 223 - Roadwork. Roadway reduced to 1 lane.,,Black Canyon Fwy S,R,New River,Maricopa,AZ,85087,US,US/Mountain,KDVT,2020-03-22 21:53:00,62.0,62.0,52.0,28.39,10.0,NNE,6.0,0.0,Fair,False,False,False,False,False,False,False,False,False,False,False,False,False,Night,Night,Night,Day
C-3167955,2,2021-04-19 06:31:00.000000000,2021-12-22 17:35:02.000000000,33.46573,-112.066087,33.465723,-112.064409,0.0967191569308,Stationary traffic from N 3rd St (E McDowell Rd) to N 16th St (E McDowell Rd) due to roadwork.,525.0,E McDowell Rd,R,Phoenix,Maricopa,AZ,85004-1537,US,US/Mountain,KPHX,2021-04-19 06:51:00,62.0,62.0,34.0,28.77,10.0,CALM,0.0,0.0,Fair,True,False,False,False,False,False,False,False,True,False,False,False,False,Day,Day,Day,Day
C-3167956,2,2021-12-26 13:12:30.000000000,2021-12-26 16:28:00.000000000,47.745696,-121.089097,47.719868,-121.128445,2.55504054775,Slow traffic on US-2 W - US-2 E from NFD-6700 (US-2) to NFD-6095 (US-2) due to roadwork.,33998.0,US Highway 2,L,Leavenworth,Chelan,WA,98826,US,US/Pacific,KEAT,2021-12-26 12:55:00,17.0,10.0,59.0,28.19,10.0,E,5.0,0.0,Cloudy,False,False,False,False,False,False,False,False,False,False,False,False,False,Day,Day,Day,Day
C-3167957,2,2020-11-05 12:17:19.000000000,2020-11-05 15:01:00.000000000,37.65514,-122.434349,,,0.0,One lane closed due to utility work on CA-82 El Camino Real Southbound near Westborough Blvd.,,Chestnut Ave,R,South San Francisco,San Mateo,CA,94080,US,US/Pacific,KSFO,2020-11-05 12:16:00,61.0,61.0,93.0,30.06,3.0,E,3.0,0.0,Fair,False,False,False,False,False,False,False,False,False,False,False,True,False,Day,Day,Day,Day
C-3167958,2,2021-12-23 13:44:29.000000000,2021-12-23 15:49:43.000000000,26.275088,-80.115249,26.276001,-80.113461,0.127476852316,Stationary traffic on FL-834 - FL-811 from NE 5th Ave to NE 38th Ct due to roadwork.,626.0,E Sample Rd,L,Pompano Beach,Broward,FL,33064-4428,US,US/Eastern,KPMP,2021-12-23 13:53:00,75.0,75.0,36.0,30.06,10.0,VAR,3.0,0.0,Fair,False,False,False,False,False,False,True,False,False,False,False,False,False,Day,Day,Day,Day
C-3167959,2,2021-06-24 16:47:30.000000000,2021-06-24 17:07:30.000000000,36.977191,-120.0793,36.983967,-120.085857,0.591750826273,Slow traffic on CA-99 N from Cleveland Ave (CA-99) to Avenue 16 (CA-99) due to roadwork.,,CA-99 N,R,Madera,Madera,CA,93637,US,US/Pacific,KMAE,2021-06-24 16:53:00,90.0,90.0,27.0,29.63,10.0,WNW,8.0,0.0,Fair,False,False,False,False,True,False,False,False,False,False,False,False,False,Day,Day,Day,Day
C-3167960,2,2021-05-11 13:33:28.000000000,2021-05-11 13:57:35.000000000,30.428478,-91.171347,30.424522,-91.155159,1.0024307998100002,Slow traffic on I-10 E from Washington St/Exit 155/Exit 156 (I-10) to S Acadian Trwy/Exit 157 (I-10) due to roadwork.,,I-10 E,R,Baton Rouge,East Baton Rouge,LA,70802,US,US/Central,KBTR,2021-05-11 13:53:00,76.0,76.0,71.0,29.96,10.0,E,15.0,0.0,Fair,False,False,False,False,True,False,False,False,False,False,False,False,False,Day,Day,Day,Day
C-3167961,2,2021-08-02 04:01:33.000000000,2021-08-08 02:07:14.000000000,34.200417,-95.334872,34.196855,-95.361328,1.53177502254,Roadwork on N4350 Rd (E Main St/OK-3) from OK-93/N4280 Rd (E Main St/OK-3) to OK-7 - OK-3.,432510.0,State Highway 3,R,Rattan,Pushmataha,OK,74562,US,US/Central,KHHW,2021-08-02 04:15:00,73.0,73.0,94.0,29.4,10.0,CALM,0.0,,Mostly Cloudy,False,False,False,False,False,False,False,False,False,False,False,False,False,Night,Night,Night,Night
C-3167962,2,2016-07-07 20:10:56.000000000,2016-07-08 05:00:00.000000000,39.88456,-75.1035,39.90268,-75.11459,1.3831315050100002,Between US-130/Crescent Blvd/Exit 1 and I-676/Exit 2/Exit 354 - Construction work.,,N South Fwy N,R,Gloucester City,Camden,NJ,08030,US,US/Eastern,KPHL,2016-07-07 19:54:00,90.0,,45.0,29.75,10.0,WNW,10.4,,Mostly Cloudy,False,False,False,False,True,False,False,False,False,False,False,False,False,Day,Day,Day,Day
C-3167963,2,2016-11-09 11:18:08.000000000,2016-12-01 02:59:00.000000000,38.612652,-121.500748,,,0.0,Intermittent lane closures due to maintenance work on Timberwood Ct both ways at El Camino Ave.,1754.0,W El Camino Ave,L,Sacramento,Sacramento,CA,95833,US,US/Pacific,KMCC,2016-11-09 11:15:00,66.2,,73.0,30.13,10.0,NW,6.9,,Clear,False,False,False,False,False,False,False,False,False,False,False,False,False,Day,Day,Day,Day
C-3167964,2,2021-04-18 12:18:41.000000000,2021-04-18 18:47:37.000000000,32.782125,-96.770051,32.780232,-96.777024,0.4256541006459999,Slow traffic on R L Thornton Fwy W - US-67 S - I-30 W from 1st Ave to Ervay St exit [45] due to roadwork.,,1st Ave,R,Dallas,Dallas,TX,75226,US,US/Central,KDAL,2021-04-18 11:53:00,62.0,62.0,43.0,29.63,10.0,NNW,14.0,0.0,Partly Cloudy,False,False,True,False,False,False,False,False,False,False,False,False,False,Day,Day,Day,Day
C-3167965,2,2021-05-27 20:56:41.000000000,2021-05-28 06:45:00.000000000,41.568952,-72.65096,41.56959000000001,-72.646624,0.228432438797,ConnDOT: Road Work on RT66 On The Arrigoni Bridge in effect today until Friday May 28 at 6:00 am. One lane open for each direction. Reported Thursday May 27 at 8:57 pm.,,CT-9 N,R,Middletown,Middlesex,CT,06457,US,US/Eastern,KMMK,2021-05-27 20:53:00,69.0,69.0,40.0,29.88,10.0,NW,10.0,0.0,Fair,False,False,False,False,False,False,False,False,False,False,False,False,False,Night,Night,Day,Day
C-3167966,4,2020-05-19 08:04:38.000000000,2020-06-08 15:16:57.000000000,29.72135,-95.37543,29.7226,-95.37753,0.152764912144,Closed at Almeda Rd - Closed due to roadwork.,2393.0,Southmore Blvd,R,Houston,Harris,TX,77004-7416,US,US/Central,KMCJ,2020-05-19 09:53:00,82.0,82.0,71.0,29.82,10.0,SW,14.0,0.0,Fair,False,False,True,True,False,False,False,False,False,False,False,True,False,Day,Day,Day,Day
C-3167967,2,2017-11-28 07:57:15.000000000,2017-11-28 14:00:21.000000000,42.104653000000006,-80.132358,42.10466,-80.13234,0.00104178791894,At Pittsburgh Ave - Roadwork. Lane blocked.,2291.0,W 12th St,R,Erie,Erie,PA,16505-4501,US,US/Eastern,KERI,2017-11-28 07:51:00,46.9,,52.0,30.13,10.0,South,16.1,,Clear,False,False,True,False,False,False,False,False,False,False,False,True,False,Day,Day,Day,Day
C-3167968,3,2020-03-18 20:01:02.000000000,2020-03-22 20:00:32.000000000,30.48162,-90.48268,30.50091,-90.48259,1.3328228346100002,At Thomas St - Maintenance work. Single alternate lane traffic.,1899.0,C.M. Fagan Dr,R,Hammond,Tangipahoa,LA,70403,US,US/Central,KHDC,2020-03-18 19:55:00,72.0,72.0,94.0,30.09,10.0,SE,9.0,0.0,Partly Cloudy,False,False,False,False,False,False,False,False,False,False,False,True,False,Night,Night,Day,Day
C-3167969,2,2021-10-05 18:33:00.000000000,2021-10-05 18:58:00.000000000,41.987352,-87.66615300000002,41.989565,-87.669886,0.245219567323,Slow traffic on US-14 E - US-14 W from Hollywood Ave (US-14) to Clark St (US-14) due to roadwork.,5806.0,N Ridge Ave,L,Chicago,Cook,IL,60660-3446,US,US/Central,KORD,2021-10-05 18:51:00,66.0,66.0,87.0,29.49,10.0,NNE,12.0,0.0,Cloudy,False,False,True,False,False,False,False,False,True,False,False,True,False,Night,Day,Day,Day
C-3167970,2,2021-04-26 07:51:02.000000000,2021-04-28 01:54:45.000000000,30.147732,-95.144374,30.147496000000004,-95.138694,0.339757052418,Roadwork from Loop 494 (FM-1485/TX-1485) to Huffman Cleveland Rd/Plum Grove Rd (FM-1485/TX-1485).,27292.0,FM 1485 Rd,R,New Caney,Montgomery,TX,77357-7394,US,US/Central,KIAH,2021-04-26 07:53:00,62.0,62.0,96.0,29.85,10.0,SE,3.0,0.0,Mostly Cloudy,False,False,False,False,False,False,False,False,False,False,False,False,False,Day,Day,Day,Day
C-3167971,2,2021-10-21 08:00:00.000000000,2021-10-21 17:45:00.000000000,28.35671,-96.922577,28.32247000000001,-96.936177,2.50615777316,Construction on TX-35 SB near TX-239 Drive with caution.,,State Highway 35 N,R,Tivoli,Refugio,TX,77990,US,US/Central,KPKV,2021-10-21 07:55:00,67.0,67.0,93.0,30.09,3.0,CALM,0.0,0.0,Fair,False,False,False,False,False,False,False,False,False,False,False,False,False,Day,Day,Day,Day
C-3167972,2,2021-07-19 14:00:00.000000000,2021-07-19 14:35:30.000000000,41.034656,-79.50838,41.037542,-79.505926,0.236894269549,Stationary traffic on PA-68 from Seybertown Rd (PA-68) to Lawsonham St/Cherry Run St (Main St/PA-68) due to roadwork.,2.0,Main St,R,Rimersburg,Clarion,PA,16248-3219,US,US/Eastern,KBTP,2021-07-19 13:56:00,79.0,79.0,58.0,28.75,10.0,VAR,5.0,0.0,Fair,False,False,False,False,False,False,False,False,False,False,False,False,False,Day,Day,Day,Day
C-3167973,2,2020-11-23 13:28:00.000000000,2020-11-24 02:32:42.000000000,43.632718,-116.35426499999998,43.633811,-116.355745,0.105739551171,Slow traffic on ID-55 from E River Valley St to N Centrepoint Way due to roadwork.,3030.0,N Eagle Rd,L,Meridian,Ada,ID,83646-6252,US,US/Mountain,KMAN,2020-11-23 13:35:00,37.0,37.0,87.0,27.36,9.0,CALM,0.0,0.0,Mostly Cloudy,False,False,False,False,False,False,False,False,False,False,False,False,False,Day,Day,Day,Day
C-3167974,2,2021-04-19 08:16:28.000000000,2021-04-20 09:05:30.000000000,39.259482,-76.125286,39.258212,-76.145786,1.10022781969,Construction on MD-514 SB near FAIRLEE RD Expect delays.,10299.0,Flatland Rd,R,Worton,Kent,MD,21678,US,US/Eastern,KAPG,2021-04-19 07:58:00,46.0,46.0,93.0,29.83,10.0,CALM,0.0,0.0,Mostly Cloudy,False,False,False,False,False,False,False,False,False,False,False,False,False,Day,Day,Day,Day
C-3167976,2,2021-01-24 08:06:30.000000000,2021-01-24 21:57:34.000000000,29.898603,-95.412249,29.918951,-95.412525,1.40601007415,Roadwork on Gulf Bank Rd/Exit 57 (I-45 HOV) from I-45/North Fwy Frontage/FM-1960 (I-45 HOV) to I-45 N - I-45 S.,,I-45 N,R,Houston,Harris,TX,77037,US,US/Central,KIAH,2021-01-24 07:53:00,63.0,63.0,97.0,29.86,0.25,E,6.0,0.0,Light Rain,False,False,False,False,True,False,False,False,False,False,False,False,False,Day,Day,Day,Day
C-3167978,3,2021-01-05 02:49:05.000000000,2021-01-05 05:59:00.000000000,34.28841,-118.408333,,,0.300000011921,Exit ramp from I-210 Eastbound to Paxton St closed due to paving repairs.,,Foothill Fwy E,R,Sylmar,Los Angeles,CA,91342,US,US/Pacific,KWHP,2021-01-05 08:00:00,46.0,46.0,71.0,29.09,10.0,CALM,0.0,,Fair,False,False,False,False,False,False,False,False,False,False,False,False,False,Night,Night,Night,Night
C-3167979,2,2021-07-01 07:38:00.000000000,2021-07-01 09:46:24.000000000,39.568398,-105.031302,39.56655900000001,-105.031142,0.127348258507,Stationary traffic on US-85 S from W Mineral Ave to Southpark Cir due to roadwork.,8105.0,S Santa Fe Dr,L,Littleton,Arapahoe,CO,80120,US,US/Mountain,KAPA,2021-07-01 07:53:00,63.0,63.0,81.0,24.33,10.0,NW,3.0,0.0,Mostly Cloudy,False,False,False,False,False,False,False,False,False,False,False,False,False,Day,Day,Day,Day
C-3167980,2,2019-10-23 21:03:10.000000000,2019-10-27 21:02:54.000000000,42.40321,-71.05578,42.40175,-71.06258000000003,0.361306608551,At RT-99/Broadway - Construction work. Lane blocked.,2047.0,Revere Beach Pkwy,L,Everett,Middlesex,MA,02149-5918,US,US/Eastern,KBOS,2019-10-23 20:54:00,60.0,60.0,41.0,30.02,10.0,W,9.0,0.0,Fair,False,False,False,False,False,False,False,False,False,False,False,False,False,Night,Night,Night,Night
C-3167981,4,2021-04-05 14:46:00.000000000,2021-05-16 23:59:00.000000000,46.577689,-120.477617,46.577686,-120.478894,0.0606486238793999,Closed road from S 18th St to S 17th St due to roadwork.,1701.0,S 18th St,L,Yakima,Yakima,WA,98903,US,US/Pacific,KYKM,2021-04-05 14:53:00,60.0,60.0,19.0,28.9,10.0,CALM,0.0,0.0,Fair,False,False,False,False,False,False,False,False,False,False,False,False,False,Day,Day,Day,Day
C-3167982,2,2020-08-19 03:01:00.000000000,2020-08-19 12:44:00.000000000,37.411826,-122.078114,37.402126,-122.069994,0.804851137683,Construction on CA-85 SB near US101 Drive with caution.,,CA-85 S,R,Mountain View,Santa Clara,CA,94043,US,US/Pacific,KNUQ,2020-08-19 02:25:00,72.0,72.0,69.0,29.87,6.0,CALM,0.0,,Haze,False,False,False,False,True,False,False,False,False,False,False,False,False,Night,Night,Night,Night
C-3167983,2,2020-02-25 03:04:39.000000000,2020-02-25 06:01:00.000000000,34.029881,-117.611267,,,0.7300000190729999,Exit ramp from CA-60 Eastbound at Exit 37 to S Vineyard Ave closed due to paving repairs.,,S Vineyard Ave,R,Ontario,San Bernardino,CA,91761,US,US/Pacific,KONT,2020-02-25 02:53:00,52.0,52.0,71.0,29.09,10.0,CALM,0.0,0.0,Fair,False,False,False,False,False,False,False,False,False,False,False,False,False,Night,Night,Night,Night
C-3167984,4,2020-08-30 04:00:00.000000000,2020-09-01 04:38:39.000000000,27.199636,-80.25549699999998,27.212185,-80.260147,0.912923365022,Construction on FL-707 NB near CR-707 Road closed. Take alternate route.,103.0,SW Dixie Hwy,R,Stuart,Martin,FL,34994,US,US/Eastern,KSUA,2020-08-30 03:55:00,77.0,77.0,83.0,29.92,10.0,CALM,0.0,0.0,Fair,False,False,False,False,False,False,False,False,False,False,False,False,False,Night,Night,Night,Night
C-3167985,2,2020-12-31 13:38:30.000000000,2020-12-31 16:39:30.000000000,40.670598,-73.997732,40.681751,-74.00245799999998,0.8094142115719999,Slow traffic on I-278 E from NY-27/Prospect Expy/Exit 24 (I-278) to Hamilton Ave/Exit 26 (I-278) due to roadwork.,,Brooklyn Queens Expy,R,Brooklyn,Kings,NY,11232,US,US/Eastern,KJRB,2020-12-31 13:51:00,44.0,,68.0,30.03,10.0,,,0.0,Mostly Cloudy,False,False,True,False,False,False,False,False,False,False,False,True,False,Day,Day,Day,Day
C-3167986,2,2019-07-16 08:03:15.000000000,2019-07-20 08:02:47.000000000,34.02709,-118.47224,34.02945,-118.47497,0.2258899700319999,Between Olympic Blvd and Broadway - Construction work.,2414.0,Olympic Blvd,L,Santa Monica,Los Angeles,CA,90404-4145,US,US/Pacific,KSMO,2019-07-16 07:51:00,64.0,64.0,96.0,29.65,2.0,SW,3.0,0.0,Fog,False,False,True,False,False,False,False,False,False,False,False,True,False,Day,Day,Day,Day
C-3167987,2,2019-10-22 04:19:03.000000000,2019-10-22 05:01:00.000000000,38.033939,-122.537201,,,1.7599999904599997,One lane closed due to paving repairs on US-101 Southbound from Alameda Del Prado to Exit 457 Miller Creek Rd.,,Redwood Hwy,R,San Rafael,Marin,CA,94903,US,US/Pacific,KDVO,2019-10-22 04:15:00,50.0,50.0,87.0,30.08,10.0,CALM,0.0,0.0,Fair,True,False,False,False,False,False,False,False,False,False,False,False,False,Night,Night,Night,Night
C-3167988,2,2020-04-19 00:00:01.000000000,2020-04-19 23:30:00.000000000,39.9637,-105.50761,39.9637,-105.50761,0.0,At CO-93/CO-7/Broadway St/Broadway - Construction work.,319.0,Boulder Canyon Dr,L,Nederland,Boulder,CO,80466,US,US/Mountain,KCRV,2020-04-19 00:12:00,46.0,42.0,57.0,24.57,10.0,SW,9.0,0.0,Partly Cloudy,False,False,False,False,False,False,False,False,False,False,False,False,False,Night,Night,Night,Night
C-3167989,2,2017-09-01 09:01:30.000000000,2017-09-01 15:01:30.000000000,25.82492,-80.20882900000002,25.82482000000001,-80.211174,0.146006261974,At 10th Ave - Construction work. Roadway reduced to 1 lane.,726.0,NW 54th St,L,Miami,Miami-Dade,FL,33127-1814,US,US/Eastern,KMIA,2017-09-01 08:53:00,87.1,,69.0,30.04,10.0,East,5.8,,Mostly Cloudy,False,False,False,False,False,False,False,False,True,False,False,False,False,Day,Day,Day,Day
C-3167990,2,2020-09-08 13:57:28.000000000,2020-09-09 02:27:00.000000000,40.743768,-73.884636,40.741861,-73.881025,0.230420017195,Slow traffic from I-278/Brooklyn Queens Expy (Broadway) to NY-25/Queens Blvd (Broadway) due to resurfacing work.,8007.0,Broadway,L,Elmhurst,Queens,NY,11373-3160,US,US/Eastern,KLGA,2020-09-08 13:51:00,83.0,83.0,51.0,30.13,10.0,ENE,10.0,0.0,Fair,True,False,True,True,False,False,True,False,True,False,False,True,False,Day,Day,Day,Day
C-3167991,2,2021-09-25 12:30:30.000000000,2021-09-25 14:57:42.000000000,34.506706,-117.369872,34.505731,-117.364253,0.326947043985,Slow traffic on CA-18 from Cobalt Rd to Dos Palmas Rd due to roadwork.,13462.0,Palmdale Rd,R,Victorville,San Bernardino,CA,92392-9364,US,US/Pacific,KVCV,2021-09-25 12:45:00,88.0,88.0,22.0,27.04,10.0,NNE,7.0,0.0,Fair,False,False,False,False,False,False,False,False,False,False,False,False,False,Day,Day,Day,Day
C-3167992,2,2020-07-21 01:01:00.000000000,2020-07-21 13:44:00.000000000,38.900177,-121.074598,38.900917,-121.074995,0.0554065630301,Construction on CA-49 NB near PALM AVE Expect delays.,,Grass Valley Hwy,R,Auburn,Placer,CA,95603,US,US/Pacific,KAUN,2020-07-21 00:55:00,77.0,77.0,50.0,28.26,10.0,E,8.0,0.0,Fair,False,False,False,False,True,False,False,False,False,False,False,True,False,Night,Night,Night,Night
C-3167993,2,2020-05-13 08:55:40.000000000,2020-05-17 08:53:56.000000000,34.02387,-117.55831,34.01894,-117.5408,1.05901515438,At I-15 - Roadwork. Two lanes closed.,,Pomona Fwy E,R,Mira Loma,Riverside,CA,91752,US,US/Pacific,KRAL,2020-05-13 08:53:00,62.0,62.0,60.0,29.14,10.0,VAR,3.0,0.0,Fair,False,False,False,False,False,False,False,False,False,False,False,False,False,Day,Day,Day,Day
C-3167994,2,2021-11-10 07:16:00.000000000,2021-11-10 07:39:30.000000000,38.552841,-106.292787,38.550073,-106.2573,1.92703349497,Slow traffic on US-50 W - US-50 E from CO-114 (US-50) to US-285/Kimberlin Ln (US-50) due to roadwork.,8899.0,County Road 224,R,Salida,Chaffee,CO,81201,US,US/Mountain,KANK,2021-11-10 07:15:00,38.0,34.0,78.0,22.8,10.0,WNW,6.0,,Partly Cloudy,False,False,False,False,False,False,False,False,False,False,False,False,False,Day,Day,Day,Day
C-3167995,3,2021-04-24 05:00:00.000000000,2021-04-24 06:00:00.000000000,40.823532,-73.87853199999998,,,0.949999988079,Right lane closed due to construction work on I-278 Bruckner Expy Eastbound between Bronx River Ave and Wheeler Ave.,,Bruckner Expy E,R,Bronx,Bronx,NY,10472,US,US/Eastern,KLGA,2021-04-24 04:51:00,54.0,54.0,40.0,29.95,10.0,NW,10.0,0.0,Fair,False,False,False,False,True,False,False,False,False,False,False,False,False,Night,Night,Day,Day
C-3167996,2,2020-09-02 17:00:00.000000000,2020-09-02 19:45:00.000000000,36.930822,-76.267525,36.928349,-76.268697,0.182718441545,Construction on I-64 EB near MM 276 Construction. Right lane closed.,,I-64 E,R,Norfolk,Norfolk,VA,23511,US,US/Eastern,KNGU,2020-09-02 16:59:00,91.0,91.0,61.0,29.84,9.0,VAR,3.0,0.0,Mostly Cloudy,False,False,False,False,False,False,False,False,False,False,False,False,False,Day,Day,Day,Day
C-3167997,2,2021-04-09 13:46:30.000000000,2021-04-09 14:06:30.000000000,39.372815,-77.404386,39.384425,-77.41183199999998,0.8953353146799999,Slow traffic on I-270 N - Dwight D Eisenhower Hwy N from MD-80/Exit 26 (I-270) to MD-85/Exit 31 (I-270) due to roadwork.,,Dwight D Eisenhower Hwy N,R,Frederick,Frederick,MD,21704,US,US/Eastern,KFDK,2021-04-09 13:47:00,57.0,57.0,94.0,29.76,5.0,ESE,5.0,0.0,Cloudy,False,False,False,False,True,False,False,False,False,False,False,False,False,Day,Day,Day,Day
C-3167998,2,2021-09-10 18:13:23.000000000,2021-09-10 18:51:17.000000000,42.480878,-83.08469000000002,42.476341,-83.084518,0.313599353708,Stationary traffic from I-696 (Dequindre Rd) to E 10 Mile Rd (Dequindre Rd) due to roadwork.,25505.0,Dequindre Rd,L,Madison Heights,Oakland,MI,48071-4242,US,US/Eastern,KVLL,2021-09-10 18:15:00,75.0,75.0,42.0,29.29,10.0,WSW,3.0,0.0,Partly Cloudy,False,False,True,False,False,False,False,False,True,False,False,True,False,Day,Day,Day,Day
C-3167999,2,2021-12-05 16:26:00.000000000,2021-12-05 18:38:00.000000000,35.163654,-101.885992,35.163814,-101.881801,0.236984667297,Stationary traffic from Bell St (SW 45th Ave) to I-27/Canyon Dr (SW 45th Ave) due to roadwork.,4279.0,SW 45th Ave,L,Amarillo,Randall,TX,79109-5401,US,US/Central,KAMA,2021-12-05 16:53:00,71.0,71.0,14.0,26.04,10.0,WSW,12.0,0.0,Fair,False,False,False,False,False,False,False,False,False,False,False,False,False,Day,Day,Day,Day
C-3168000,4,2021-06-29 22:36:55.000000000,2021-07-06 23:59:00.000000000,41.981025,-87.840475,41.981897,-87.840501,0.0602642591801,Closed road from W Bryn Mawr Ave to Chicago due to roadwork.,8535.0,W Bryn Mawr Ave,R,Chicago,Cook,IL,60631-3205,US,US/Central,KORD,2021-06-29 22:51:00,76.0,76.0,79.0,29.4,10.0,WSW,5.0,0.0,Cloudy,False,False,False,False,False,False,False,False,False,False,False,False,False,Night,Night,Night,Day
C-3168001,2,2019-10-17 22:00:00.000000000,2019-10-18 06:00:00.000000000,28.229521,-80.672928,,,0.0,Intermittent lane closures due to construction work on US-1 both ways at Suntree Blvd.,6495.0,US Highway 1,L,Rockledge,Brevard,FL,32955-5748,US,US/Eastern,KCOF,2019-10-17 21:56:00,76.0,76.0,88.0,29.91,10.0,CALM,0.0,0.0,Fair,False,False,True,False,False,False,False,False,False,False,False,True,False,Night,Night,Night,Night
C-3168002,2,2021-02-09 14:06:13.000000000,2021-02-09 19:09:54.000000000,47.42495,-88.07828,47.426793,-88.019386,2.75592607352,Roadwork on Lac la Belle Rd (US-41) from S Mandan Loop (US-41) to US-41 S - US-41 N.,10233.0,US 41,L,Mohawk,Keweenaw,MI,49950,US,US/Eastern,KCMX,2021-02-09 13:53:00,4.0,-16.0,60.0,28.93,1.0,WSW,17.0,0.0,Light Snow,False,False,False,False,False,False,False,False,False,False,False,False,False,Day,Day,Day,Day
C-3168003,2,2021-01-06 21:22:50.000000000,2021-01-08 07:59:00.000000000,40.711011,-74.310592,40.710936,-74.310176,0.0223951397308999,Utility work on NJ 124 eastbound Center St/Walnut Ct (Springfield Twp) Not currently Scheduled,1.0,Church Mall,L,Springfield,Union,NJ,07081-1208,US,US/Eastern,KLDJ,2021-01-06 21:15:00,36.0,30.0,63.0,30.03,10.0,N,7.0,0.0,Partly Cloudy,False,False,True,False,False,False,False,False,False,False,False,True,False,Night,Night,Night,Night
C-3168004,2,2020-12-23 19:07:38.000000000,2020-12-24 02:36:59.000000000,39.775066,-104.859109,39.770522,-104.811272,2.55967939343,Slow traffic on US-36 E - I-70 E from exit [281] to exit [283] due to roadwork.,,I-70 E,R,Denver,Denver,CO,80239,US,US/Mountain,KBKF,2020-12-23 18:58:00,19.0,19.0,32.0,24.48,10.0,CALM,0.0,0.0,Fair,False,False,False,False,False,False,False,False,False,False,False,False,False,Night,Night,Night,Night
C-3168005,2,2020-09-11 21:47:18.000000000,2020-09-11 22:36:34.000000000,44.861823,-70.46719499999998,44.85481,-70.445809,1.15407448741,Slow traffic on ME-4 from Red Moose Ln (ME-4) to ME-142 (ME-4) due to roadwork.,2711.0,Rangeley Rd,L,Madrid Twp,Franklin,ME,04966-5603,US,US/Eastern,KWVL,2020-09-11 21:56:00,53.0,53.0,69.0,29.93,10.0,N,5.0,0.0,Fair,False,False,False,False,False,False,False,False,False,False,False,False,False,Night,Night,Night,Night
C-3168006,2,2021-05-06 05:04:00.000000000,2021-05-06 11:22:30.000000000,40.161447,-76.145169,40.163722,-76.150745,0.33375839578,Stationary traffic on US-322 W from Hahnstown Rd to US-222 N / Lancaster Pike N due to roadwork.,1078.0,Division Hwy,R,Ephrata,Lancaster,PA,17522-8819,US,US/Eastern,KLNS,2021-05-06 04:53:00,45.0,41.0,68.0,29.54,10.0,W,7.0,0.0,Fair,False,False,False,False,False,False,False,False,False,False,False,False,False,Night,Night,Day,Day
C-3168007,2,2021-11-08 08:16:00.000000000,2021-11-08 08:36:00.000000000,25.925994,-80.15794100000002,25.926031,-80.15397,0.246770446653,Slow traffic on FL-826 from 19th Ave (FL-826) to US-1/FL-5/Biscayne Blvd (FL-826) due to roadwork.,2098.0,NE 163rd St,R,North Miami Beach,Miami-Dade,FL,33162-4902,US,US/Eastern,KHWO,2021-11-08 07:53:00,64.0,64.0,72.0,30.1,10.0,NW,14.0,0.0,Fair,False,False,True,False,False,False,False,False,False,False,False,True,False,Day,Day,Day,Day
C-3168008,2,2021-04-02 06:03:00.000000000,2021-04-02 06:48:00.000000000,40.018631,-75.04720999999998,40.010565,-75.062878,0.999005757564,Slow traffic on The Officers O'Hanlon and Lorenzo Memorial Hwy - I-95 S from Cottman Ave/Exit 30 (I-95) to Bridge St/Exit 27 (I-95) due to roadwork.,,I-95 S,R,Philadelphia,Philadelphia,PA,19135,US,US/Eastern,KPNE,2021-04-02 05:54:00,29.0,16.0,61.0,30.04,10.0,NNW,18.0,0.0,Fair,False,False,False,False,False,False,False,False,False,False,False,False,False,Night,Night,Day,Day
C-3168009,2,2021-04-19 02:26:43.000000000,2021-10-06 15:27:42.000000000,36.41368,-119.080885,36.41367,-119.076325,0.253550973897,One-Way Traffic closure due to Emergency Work between Road 222 (South) and Road 222 (South),34401.0,Saint Johns,L,Woodlake,Tulare,CA,93286,US,US/Pacific,KVIS,2021-05-07 08:56:00,64.0,64.0,56.0,29.71,10.0,N,6.0,0.0,Fair,False,False,False,False,False,False,False,False,False,False,False,False,False,Night,Night,Night,Night
C-3168010,2,2021-11-03 09:25:00.000000000,2021-11-03 09:47:30.000000000,35.161488,-101.883867,35.163829,-101.885085,0.175771525317,Slow traffic from Prairie Ave to Teckla Blvd / Cherokee Trl due to roadwork.,4598.0,S Western St,R,Amarillo,Randall,TX,79109-8042,US,US/Central,KAMA,2021-11-03 09:31:00,40.0,34.0,86.0,26.55,8.0,N,8.0,0.0,Cloudy,False,False,False,False,False,False,False,False,False,False,False,False,False,Day,Day,Day,Day
C-3168011,2,2020-10-05 11:44:30.000000000,2020-10-06 01:34:15.000000000,27.870685,-82.326589,27.871738,-82.327814,0.104362701818,Stationary traffic on FL-43 - US-301 N from Moody Rd to Commerce St due to roadwork.,8108.0,US Highway 301 S,R,Riverview,Hillsborough,FL,33578,US,US/Eastern,KTPF,2020-10-05 11:35:00,84.0,84.0,74.0,29.97,10.0,ENE,12.0,0.01,Partly Cloudy,False,False,False,False,False,False,False,False,True,False,False,False,False,Day,Day,Day,Day
C-3168012,2,2020-09-18 14:01:30.000000000,2020-09-19 03:31:00.000000000,26.516244,-80.059023,26.514536,-80.058338,0.125380650341,Stationary traffic on FL-805 - US-1 S - FL-5 from To Be Determined to N Ocean Blvd / Beachway Dr due to resurfacing work.,1399.0,S Federal Hwy,R,Boynton Beach,Palm Beach,FL,33435-6001,US,US/Eastern,KPBI,2020-09-18 13:53:00,92.0,92.0,54.0,29.86,10.0,SSW,12.0,0.0,Partly Cloudy,False,False,False,False,False,False,False,False,False,False,False,False,False,Day,Day,Day,Day
C-3168013,2,2020-09-22 14:45:30.000000000,2020-09-22 23:53:30.000000000,40.593608,-77.589151,40.595539,-77.580673,0.464376519005,Stationary traffic from Industrial Park Rd (US-22 Bus) to E Charles St (US-22 Bus) due to roadwork.,518.0,W 4th St,R,Lewistown,Mifflin,PA,17044-2015,US,US/Eastern,KUNV,2020-09-22 14:53:00,70.0,70.0,25.0,28.75,10.0,NW,8.0,0.0,Fair,False,False,True,False,False,False,False,False,False,False,False,True,False,Day,Day,Day,Day
C-3168014,4,2021-09-07 08:41:00.000000000,2021-09-12 23:17:31.000000000,39.728323,-77.22721999999997,39.725814,-77.22314,0.277594058759,Roadwork on MASON DIXON RD both directions between SWETLAND RD and SAVANNAH DR. All lanes closed.,2.0,Clubhouse Dr,L,Gettysburg,Adams,PA,17325,US,US/Eastern,KRYT,,,,,,,,,,,False,False,False,False,False,False,False,False,False,False,False,False,False,Day,Day,Day,Day
C-3168015,3,2020-10-08 23:07:25.000000000,2020-10-09 06:00:00.000000000,33.447689000000004,-117.135948,,,0.0,Entry ramp closed due to construction work on I-15 Northbound at Temecula Border Station.,,Escondido Fwy S,R,Temecula,Riverside,CA,92590,US,US/Pacific,KF70,2020-10-08 23:15:00,59.0,59.0,82.0,28.54,10.0,CALM,0.0,0.0,Fair,False,False,False,False,False,False,False,False,False,False,False,False,False,Night,Night,Night,Night
C-3168016,2,2021-06-13 13:41:00.000000000,2021-06-13 14:01:00.000000000,38.85418,-104.878173,38.850464,-104.871898,0.424174016361,Slow traffic on US-24 E from US-24 Bus/Manitou Ave (Manitou Springs) (East) (Manitou Bypass/US-24) to S 21st St (Midland Expy/US-24) due to roadwork.,,W US Highway 24,R,Colorado Springs,El Paso,CO,80904,US,US/Mountain,KAFF,2021-06-13 13:48:00,81.0,81.0,45.0,23.72,10.0,SSE,10.0,0.0,Light Rain Shower,False,False,False,False,False,False,False,False,False,False,False,False,False,Day,Day,Day,Day
C-3168017,2,2020-12-23 05:31:00.000000000,2020-12-23 12:45:00.000000000,37.600076,-77.461575,37.596514,-77.46629200000002,0.3567213293999999,Construction on I-95 SB near MM 74 Drive with caution.,,I-95 S,R,Henrico,Henrico,VA,23228,US,US/Eastern,KOFP,2020-12-23 05:54:00,27.0,27.0,85.0,30.19,10.0,CALM,0.0,0.0,Fair,False,False,False,False,True,False,False,False,False,False,False,False,False,Night,Night,Night,Night
C-3168018,2,2019-10-02 21:00:00.000000000,2019-10-03 05:00:00.000000000,37.80669,-122.474869,,,3.03999996185,One lane blocked due to construction on US-101 Southbound between Golden Gate Vista Pt and Exit 439 Merchant Rd.,,CA-1 N,R,San Francisco,San Francisco,CA,94129,US,US/Pacific,KSFO,2019-10-02 20:56:00,59.0,59.0,67.0,29.97,10.0,W,21.0,0.0,Fair / Windy,False,False,False,False,False,False,False,False,False,False,False,False,False,Night,Night,Night,Night
C-3168019,2,2021-06-26 06:47:30.000000000,2021-06-26 07:10:30.000000000,40.758323,-73.968941,40.756377,-73.964322,0.276620217796,Slow traffic from W 56 St exit [7] to 1st Ave due to roadwork.,899.0,3rd Ave,R,New York,New York,NY,10022-4802,US,US/Eastern,KNYC,2021-06-26 06:51:00,71.0,71.0,90.0,30.17,6.0,CALM,0.0,0.0,Cloudy,True,False,False,False,False,False,False,False,False,False,False,True,False,Day,Day,Day,Day
C-3168020,2,2020-11-12 17:34:00.000000000,2020-11-12 23:52:59.000000000,39.620187,-86.479831,39.61249,-86.479773,0.531821009957,Slow traffic on IN-39 from US-40/Cumberland St (Morgan St/IN-39) to I-70 (IN-39) due to roadwork.,,Innovation Blvd,R,Clayton,Hendricks,IN,46118,US,US/Eastern,KIND,2020-11-12 17:54:00,49.0,47.0,46.0,29.2,10.0,ESE,6.0,0.0,Fair,False,False,False,False,False,False,False,False,False,False,False,False,False,Night,Day,Day,Day
C-3168021,2,2021-03-20 08:49:30.000000000,2021-11-16 17:49:46.000000000,39.741701,-105.081434,39.740205,-105.080266,0.12056049057,Slow traffic on US-40 E - I-70 Bus E - CO-121 from W 16th Ave to Vance St due to roadwork.,1575.0,Wadsworth Blvd,R,Lakewood,Jefferson,CO,80214-5221,US,US/Mountain,KBJC,2021-03-20 08:45:00,45.0,41.0,46.0,24.33,75.0,NW,7.0,0.0,Mostly Cloudy,False,False,True,False,False,False,False,False,False,False,False,False,False,Day,Day,Day,Day
C-3168022,2,2020-08-25 11:48:00.000000000,2020-08-26 04:08:30.000000000,39.170489,-96.593885,39.168986,-96.599459,0.316124202859,Slow traffic on KS-18 from S 17th St (Fort Riley Blvd/KS-18) to KS-113/S Seth Child Rd (Fort Riley Blvd/KS-18) due to roadwork.,2300.0,Fort Riley Blvd,L,Manhattan,Riley,KS,66502,US,US/Central,KMHK,2020-08-25 11:52:00,91.0,91.0,42.0,28.92,10.0,SW,14.0,0.0,Fair,False,False,False,False,False,False,False,False,False,False,False,False,False,Day,Day,Day,Day
C-3168023,2,2021-09-04 12:29:46.000000000,2021-09-04 12:51:22.000000000,40.750356,-73.973486,40.75242,-73.978348,0.291718997721,Slow traffic from 2nd Ave (E 42nd St) to 6th Ave/Avenue of the Americas (W 42nd St) due to roadwork.,214.0,E 42nd St,R,New York,New York,NY,10017-5803,US,US/Eastern,KNYC,2021-09-04 12:51:00,75.0,75.0,44.0,29.91,10.0,VAR,3.0,0.0,Fair,True,False,True,False,False,False,True,False,True,False,False,True,False,Day,Day,Day,Day
C-3168024,2,2020-07-14 20:12:31.000000000,2020-07-15 23:53:32.000000000,40.774439,-74.154117,40.775417,-74.15288000000002,0.0935698567225,Attenuator repairs on NJ 21 northbound between Exit 5 - NJ 21/McCarter Highway (Newark) and Exit 6 - NJ 7/Belleville Turnpike (Belleville Twp) Not currently scheduled,,McCarter Hwy N,R,Newark,Essex,NJ,07104,US,US/Eastern,KEWR,2020-07-14 19:51:00,84.0,84.0,40.0,29.98,10.0,NW,9.0,0.0,Partly Cloudy,False,False,False,False,False,False,False,False,False,False,False,False,False,Day,Day,Day,Day
C-3168025,2,2021-10-24 12:19:33.000000000,2021-10-24 12:39:33.000000000,40.727348,-74.000598,40.728592,-74.005306,0.261066298637,Slow traffic from Broadway/Laguardia Pl (W Houston St) to Varick St (W Houston St) due to roadwork.,106.0,W Houston St,R,New York,New York,NY,10012-2529,US,US/Eastern,KJRB,2021-10-24 11:51:00,55.0,55.0,53.0,30.08,10.0,VAR,3.0,0.0,Cloudy,True,False,True,False,False,False,True,False,True,False,False,True,False,Day,Day,Day,Day
C-3168026,2,2021-07-07 22:24:30.000000000,2021-07-07 22:50:00.000000000,35.570397,-75.467662,35.566015,-75.468852,0.310066279362,Stationary traffic on NC-12 from Blue Sea Dr (NC-12) to Ocean Spray Rd (NC-12) due to roadwork.,25201.0,Lee Oneal Ln,R,Waves,Dare,NC,27982,US,US/Eastern,KHSE,2021-07-07 22:51:00,81.0,81.0,88.0,30.06,9.0,SW,8.0,0.0,Fair,False,False,False,False,False,False,False,False,False,False,False,False,False,Night,Night,Night,Night
C-3168027,2,2021-06-22 20:26:30.000000000,2021-06-22 21:16:30.000000000,39.880575,-77.033005,39.871398,-77.026438,0.723392904128,Slow traffic on PA-94 - US-30 E - US-30 W from Forest Dr to Stanley Dr due to roadwork.,3489.0,Carlisle Pike,R,New Oxford,Adams,PA,17350-9760,US,US/Eastern,KTHV,2021-06-22 20:53:00,59.0,59.0,67.0,29.44,10.0,CALM,0.0,0.0,Fair,False,False,False,False,False,False,False,False,False,False,False,False,False,Day,Day,Day,Day
C-3168028,2,2017-05-02 15:50:28.000000000,2017-05-02 23:16:49.000000000,39.97091,-75.00652,39.97091,-75.00652,0.0,At High St - Construction work.,,High St,R,Maple Shade,Burlington,NJ,08052,US,US/Eastern,KVAY,2017-05-02 15:54:00,73.9,,29.0,29.64,10.0,WSW,18.4,,Partly Cloudy,False,False,False,False,False,False,False,False,False,False,False,True,False,Day,Day,Day,Day
C-3168029,2,2020-09-28 20:37:30.000000000,2020-09-28 23:56:43.000000000,42.037968,-71.6227,42.019908,-71.59824300000002,1.7699208732499998,Queuing traffic on MA-146 from Chocolog Rd (MA-146) to MA-146A/Quaker Hwy (MA-146) due to roadwork.,,MA-146 S,R,Uxbridge,Worcester,MA,01569,US,US/Eastern,KSFZ,2020-09-28 20:46:00,64.0,64.0,100.0,29.49,10.0,VAR,3.0,0.0,Cloudy,False,False,False,False,False,False,False,False,False,False,False,False,False,Night,Night,Night,Night
C-3168030,2,2021-11-12 14:54:30.000000000,2021-11-12 16:58:53.000000000,33.416017,-111.926277,33.414815999999995,-111.926926,0.0910320337933,Slow traffic from E Lemon St to S McAllister Ave due to roadwork.,1181.0,S Rural Rd,L,Tempe,Maricopa,AZ,85281-2006,US,US/Mountain,KPHX,2021-11-12 14:51:00,86.0,86.0,12.0,28.84,10.0,E,7.0,0.0,Fair,False,False,False,False,False,False,False,False,False,False,False,False,False,Day,Day,Day,Day
C-3168031,2,2019-03-18 12:35:58.000000000,2019-03-26 18:01:21.000000000,41.684367,-73.06826600000002,41.65232,-73.07936,2.28707486544,Between CT-222/Main St/Exit 40 and US-6/CT-254/Exit 38 - Bridge maintenance work.,,CT-8 S,R,Thomaston,Litchfield,CT,06787,US,US/Eastern,KOXC,2019-03-22 17:51:00,39.9,32.5,79.0,29.34,10.0,West,12.7,0.0,Mostly Cloudy,False,False,False,False,False,False,False,False,False,False,False,False,False,Day,Day,Day,Day
C-3168032,2,2021-06-19 21:52:30.000000000,2021-06-19 22:12:30.000000000,37.597589,-122.060272,37.588666,-122.053906,0.708211588786,Slow traffic on Nimitz Fwy S - I-880 S from Dyer St/Whipple Rd (I-880) to Alvarado Blvd/Fremont Blvd (I-880) due to roadwork.,,I-880 S,R,Union City,Alameda,CA,94587,US,US/Pacific,KHWD,2021-06-19 21:54:00,58.0,58.0,81.0,29.71,8.0,NW,9.0,0.0,Fair,False,False,False,False,False,False,False,False,False,False,False,False,False,Night,Night,Night,Day
C-3168033,2,2021-09-24 08:20:18.000000000,2021-09-24 08:42:25.000000000,40.739322,-73.959891,40.739799,-73.961288,0.0802173786636,Slow traffic at 54th Ave due to roadwork.,5597.0,2nd St,L,Long Island City,Queens,NY,11101-5908,US,US/Eastern,KNYC,2021-09-24 07:51:00,58.0,,93.0,29.96,10.0,,,0.0,Partly Cloudy,False,False,False,True,False,False,False,False,False,True,True,False,False,Day,Day,Day,Day
C-3168034,2,2021-06-14 16:32:05.000000000,2021-06-14 17:06:19.000000000,41.724204,-87.70195,41.71986,-87.70188399999998,0.3001611125739999,Slow traffic from W 87th St (S Kedzie Ave) to W 103rd St (Kedzie Ave) due to roadwork.,9309.0,S Kedzie Ave,L,Evergreen Park,Cook,IL,60805-2319,US,US/Central,KMDW,2021-06-14 16:53:00,80.0,80.0,34.0,29.3,10.0,NE,13.0,0.0,Partly Cloudy,False,False,False,False,False,False,False,False,True,False,False,False,False,Day,Day,Day,Day
C-3168035,2,2020-04-23 09:49:07.000000000,2020-05-22 07:01:55.000000000,41.66768,-74.78479,41.66722,-74.78191,0.152007845481,At CR-59/Kaufman Rd - Roadwork. Lane blocked.,1.0,Plank Rd,R,Mongaup Valley,Sullivan,NY,12762-5207,US,US/Eastern,KMSV,2020-04-24 09:56:00,40.0,36.0,97.0,28.24,3.0,E,6.0,0.03,Light Rain,False,False,False,False,False,False,False,False,False,False,False,False,False,Day,Day,Day,Day
C-3168036,2,2020-11-23 10:58:30.000000000,2020-11-23 23:42:07.000000000,40.776551,-74.05836500000002,40.777806,-74.057539,0.0968852925451,Slow traffic on I-95 N - New Jersey Tpke N from Seaview Dr (New Jersey Tpke (E Spur)/I-95) to NJ-495/Exit 16 (New Jersey Tpke (E Spur)/I-95) due to roadwork.,,New Jersey Tpke N,R,Secaucus,Hudson,NJ,07094,US,US/Eastern,KTEB,2020-11-23 10:51:00,49.0,42.0,66.0,29.93,10.0,NW,18.0,0.0,Mostly Cloudy,False,False,False,False,False,False,False,False,False,False,False,False,False,Day,Day,Day,Day
C-3168037,2,2021-08-31 07:04:46.000000000,2021-08-31 07:51:30.000000000,25.684997,-80.424942,25.685255,-80.41664499999997,0.5169306873089999,Stationary traffic on FL-94 from 147th Ave (N Kendall Dr) to 137th Ave (N Kendall Dr) due to roadwork.,,SW 142nd Ave,R,Miami,Miami-Dade,FL,33186,US,US/Eastern,KTMB,2021-08-31 06:53:00,76.0,76.0,91.0,29.92,10.0,CALM,0.0,0.0,Fair,False,False,True,False,False,False,False,False,False,False,False,True,False,Day,Day,Day,Day
C-3168038,2,2020-10-14 13:19:30.000000000,2020-10-14 23:57:30.000000000,30.413608,-91.136693,30.417479,-91.142578,0.441014844936,Queuing traffic on LA-427 from Congress Blvd to I-10 E due to roadwork.,3198.0,Congress Blvd,R,Baton Rouge,East Baton Rouge,LA,70808-3138,US,US/Central,KBTR,2020-10-14 12:53:00,81.0,81.0,41.0,29.95,10.0,SSE,6.0,0.0,Fair,False,False,True,False,False,False,True,False,False,False,False,True,False,Day,Day,Day,Day
C-3168039,2,2021-01-06 20:00:00.000000000,2021-01-07 01:00:00.000000000,38.021351,-77.376032,38.01945900000001,-77.376935,0.139659651166,On Rt. 722 (Nelson Hill Rd) in the County of Caroline from Devils Three Jump Rd; Rt. 676E/W (Caroline County) to WEST motorists can expect potential delays in this area from 01/06/21 at 12:00 PM until 01/06/21 at 5:00 PM due to guardrail repairs. The north through lanes are closed. The south through lanes are closed.,15463.0,Nelson Hill Rd,L,Milford,Caroline,VA,22514-2026,US,US/Eastern,KEZF,2021-01-06 19:55:00,40.0,40.0,66.0,30.11,10.0,NW,3.0,0.0,Partly Cloudy,False,False,False,False,False,False,False,False,False,False,False,False,False,Night,Night,Night,Night
C-3168040,4,2020-12-09 09:58:52.000000000,2020-12-17 07:59:00.000000000,33.363664,-111.946747,33.362957,-111.945881,0.069883061195,Closed road from W Guadalupe Rd to S Kyrene Rd due to roadwork.,529.0,W Guadalupe Rd,L,Tempe,Maricopa,AZ,85283-3520,US,US/Mountain,KPHX,2020-12-09 09:51:00,70.0,70.0,14.0,28.93,10.0,ESE,7.0,0.0,Fair,False,False,False,False,False,False,False,False,False,False,False,False,False,Day,Day,Day,Day
C-3168041,2,2021-10-20 08:20:00.000000000,2021-10-20 11:08:47.000000000,33.480453000000004,-112.156215,33.481896,-112.151659,0.280848591236,Slow traffic from N 46th Ave to W Pinchot Ave due to roadwork.,4455.0,W Thomas Rd,L,Phoenix,Maricopa,AZ,85031-3727,US,US/Mountain,KGEU,2021-10-20 07:58:00,57.0,57.0,50.0,28.9,10.0,N,3.0,0.0,Fair,False,False,True,False,False,False,False,False,False,False,False,False,False,Day,Day,Day,Day
C-3168042,2,2021-11-13 13:29:30.000000000,2021-11-13 13:57:00.000000000,41.720773,-87.698135,41.720088,-87.701894,0.199550788722,Slow traffic on US-12 E - US-20 W - US-12 W - US-20 E from S Utica Ave to W 96th St due to roadwork.,,S Utica Ave,R,Evergreen Park,Cook,IL,60805,US,US/Central,KMDW,2021-11-13 13:53:00,39.0,31.0,57.0,29.29,10.0,WNW,13.0,0.0,Cloudy,False,False,False,False,False,False,False,False,False,False,False,True,False,Day,Day,Day,Day
C-3168043,4,2021-10-05 09:13:00.000000000,2021-10-11 03:00:17.000000000,41.7631,-80.469581,41.72176500000001,-80.470985,2.85689356185,Roadwork on NORTH BEAVER RD / BEAVER CENTER RD both directions between CENTER RD and LICKING ST. All lanes closed.,21398.0,Beaver Center Rd,R,Conneautville,Crawford,PA,16406-4408,US,US/Eastern,KGKJ,2021-10-05 09:03:00,62.0,62.0,96.0,28.69,2.0,NE,8.0,0.0,Fog,False,False,False,False,False,False,False,False,False,False,False,False,False,Day,Day,Day,Day
C-3168044,2,2020-10-13 12:14:30.000000000,2020-10-13 16:03:00.000000000,40.746414,-73.97971899999997,40.74319600000001,-73.972115,0.45593462986,Slow traffic from Park Ave (E 34th St) to FDR Dr (E 34th St) due to resurfacing work.,240.0,Lexington Ave,L,New York,New York,NY,10016-4638,US,US/Eastern,KNYC,2020-10-13 12:02:00,57.0,57.0,96.0,29.78,3.0,VAR,5.0,0.0,Light Rain,True,False,True,False,False,False,False,False,False,False,False,True,False,Day,Day,Day,Day
C-3168045,2,2021-04-07 05:38:00.000000000,2021-04-07 18:00:33.000000000,39.737206,-105.109615,39.740125,-105.10878,0.206505409688,Slow traffic on US-40 E - CO-391 - I-70 Bus E from W 13th Pl to Iris St due to roadwork.,1328.0,Kipling St,R,Lakewood,Jefferson,CO,80215-4621,US,US/Mountain,KBJC,2021-04-07 05:35:00,34.0,34.0,93.0,24.33,10.0,ENE,3.0,0.0,Fair,False,False,True,False,False,False,False,False,True,False,False,True,False,Night,Night,Day,Day
C-3168046,2,2020-08-27 15:42:30.000000000,2020-08-27 23:48:30.000000000,40.297423,-75.40935,40.303245,-75.418839,0.641746408695,Stationary traffic on PA-63 from Indian Creek Rd (Main St/PA-63) to PA-563/Old Skippack Rd/Ridge Rd (Sumneytown Pike/PA-63) due to roadwork.,883.0,Main St,L,Harleysville,Montgomery,PA,19438-1638,US,US/Eastern,KPTW,2020-08-27 15:54:00,89.0,89.0,52.0,29.39,9.0,WSW,9.0,0.0,Mostly Cloudy,False,False,False,False,False,False,False,False,False,False,False,False,False,Day,Day,Day,Day
C-3168047,2,2020-11-18 12:36:53.000000000,2020-11-18 17:00:00.000000000,32.274334,-86.17334699999998,,,0.0,Single alternate line traffic due to construction work on US-231 Troy Hwy both ways at CR-40 Meriwether Rd.,6598.0,Troy Hwy,L,Montgomery,Montgomery,AL,36116,US,US/Central,KMXF,2020-11-18 12:56:00,64.0,64.0,25.0,30.28,10.0,NNE,5.0,0.0,Fair,False,False,False,False,False,False,False,False,False,False,False,False,False,Day,Day,Day,Day
C-3168048,2,2020-05-06 09:02:53.000000000,2020-06-04 16:42:14.000000000,43.08501,-76.229,43.07324000000001,-76.20966,1.27041938799,Between RT-695/Exit 6 and RT-297/Exit 6/Exit 7 - Roadwork. Hard shoulder closed.,,I-690 E,R,Syracuse,Onondaga,NY,13209,US,US/Eastern,KSYR,2020-05-06 08:54:00,43.0,39.0,60.0,29.45,10.0,E,7.0,0.0,Mostly Cloudy,False,False,False,False,True,False,False,False,False,False,False,False,False,Day,Day,Day,Day
C-3168049,2,2020-12-21 15:12:00.000000000,2020-12-22 02:26:32.000000000,43.632047,-116.354289,43.635165,-116.354178,0.215504781544,Slow traffic on ID-55 from E Fairview Ave (ID-55) to W McMillan Rd (ID-55) due to roadwork.,2956.0,N Eagle Rd,L,Meridian,Ada,ID,83646-6251,US,US/Mountain,KMAN,2020-12-21 15:15:00,55.0,55.0,63.0,27.27,10.0,SE,12.0,0.0,Fair,False,False,False,False,False,False,False,False,False,False,False,False,False,Day,Day,Day,Day
C-3168050,2,2020-12-01 14:26:30.000000000,2020-12-01 21:28:00.000000000,30.535001,-87.27468499999998,30.533099,-87.27215,0.200074346865,Slow traffic on US-90 Alt E - County Hwy-95A - County Hwy-95 - FL-10 from Chauncey St to US-90 Alt due to roadwork.,9508.0,N Palafox St,R,Pensacola,Escambia,FL,32534-1221,US,US/Central,KPNS,2020-12-01 14:53:00,56.0,56.0,26.0,30.06,10.0,NNW,9.0,0.0,Fair,False,False,True,False,False,False,False,False,False,True,False,False,False,Day,Day,Day,Day
C-3168051,4,2020-04-06 06:20:05.000000000,2020-04-07 06:20:05.000000000,29.9551,-90.07171,29.95572,-90.07262,0.069301521961,Closed at Rampart St - Closed due to roadwork.,101.0,Burgundy St,L,New Orleans,Orleans,LA,70112-3113,US,US/Pacific,KAUD,2020-04-06 05:55:00,66.0,66.0,100.0,30.06,7.0,E,5.0,0.0,Mostly Cloudy,True,False,True,False,False,False,True,False,True,False,False,True,False,Night,Day,Day,Day
C-3168052,2,2020-09-09 06:29:50.000000000,2020-09-26 10:35:46.000000000,42.24136,-75.73759,42.24136,-75.73759,0.0,At CR-9/Page Brook Rd - Roadwork. Lane blocked. Ramp restrictions.,5246.0,State Route 79,R,Port Crane,Broome,NY,13833-1215,US,US/Eastern,KBGM,2020-09-09 06:53:00,62.0,62.0,93.0,28.53,10.0,SSE,5.0,0.0,Fair,False,False,False,False,False,False,False,False,False,False,False,False,False,Night,Day,Day,Day
C-3168053,2,2019-05-20 07:00:00.000000000,2019-05-21 15:00:00.000000000,40.44883,-75.964218,,,2.02999997139,Lane closed due to maintenance work on PA-61 Centre Ave Southbound from Indian Manor Dr to Wall St.,,E Wall St,R,Leesport,Berks,PA,19533,US,US/Eastern,KRDG,2019-05-20 06:54:00,67.0,67.0,100.0,29.49,10.0,CALM,0.0,0.0,Fair,False,False,False,False,False,False,False,False,False,False,False,True,False,Day,Day,Day,Day
C-3168054,3,2021-08-12 04:06:33.000000000,2021-08-12 06:00:00.000000000,41.76987800000001,-72.68264,,,4.19000005722,Two right lane closed due to construction work on I-84 Westbound between Exit 57 CT-15 Exit 91 and Exit 48 Spring St.,,Myrtle St,R,Hartford,Hartford,CT,06103,US,US/Eastern,KHFD,2021-08-12 03:53:00,76.0,76.0,79.0,29.92,10.0,S,8.0,0.0,Fair,False,False,True,False,False,False,False,False,False,False,False,False,False,Night,Night,Night,Night
C-3168055,2,2020-11-18 13:45:00.000000000,2020-11-18 19:42:10.000000000,25.739256,-80.239538,25.740763,-80.23781,0.149693054682,Slow traffic on US-1 N - FL-9 - FL-5 from SW 28th Ter to SW 28th Ln due to roadwork.,2716.0,S Dixie Hwy,L,Miami,Miami-Dade,FL,33133-3728,US,US/Eastern,KMIA,2020-11-18 13:53:00,77.0,77.0,56.0,30.16,10.0,NE,18.0,0.0,Mostly Cloudy,False,False,True,False,False,False,False,False,False,False,False,True,False,Day,Day,Day,Day
C-3168056,2,2021-11-17 16:32:00.000000000,2021-11-17 19:36:40.000000000,41.990623,-87.68496800000001,41.989967,-87.689735,0.248966284974,Stationary traffic on US-14 W from N Damen Ave to W Thorndale Ave due to roadwork.,2154.0,W Peterson Ave,L,Chicago,Cook,IL,60659-4277,US,US/Central,KORD,2021-11-17 16:51:00,49.0,46.0,86.0,29.17,10.0,WSW,7.0,0.0,Cloudy,False,False,False,False,False,False,False,False,True,False,False,False,False,Night,Day,Day,Day
C-3168057,2,2019-06-06 10:00:00.000000000,2019-06-06 14:30:00.000000000,41.408531,-73.786781,,,0.0,Right lane closed due to drainage works on Taconic State Pkwy Southbound at CR-21 Peekskill Hollow Rd.,,Taconic State Pkwy N,R,Putnam Valley,Putnam,NY,10579,US,US/Eastern,KSWF,2019-06-06 09:45:00,75.0,75.0,73.0,29.23,10.0,NW,9.0,0.0,Mostly Cloudy,False,False,False,False,True,False,False,False,False,True,False,False,False,Day,Day,Day,Day
C-3168058,2,2020-02-06 01:29:23.000000000,2020-02-06 05:00:00.000000000,37.632191,-122.11168700000002,,,0.649999976158,Exit ramp from CA-92 Southbound at Exit 25A to Industrial Blvd Eastbound closed due to construction.,2900.0,Industrial Blvd,R,Hayward,Alameda,CA,94545,US,US/Pacific,KHWD,2020-02-06 01:54:00,44.0,44.0,71.0,30.15,10.0,E,3.0,0.0,Fair,False,False,False,False,False,False,False,False,False,False,False,False,False,Night,Night,Night,Night
C-3168059,2,2017-08-07 09:59:28.000000000,2017-08-07 18:00:00.000000000,32.576412,-96.314301,,,0.0,Intermittent lane closures and slow moving maintenance vehicles due to construction work on FM-1388 Houston St both ways between FM-148 and US-175.,,S Houston St,R,Kaufman,Kaufman,TX,75142,US,US/Central,KTRL,2017-08-07 09:53:00,78.1,,81.0,29.93,10.0,ESE,5.8,,Overcast,False,False,False,False,False,False,False,False,False,True,False,False,False,Day,Day,Day,Day
C-3168060,2,2021-02-11 06:13:00.000000000,2021-02-11 19:38:36.000000000,33.641754,-112.065541,33.640218,-112.064733,0.115858659995,Stationary traffic from E Danbury Rd to N 9th St due to roadwork.,17109.0,N 7th St,L,Phoenix,Maricopa,AZ,85022,US,US/Mountain,KDVT,2021-02-11 05:53:00,46.0,46.0,51.0,28.34,10.0,CALM,0.0,0.0,Fair,True,False,False,False,False,False,False,False,True,False,False,False,False,Night,Night,Night,Day
C-3168061,3,2016-07-13 23:00:00.000000000,2016-07-14 05:00:00.000000000,42.346416,-71.060837,,,0.0,Dewey Square tunnel closed and three lanes closed due to construction work on I-93 Southbound between Exit 26 MA-28 Storrow Dr and I-90. Detour in operation - into exit 20 A/B.,,US-1 S,R,Boston,Suffolk,MA,02111,US,US/Eastern,KBOS,2016-07-13 22:54:00,73.9,,57.0,29.99,10.0,SSW,12.7,,Partly Cloudy,False,False,False,False,False,False,False,False,False,False,False,False,False,Night,Night,Night,Night
C-3168062,2,2020-12-19 12:44:30.000000000,2020-12-25 07:00:38.000000000,37.366519,-89.61026,37.33898,-89.597197,2.03353508773,Roadwork on I-55/US-61/Exit 105 (I-55) from MO-K/Exit 96 (I-55) to I-55 S.,,I-55 S,R,Jackson,Cape Girardeau,MO,63755,US,US/Central,KCGI,2020-12-19 12:53:00,43.0,38.0,89.0,29.71,10.0,S,8.0,0.0,Cloudy,False,False,False,False,False,False,False,False,False,False,False,False,False,Day,Day,Day,Day
C-3168063,2,2019-12-20 08:20:30.000000000,2019-12-20 16:20:00.000000000,43.51979,-123.52336,43.51117,-123.50853,0.95229834804,At CR-33/Tyee Rd - Maintenance work.,16337.0,State Highway 138 W,R,Oakland,Douglas,OR,97462,US,US/Pacific,KRBG,2019-12-20 07:53:00,58.0,58.0,65.0,29.39,10.0,S,7.0,0.0,Cloudy,False,False,False,False,False,False,False,False,False,False,False,False,False,Day,Day,Day,Day
C-3168064,2,2019-06-22 18:00:00.000000000,2019-06-23 11:00:00.000000000,39.60018,-86.51885,39.593449,-86.54012900000002,1.22463432225,At Little Point Rd/Exit 51 - Construction work. Right lane closed.,,I-70 W,R,Clayton,Morgan,IN,46118,US,US/Eastern,KIND,2019-06-22 17:54:00,75.0,75.0,76.0,29.18,10.0,SE,10.0,0.0,Mostly Cloudy,False,False,False,False,False,False,False,False,False,False,False,False,False,Day,Day,Day,Day
C-3168065,2,2021-08-25 19:34:30.000000000,2021-10-25 15:38:30.000000000,41.849244,-87.724694,41.851643,-87.724738,0.165770581868,Slow traffic from W 26th St (S Pulaski Rd) to W 22nd St/W Cermak Rd (S Pulaski Rd) due to roadwork.,2347.0,S Pulaski Rd,L,Chicago,Cook,IL,60623-3045,US,US/Central,KMDW,2021-10-25 14:53:00,52.0,52.0,69.0,29.24,10.0,NNE,15.0,0.0,Cloudy,False,False,False,False,False,False,False,False,True,False,False,True,False,Night,Day,Day,Day
C-3168066,2,2020-06-07 00:39:22.000000000,2020-07-13 17:59:00.000000000,36.336849,-119.297592,,,0.0,Restrictions due to construction work on Grove Ave Northbound at Willis St.,481.0,W Grove Ave,L,Visalia,Tulare,CA,93291-3443,US,US/Pacific,KVIS,2020-06-07 00:56:00,61.0,61.0,50.0,29.66,10.0,NW,20.0,0.0,Fair,False,False,False,False,False,False,False,False,False,True,False,False,False,Night,Night,Night,Night
C-3168067,2,2021-10-18 06:42:00.000000000,2021-11-23 20:41:52.000000000,33.496674,-112.203232,33.494828000000005,-112.203418,0.127995913641,Slow traffic from W Monterosa St to N 69th Dr due to roadwork.,6700.0,W Monterosa St,R,Phoenix,Maricopa,AZ,85033-3239,US,US/Mountain,KGEU,2021-11-23 18:28:00,72.0,72.0,29.0,28.69,10.0,SW,3.0,0.0,Cloudy,True,False,True,False,False,False,False,False,False,False,False,True,False,Day,Day,Day,Day
C-3168068,2,2019-11-20 04:32:19.000000000,2019-11-21 05:01:00.000000000,33.448181,-112.091423,,,0.0,Restrictions due to utility work on 15th Ave both ways between Jefferson St and Washington St.,1498.0,W Washington St,R,Phoenix,Maricopa,AZ,85007-2931,US,US/Mountain,KPHX,2019-11-20 04:51:00,61.0,61.0,83.0,28.43,10.0,S,10.0,0.0,Cloudy,True,False,True,False,False,False,False,False,False,False,False,True,False,Night,Night,Night,Night
C-3168069,2,2020-09-10 01:00:00.000000000,2020-09-10 12:45:00.000000000,43.743012,-88.44875400000002,43.743764,-88.449938,0.0786927541452,Construction on I-41 NB near SOUTH MAIN ST Drive with caution.,,I-41 N,R,Fond du Lac,Fond du Lac,WI,54935,US,US/Central,KFLD,2020-09-10 00:53:00,50.0,50.0,89.0,29.51,10.0,N,9.0,0.0,Cloudy,False,False,False,False,True,False,False,False,False,False,False,False,False,Night,Night,Night,Night
C-3168070,4,2021-06-23 00:00:00.000000000,2021-07-09 00:45:00.000000000,39.788388,-105.014686,39.78742,-105.014699,0.0668859913715,Construction on N WYANDOT ST SB near END Expect delays.,5088.0,Wyandot St,R,Denver,Denver,CO,80221-1372,US,US/Mountain,KBJC,2021-06-23 00:15:00,73.0,73.0,25.0,24.31,10.0,NNW,12.0,0.0,Fair,False,False,True,False,False,False,False,False,False,True,False,False,False,Night,Night,Night,Night
C-3168071,2,2021-11-12 15:08:00.000000000,2021-11-12 17:16:00.000000000,42.154324,-87.962819,42.152357,-87.961065,0.162919117445,Slow traffic from Church Rd to Aptakisic Rd due to roadwork.,50.0,N Buffalo Grove Rd,L,Buffalo Grove,Lake,IL,60089-1702,US,US/Central,KPWK,2021-11-12 15:09:00,37.0,30.0,79.0,29.05,10.0,WSW,10.0,0.0,Mostly Cloudy,False,False,False,False,False,False,False,False,False,False,False,False,False,Day,Day,Day,Day
C-3168072,2,2021-04-23 04:23:30.000000000,2021-04-23 11:46:30.000000000,39.917298,-83.013041,39.917182,-83.010414,0.13944241825,Slow traffic on OH-104 E from I-71 (Frank Rd/OH-104) to Haul Rd (Frank Rd/OH-104) due to roadwork.,,Frank Rd,R,Columbus,Franklin,OH,43223,US,US/Eastern,KTZR,2021-04-23 04:15:00,33.0,29.0,75.0,29.1,10.0,WSW,5.0,0.0,Fair,False,False,False,False,False,False,False,False,False,False,False,True,False,Night,Night,Night,Night
C-3168073,4,2021-01-27 04:56:00.000000000,2021-01-28 06:11:31.000000000,30.334355,-81.671254,30.332795,-81.673114,0.154664327344,Construction on I-95 SB near BEAVER ST Take alternate route.,,FL-228 W,R,Jacksonville,Duval,FL,32204,US,US/Eastern,KNIP,2021-01-27 04:53:00,66.0,66.0,96.0,29.96,2.0,WSW,8.0,0.0,Fog,False,False,False,False,False,False,False,False,False,False,False,False,False,Night,Night,Night,Night
C-3168074,2,2021-09-08 21:17:00.000000000,2021-09-08 21:41:30.000000000,32.829293,-87.604104,32.80767,-87.594301,1.59876965375,Stationary traffic on AL-69 from CR-29 (AL-69) to CR-32/Rhodes St (AL-69) due to roadwork.,,AL Highway 69,R,Greensboro,Hale,AL,36744,US,US/Central,KDYA,2021-09-08 20:56:00,74.0,,97.0,29.54,10.0,,,0.0,Partly Cloudy,False,False,False,False,False,False,False,False,False,False,False,False,False,Night,Night,Night,Night
C-3168075,3,2018-12-14 21:00:00.000000000,2018-12-17 06:00:00.000000000,35.103297999999995,-89.87181899999999,,,0.019999999553,Entry ramp to I-240 Westbound from Poplar Ave Westbound closed due to construction work.,,Poplar Ave,R,Memphis,Shelby,TN,38119,US,US/Central,KOLV,2018-12-14 20:55:00,48.2,,,29.78,1.2,Calm,,,Overcast,False,False,False,False,False,False,False,False,False,False,False,False,False,Night,Night,Night,Night
C-3168076,2,2021-09-14 12:02:00.000000000,2021-09-14 14:03:33.000000000,39.667259,-75.77408199999998,39.665785,-75.776259,0.154203218301,Stationary traffic on DE-896 at Suburban Dr due to roadwork.,798.0,Suburban Dr,R,Newark,New Castle,DE,19711,US,US/Eastern,KILG,2021-09-14 11:51:00,81.0,81.0,69.0,29.98,8.0,SSE,8.0,0.0,Fair,False,False,True,False,False,False,False,False,False,False,False,True,False,Day,Day,Day,Day
C-3168077,2,2020-09-21 14:30:30.000000000,2020-09-21 18:04:09.000000000,43.604953,-116.352925,43.604037,-116.354845,0.115036020895,Stationary traffic on ID-55 from S Brooklyn Ave to E Springwood Dr due to roadwork.,3351.0,E Franklin Rd,R,Meridian,Ada,ID,83642-6008,US,US/Mountain,KMAN,2020-09-21 14:35:00,86.0,86.0,17.0,27.29,10.0,SE,10.0,0.0,Fair,False,False,False,False,False,False,False,False,False,False,False,False,False,Day,Day,Day,Day
C-3168078,2,2021-11-06 11:38:00.000000000,2021-11-06 12:15:30.000000000,33.507728,-112.047533,33.509221999999994,-112.047531,0.103225633111,Stationary traffic from E Highland Ave (N 16th St) to E Camelback Rd (N 16th St) due to roadwork.,4834.0,N 16th St,L,Phoenix,Maricopa,AZ,85016-4606,US,US/Mountain,KPHX,2021-11-06 11:51:00,80.0,80.0,20.0,28.84,10.0,ESE,8.0,0.0,Fair,False,False,True,False,False,False,False,False,False,False,False,True,False,Day,Day,Day,Day
C-3168079,4,2018-08-04 01:04:35.000000000,2018-08-04 07:04:35.000000000,25.82432,-80.20647,25.94173,-80.18926,8.18249605514,Closed between I-195/SR-112/Airport Expy and SR-860/Miami Gardens Dr - Closed. Construction work.,,I-95 N,R,Miami,Miami-Dade,FL,33127,US,US/Eastern,KMIA,2018-08-04 00:53:00,80.1,,94.0,30.1,10.0,East,9.2,,Mostly Cloudy,False,False,False,False,False,False,False,False,False,False,False,False,False,Night,Night,Night,Night
C-3168080,2,2021-03-23 05:36:00.000000000,2021-03-23 08:22:00.000000000,37.011289,-120.119329,37.00009,-120.10596,1.06904730348,Slow traffic on CA-99 S from Road 23/Exit 159 (CA-99) to Avenue 17 (CA-99) due to roadwork.,,CA-99 S,R,Madera,Madera,CA,93637,US,US/Pacific,KMAE,2021-03-23 05:53:00,46.0,41.0,86.0,29.69,10.0,WNW,9.0,0.0,Fair,False,False,False,False,True,False,False,False,False,False,False,False,False,Night,Night,Night,Day
C-3168081,4,2021-01-20 05:00:00.000000000,2021-01-20 13:00:00.000000000,33.911887,-84.35685699999998,33.910217,-84.363807,0.414887718451,I-285 W - GA-407 W is closed from Peachtree Dunwoody Rd/Exit 28 (I-285) to GA-400/GA-19/Exit 27 (I-285) due to roadwork.,,GA-407 W,R,Atlanta,Fulton,GA,30342,US,US/Eastern,KPDK,2021-01-20 04:53:00,46.0,41.0,83.0,29.17,10.0,WNW,10.0,0.0,Mostly Cloudy,False,False,False,False,False,False,False,False,False,False,False,False,False,Night,Night,Night,Night
C-3168082,2,2021-03-28 09:02:30.000000000,2021-03-28 20:59:56.000000000,33.493871,-112.26915,33.493272,-112.272448,0.194486369028,Stationary traffic from AZ-101 Loop S to W Thomas Rd due to roadwork.,9742.0,W Indian School Rd,R,Phoenix,Maricopa,AZ,85037,US,US/Mountain,KGEU,2021-03-28 08:58:00,61.0,61.0,34.0,29.08,10.0,CALM,0.0,0.0,Fair,False,False,False,False,False,False,False,False,False,False,False,False,False,Day,Day,Day,Day
C-3168083,3,2020-01-28 07:00:00.000000000,2020-01-28 15:00:00.000000000,40.810268,-76.104462,,,11.2100000381,Intermittent lane closures due to construction on I-81 Northbound between PA-61 Lehigh Ave and PA-54 Vulcan Hill Rd.,,I-81 N,R,Barnesville,Schuylkill,PA,18214,US,US/Eastern,KRDG,2020-01-28 06:54:00,37.0,29.0,70.0,29.47,10.0,NW,12.0,0.0,Mostly Cloudy,False,False,False,False,False,False,False,False,False,False,False,False,False,Night,Day,Day,Day
C-3168084,2,2020-09-09 12:54:30.000000000,2020-09-09 22:59:58.000000000,43.606371,-116.354863,43.604954,-116.35358,0.117071588041,Stationary traffic on ID-55 from E Lanark St to S Brooklyn Ave due to roadwork.,173.0,N Eagle Rd,R,Meridian,Ada,ID,83642,US,US/Mountain,KMAN,2020-09-09 12:55:00,72.0,72.0,13.0,27.56,10.0,SSE,10.0,0.0,Fair,False,False,False,False,False,False,False,False,False,False,False,False,False,Day,Day,Day,Day
C-3168085,2,2021-09-27 11:57:30.000000000,2021-09-27 14:04:31.000000000,33.49420300000001,-112.012985,33.495682,-112.01299,0.102189573621,Stationary traffic from E Thomas Rd (N 32nd St) to E Camelback Rd (N 32nd St) due to roadwork.,3977.0,N 32nd St,R,Phoenix,Maricopa,AZ,85018,US,US/Mountain,KPHX,2021-09-27 11:51:00,79.0,79.0,52.0,28.77,10.0,ENE,5.0,0.0,Mostly Cloudy,True,False,False,False,False,False,False,False,True,False,False,False,False,Day,Day,Day,Day
C-3168086,2,2021-08-01 11:00:00.000000000,2021-08-01 18:58:30.000000000,35.459512,-108.395257,35.48099699999999,-108.436662,2.7626192890200003,Slow traffic on I-40 W - Historic US 66 W from Red Rock to exit [39] due to roadwork.,,Historic US 66 W,R,Continental Divide,McKinley,NM,87312,US,US/Mountain,KGUP,2021-08-01 10:53:00,77.0,77.0,45.0,23.94,10.0,W,3.0,0.0,Cloudy,False,False,False,False,False,False,False,False,False,False,False,False,False,Day,Day,Day,Day
C-3168087,2,2019-11-20 00:00:01.000000000,2019-11-21 00:00:01.000000000,37.23384,-107.86662,37.23384,-107.86662,0.0,At Gateway Dr - Construction work.,1884.0,Highway 3,R,Durango,La Plata,CO,81303,US,US/Mountain,KDRO,2019-11-20 00:53:00,44.0,44.0,40.0,23.3,10.0,CALM,0.0,0.0,Light Rain,False,False,False,False,False,False,False,False,False,False,False,False,False,Night,Night,Night,Night
C-3168088,4,2020-09-09 07:49:37.000000000,2020-09-17 06:59:00.000000000,39.02665800000001,-94.640301,39.026724,-94.639797,0.0274340632021,Closed road from Linden St to Roe Blvd due to roadwork.,4707.0,W 57th St,L,Roeland Park,Johnson,KS,66205-2873,US,US/Central,KNKA,2020-09-09 07:54:00,50.0,50.0,93.0,29.36,7.0,NNE,10.0,0.0,Cloudy,False,False,False,False,False,False,False,False,False,False,False,False,False,Day,Day,Day,Day
C-3168089,2,2021-03-23 12:06:06.000000000,2021-03-23 15:30:00.000000000,37.469311,-122.211807,,,0.340000003576,One lane closed due to utility work on CA-82 El Camino Real Northbound from 5th Ave to Berkshire Ave.,2.0,Berkshire Ave,R,Redwood City,San Mateo,CA,94063-3606,US,US/Pacific,KSQL,2021-03-23 11:51:00,59.0,59.0,31.0,30.09,10.0,NW,15.0,0.0,Fair,False,False,False,False,False,False,False,False,False,True,False,False,False,Day,Day,Day,Day
C-3168090,4,2021-02-25 08:29:14.000000000,2021-03-04 23:59:00.000000000,31.68148,-106.311235,31.680869,-106.312441,0.0825249875612,Closed road from TX-375 Loop S to Alameda Ave due to roadwork.,,S Americas Ave,R,El Paso,El Paso,TX,79907,US,US/Mountain,KELP,2021-02-25 08:46:00,54.0,54.0,16.0,26.15,10.0,CALM,0.0,,Fair,False,False,False,False,False,False,False,False,False,False,False,False,False,Day,Day,Day,Day
C-3168091,2,2021-08-03 16:18:30.000000000,2021-08-03 18:20:01.000000000,33.481071,-111.98706,33.480148,-111.98574,0.0992657894788999,Slow traffic from E Avalon Dr to N 46th St due to roadwork.,2920.0,N 44th St,L,Phoenix,Maricopa,AZ,85018-7204,US,US/Mountain,KPHX,2021-08-03 15:51:00,109.0,109.0,15.0,28.61,10.0,CALM,0.0,0.0,Fair,False,False,False,False,False,False,False,False,False,False,False,False,False,Day,Day,Day,Day
C-3168092,2,2019-03-09 20:40:07.000000000,2019-03-13 21:39:40.000000000,40.334764,-111.914623,40.311893,-111.892055,1.97748153665,At Cascade Dr/Harbor Park - Construction work. Lane blocked.,,Redwood Rd,R,Saratoga Springs,Utah,UT,84045,US,US/Mountain,KPVU,2019-03-09 20:56:00,37.0,31.0,76.0,29.93,10.0,SSE,8.1,,Overcast,False,False,False,False,False,False,False,False,False,False,False,False,False,Night,Night,Night,Night
C-3168093,2,2021-02-10 17:00:00.000000000,2021-02-11 00:00:00.000000000,34.316179,-82.810733,34.321999,-82.804513,0.536366332236,Lane closed from Cokesbury Ln to Smith McGee Hwy due to roadwork.,523.0,Cokesbury Hwy,R,Hartwell,Hart,GA,30643-5788,US,US/Eastern,KAND,2021-02-10 16:56:00,69.0,69.0,40.0,29.26,10.0,E,5.0,0.0,Fair,False,False,False,False,False,False,False,False,False,False,False,False,False,Day,Day,Day,Day
C-3168094,3,2019-07-15 21:00:00.000000000,2019-07-16 06:00:00.000000000,35.103297999999995,-89.87181899999999,,,1.29999995232,Entry ramp to I-240 Westbound from US-72 Poplar Ave Westbound closed due to construction work.,,Poplar Ave,R,Memphis,Shelby,TN,38119,US,US/Central,KOLV,2019-07-15 20:55:00,,,,,,,,0.0,,False,False,False,False,False,False,False,False,False,False,False,False,False,Night,Night,Day,Day
C-3168095,2,2021-04-15 07:00:00.000000000,2021-10-27 11:00:03.000000000,33.495778,-112.073923,33.494795,-112.073064,0.0840399230893,Slow traffic from W Monterosa St to N 2nd St due to roadwork.,4154.0,N Central Ave,L,Phoenix,Maricopa,AZ,85013,US,US/Mountain,KPHX,2021-10-27 08:51:00,61.0,61.0,32.0,28.95,10.0,CALM,0.0,0.0,Fair,True,False,False,False,False,True,True,False,True,False,False,False,False,Day,Day,Day,Day
C-3168096,2,2020-04-23 07:00:00.000000000,2020-04-23 19:00:00.000000000,39.69917,-107.93247,39.69917,-107.93247,0.0,At Railroad Ave - Construction work.,18330.0,Highway 13,R,Rifle,Garfield,CO,81650-8828,US,US/Mountain,KRIL,2020-04-23 06:53:00,39.0,39.0,67.0,24.51,10.0,CALM,0.0,0.0,Mostly Cloudy,False,False,False,False,False,False,False,False,False,False,False,False,False,Day,Day,Day,Day
C-3168097,2,2021-11-29 00:00:00.000000000,2021-11-30 15:00:00.000000000,41.755632,-72.700556,41.762132,-72.704886,0.501500106061,CT DOT-Newington-HWY-Oper Ctr: bridge rehabilitation on I-84 eastbound Exit ramp Exit 46 - Boulevard/Capitol Avenue/Sisson Avenue (Hartford) to Exit 46 - Boulevard/Capitol Avenue/Sisson Avenue (Hartford) Motorists can expect lane closures on the I-84 east,,I-84 E,R,Hartford,Hartford,CT,06106,US,US/Eastern,KHFD,2021-11-29 00:19:00,32.0,32.0,88.0,29.79,9.0,CALM,0.0,0.0,Partly Cloudy,False,False,False,False,False,False,False,False,False,False,False,False,False,Night,Night,Night,Night
C-3168098,2,2021-01-20 04:56:23.000000000,2021-01-21 05:44:59.000000000,44.951836,-93.150548,44.951848,-93.151469,0.0450422042034,Construction on I-94 WB near LEXINGTON PKY Allow extra time.,,I-94 W,R,Saint Paul,Ramsey,MN,55104,US,US/Central,KSTP,2021-01-20 04:53:00,3.0,-12.0,84.0,29.31,10.0,SSE,10.0,0.0,Fair,False,False,False,False,True,False,False,False,False,False,False,False,False,Night,Night,Night,Night
C-3168099,2,2021-12-07 09:00:00.000000000,2021-12-07 15:45:00.000000000,42.402281,-71.08278,42.396434,-71.08501,0.41970637131,Construction on MA-28 SB near MM 126 Expect delays.,,Presidents Lndg,R,Medford,Middlesex,MA,02155,US,US/Eastern,KBOS,2021-12-07 08:54:00,40.0,33.0,45.0,30.04,10.0,W,13.0,0.0,Fair,False,False,True,False,False,False,False,False,False,False,False,True,False,Day,Day,Day,Day
C-3168100,2,2018-05-11 10:03:08.000000000,2018-05-11 16:03:08.000000000,40.86095,-73.92149,40.85881,-73.92296999999998,0.166864901794,At Dyckman St/Harlem River Drwy - Construction work.,522.0,Academy St,R,New York,New York,NY,10034-3734,US,US/Eastern,KLGA,2018-05-11 09:51:00,64.9,,34.0,30.0,10.0,NW,16.1,,Scattered Clouds,False,False,False,False,False,False,False,False,False,False,False,True,False,Day,Day,Day,Day
C-3168101,2,2021-08-25 09:26:30.000000000,2021-08-25 11:33:52.000000000,40.757247,-80.11843499999998,40.756573,-80.116478,0.112513866663,Slow traffic on PA-528 - US-19 S from Jacksons Pointe Dr to I-79 S due to roadwork.,22103.0,Perry Hwy,L,Zelienople,Butler,PA,16063-2801,US,US/Eastern,KBTP,2021-08-25 09:56:00,81.0,81.0,74.0,28.8,10.0,W,3.0,0.0,Fair,False,False,False,False,False,False,False,False,False,False,False,False,False,Day,Day,Day,Day
C-3168102,4,2021-10-10 00:00:00.000000000,2021-10-11 00:44:00.000000000,42.140768,-79.241561,42.123723,-79.240973,1.17808266448,Construction on NY-60 SB near TOWN OF GERRY Road closed. Take alternate route.,3256.0,N Main Street Ext,R,Jamestown,Chautauqua,NY,14701-9647,US,US/Eastern,KJHW,2021-10-10 00:56:00,58.0,58.0,90.0,28.29,10.0,S,8.0,0.0,Cloudy,False,False,False,False,False,False,False,False,False,False,False,False,False,Night,Night,Night,Night
C-3168103,2,2020-09-15 13:27:31.000000000,2020-09-16 16:23:48.000000000,40.264425,-74.858393,40.257363,-74.85573000000002,0.507738021748,Roadwork from Mt Eyre Rd (Taylorsville Rd) to I-95/N Delaware Ave (Taylorsville Rd).,136.0,Taylorsville Rd,R,Washington Crossing,Bucks,PA,18977-1608,US,US/Eastern,KTTN,2020-09-15 13:53:00,63.0,63.0,50.0,30.08,10.0,NE,8.0,0.0,Fair,False,False,False,False,False,False,False,False,False,False,False,True,False,Day,Day,Day,Day
C-3168104,2,2019-07-12 09:00:00.000000000,2019-07-12 17:00:00.000000000,41.069199,-95.927887,,,0.0,Left lane closed due to construction on US-34 Northbound at Allied Rd.,,Highway 75 S,R,Bellevue,Sarpy,NE,68123,US,US/Central,KOFF,2019-07-12 08:56:00,75.0,75.0,69.0,28.91,10.0,SE,5.0,0.0,Fair,False,False,False,False,False,False,False,False,False,False,False,False,False,Day,Day,Day,Day
C-3168105,2,2016-12-26 09:01:39.000000000,2016-12-26 15:01:39.000000000,39.33898,-84.21938,39.338507,-84.219424,0.0327656592025,At US-22 - Construction work.,6532.0,S State Route 48,R,Maineville,Warren,OH,45039-9758,US,US/Eastern,KHAO,2016-12-26 08:53:00,60.1,,90.0,30.21,6.0,Variable,6.9,0.01,Light Rain,False,False,False,False,False,False,False,False,False,False,False,True,False,Day,Day,Day,Day
C-3168106,2,2020-08-21 15:30:00.000000000,2020-08-22 00:15:00.000000000,38.455982,-121.50046299999998,38.456522,-121.500627,0.0383510895935,Construction on CA-160 EB near LAMBERT RD Expect delays.,,Freeport Brg,R,Sacramento,Sacramento,CA,95832,US,US/Pacific,KSAC,2020-08-21 15:50:00,91.0,91.0,29.0,29.77,2.0,S,3.0,0.0,Smoke,False,False,True,False,False,False,True,False,False,False,False,False,False,Day,Day,Day,Day
C-3168107,4,2019-04-27 00:01:44.000000000,2019-04-27 05:00:34.000000000,43.86446,-70.10785,43.86446,-70.10785,0.0,At ME-125/ME-136/Exit 22 - Exit ramp closed. Construction work.,,I-295 N,R,Freeport,Cumberland,ME,04032,US,US/Eastern,KNHZ,2019-04-27 00:00:00,41.0,34.0,93.0,29.56,2.0,E,12.0,0.05,T-Storm,False,False,False,False,True,False,False,False,False,False,False,False,False,Night,Night,Night,Night
C-3168108,2,2020-07-21 22:17:00.000000000,2020-07-31 21:35:31.000000000,33.940709000000005,-81.264932,33.974231,-81.19659399999998,4.550052302569999,Construction on I-20 EB near EXIT 55 Expect delays.,,I-20 E,R,Lexington,Lexington,SC,29073,US,US/Eastern,KCAE,2020-07-21 21:56:00,77.0,77.0,82.0,29.83,10.0,CALM,0.0,0.27,Mostly Cloudy,False,False,False,False,True,False,False,False,False,False,False,False,False,Night,Night,Night,Night
C-3168109,2,2021-03-14 04:40:30.000000000,2021-12-09 12:42:00.000000000,25.942964,-80.261511,25.940338,-80.262775,0.19770650768,Stationary traffic on FL-860 from NW 187th St to NW 38th Ave due to roadwork.,18593.0,NW 37th Ave,R,Miami Gardens,Miami-Dade,FL,33056,US,US/Eastern,KOPF,2021-12-03 16:53:00,76.0,76.0,54.0,30.07,10.0,ENE,8.0,0.0,Partly Cloudy,False,False,False,False,False,False,False,False,False,False,False,False,False,Night,Night,Night,Night
C-3168110,2,2021-11-22 15:25:00.000000000,2021-11-22 20:03:17.000000000,33.490004,-112.168954,33.494867,-112.168886,0.336024144446,Stationary traffic from W Whitton Ave to W Indian School Rd due to roadwork.,3590.0,N 51st Ave,L,Phoenix,Maricopa,AZ,85031-3005,US,US/Mountain,KGEU,2021-11-22 14:58:00,82.0,82.0,13.0,28.87,10.0,E,8.0,0.0,Fair,False,False,True,False,False,False,False,False,False,False,False,True,False,Day,Day,Day,Day
C-3168111,1,2020-06-03 21:34:00.000000000,2020-06-04 02:00:00.000000000,35.457,-78.53778,35.457,-78.53778,0.0,At NC-242 - Roadwork during the night. Right lane closed.,,I-40 E,R,Benson,Johnston,NC,27504,US,US/Eastern,KHRJ,2020-06-03 21:35:00,82.0,82.0,65.0,29.71,10.0,SSW,10.0,0.0,Fair,False,False,False,False,False,False,False,False,False,False,False,False,False,Night,Night,Night,Day
C-3168112,2,2020-09-01 21:04:00.000000000,2020-09-01 22:09:00.000000000,39.725387,-105.024017,39.724995,-105.01602,0.425831089609,Stationary traffic on US-6 E from W 6th Avenue Fwy E to I-25 S due to maintenance work.,,US-6 E,R,Denver,Denver,CO,80204,US,US/Mountain,KBJC,2020-09-01 20:49:00,70.0,70.0,31.0,24.43,10.0,CALM,0.0,0.0,Fair,False,False,False,False,True,False,False,False,False,False,False,False,False,Night,Night,Night,Night
C-3168113,4,2020-11-27 10:54:44.000000000,2020-12-05 07:59:00.000000000,33.424289,-111.962746,33.425724,-111.96268700000002,0.0992074144108,Closed road from W 6th St to S Priest Dr / W 5th St due to roadwork.,1498.0,W 6th St,R,Tempe,Maricopa,AZ,85281-3246,US,US/Mountain,KPHX,2020-11-27 10:51:00,55.0,55.0,28.0,28.94,10.0,VAR,5.0,0.0,Fair,False,False,False,False,False,False,False,False,False,False,False,False,False,Day,Day,Day,Day
C-3168114,2,2021-03-05 06:41:00.000000000,2021-12-31 02:45:00.000000000,35.742589,-78.676489,35.742504,-78.680499,0.2249561624549999,Slow traffic from Cherry Field Dr to Dr Bill Gilbert Way due to roadwork.,2530.0,Tryon Rd,R,Raleigh,Wake,NC,27603-3043,US,US/Eastern,KRDU,2021-03-05 06:51:00,36.0,32.0,62.0,29.68,10.0,VAR,5.0,0.0,Fair,False,False,False,False,False,False,False,False,False,False,False,False,False,Day,Day,Day,Day
C-3168115,2,2020-11-03 12:11:00.000000000,2020-11-04 02:13:39.000000000,39.709836,-86.37895,39.711209,-86.374025,0.278434395592,Stationary traffic on US-40 from IN-267/Avon Ave (E Main St/US-40) to S Raceway Rd (W Washington St/US-40) due to roadwork.,1653.0,E Main St,R,Plainfield,Hendricks,IN,46168-1811,US,US/Eastern,KIND,2020-11-03 11:54:00,58.0,58.0,39.0,29.35,10.0,S,8.0,0.0,Fair,False,False,False,True,False,False,False,False,False,False,False,False,False,Day,Day,Day,Day
C-3168117,2,2020-07-01 15:00:00.000000000,2020-07-17 13:00:00.000000000,33.478852,-112.073876,33.477795,-112.073884,0.0730331997151,CENTRAL AVE - 3RD ST - Construction - FIRE LINELanesRestricted: EB &amp;#61;1 WB &amp;#61;1CENTRAL AVE - 3RD ST Comments: TO: 1ST ST DID NOT POPULATE,2802.0,N Central Ave,L,Phoenix,Maricopa,AZ,85004-1119,US,US/Mountain,KPHX,2020-07-01 00:51:00,86.0,86.0,13.0,28.6,10.0,S,7.0,0.0,Fair,False,False,False,False,False,False,False,False,False,True,False,False,False,Day,Day,Day,Day
C-3168118,4,2021-10-25 21:17:44.000000000,2021-10-28 23:59:00.000000000,29.37858,-98.451309,29.377144,-98.453433,0.161858350715,Closed road from Goliad Rd to Offer St due to roadwork.,800.0,Goliad Rd,L,San Antonio,Bexar,TX,78223,US,US/Central,KSSF,2021-10-25 20:53:00,81.0,81.0,79.0,29.29,10.0,E,5.0,0.0,Fair,False,False,False,False,False,False,False,False,False,False,False,False,False,Night,Night,Night,Night
C-3168119,2,2020-07-16 16:00:00.000000000,2020-07-16 22:45:00.000000000,38.682625,-77.760003,38.698604,-77.77550600000002,1.38489303842,Construction on MEETZE RD NB near GREEN RD Construction. Shoulder closed.,8401.0,Green Rd,R,Warrenton,Fauquier,VA,20187-8825,US,US/Eastern,KHWY,2020-07-16 15:55:00,93.0,93.0,33.0,29.78,10.0,SSE,8.0,0.0,Partly Cloudy,False,False,False,False,False,False,False,False,False,False,False,False,False,Day,Day,Day,Day
C-3168120,2,2021-06-11 09:00:00.000000000,2021-06-11 15:45:00.000000000,41.208539,-73.738925,41.208415,-73.739868,0.0497604321665,Construction on NY-133 SB near BEVERLY RD Drive with caution.,1.0,Rutland St,R,Mount Kisco,Westchester,NY,10549-1820,US,US/Eastern,KHPN,2021-06-11 08:56:00,61.0,61.0,67.0,29.56,10.0,E,6.0,0.0,Mostly Cloudy,False,False,False,False,False,False,False,False,False,False,False,False,False,Day,Day,Day,Day
C-3168121,2,2021-11-22 11:59:30.000000000,2021-11-22 12:25:43.000000000,33.312905,-86.900095,33.308498,-86.904249,0.387620146012,Stationary traffic on County Hwy-269 - County Hwy-2 from Lewis Plumbing Rd to Old Gap Rd due to roadwork.,4298.0,S Shades Crest Rd,L,Hoover,Shelby,AL,35244-6714,US,US/Central,KEET,2021-11-22 11:53:00,61.0,61.0,41.0,29.48,10.0,N,6.0,0.0,Fair,False,False,False,False,False,False,False,False,False,True,False,True,False,Day,Day,Day,Day
C-3168122,2,2021-03-17 21:23:30.000000000,2021-03-18 02:36:00.000000000,32.730598,-96.825282,32.717913,-96.828292,0.8937429711339999,Stationary traffic on US-67 S - I-35E N - US-77 S - R L Thornton Fwy S - US-67 N - US-77 N - R L Thornton Fwy N - I-35E S from exit [428B] to W Kiest Blvd due to roadwork.,,I-35E N,R,Dallas,Dallas,TX,75224,US,US/Central,KRBD,2021-03-17 21:53:00,49.0,42.0,59.0,29.23,10.0,WNW,23.0,0.0,Cloudy / Windy,False,False,False,False,False,False,False,False,False,False,False,False,False,Night,Night,Night,Night
C-3168123,2,2021-08-23 16:38:00.000000000,2021-08-23 17:09:34.000000000,30.277166,-91.916672,30.280449,-91.913088,0.311745332064,Slow traffic on LA-31 - LA-94 from Mills Hwy / Cannery Rd to Main Hwy / Bayou Ln due to roadwork.,999.0,Cannery Rd,R,Breaux Bridge,St. Martin,LA,70517,US,US/Central,KLFT,2021-08-23 16:53:00,95.0,95.0,49.0,29.9,10.0,VAR,3.0,0.0,Partly Cloudy,False,False,False,False,False,False,False,False,False,False,False,False,False,Day,Day,Day,Day
C-3168124,2,2020-09-21 18:00:00.000000000,2020-09-21 22:45:00.000000000,40.819025,-73.29849,40.809609,-73.379323,4.27670061747,Construction on NORTHERN STATE PKWY near COMMACK RD Expect delays.,,Northern State Pkwy W,R,Huntington Station,Suffolk,NY,11746,US,US/Eastern,KFRG,2020-09-21 17:53:00,62.0,62.0,38.0,30.35,10.0,NNE,7.0,0.0,Fair,False,False,False,False,True,False,False,False,False,False,False,False,False,Day,Day,Day,Day
C-3168125,2,2016-09-07 07:01:03.000000000,2016-09-07 13:01:03.000000000,38.99917,-76.555655,38.99109,-76.54955,0.647415118729,At Housley Rd - Construction work.,1900.0,Generals Hwy,R,Annapolis,Anne Arundel,MD,21401-6719,US,US/Eastern,KNAK,2016-09-07 06:54:00,73.9,,76.0,30.03,10.0,NW,4.6,,Scattered Clouds,False,False,False,False,False,False,False,False,False,False,False,True,False,Day,Day,Day,Day
C-3168126,2,2021-12-21 20:03:30.000000000,2021-12-21 22:09:51.000000000,40.753714,-73.981442,40.755813,-73.986411,0.297776041274,Slow traffic from Park Ave (E 42nd St) to 7th Ave (W 42nd St) due to roadwork.,2.0,W 42nd St,L,New York,New York,NY,10018,US,US/Eastern,KNYC,2021-12-21 19:51:00,41.0,37.0,51.0,29.85,10.0,VAR,6.0,0.0,Cloudy,True,False,True,False,False,False,True,False,True,False,False,True,False,Night,Night,Night,Night
C-3168127,2,2021-05-20 07:37:00.000000000,2021-05-20 16:45:00.000000000,43.379763,-71.608682,43.346513,-71.614662,2.3169113674400004,Construction on I-93 SB near MP 49 Left lane closed. Expect delays.,,I-93 S,R,Tilton,Merrimack,NH,03276,US,US/Eastern,KLCI,2021-05-20 07:56:00,57.0,57.0,74.0,29.9,10.0,CALM,0.0,0.0,Fair,False,False,False,False,False,False,False,False,False,False,False,False,False,Day,Day,Day,Day
C-3168128,2,2020-09-26 13:03:30.000000000,2020-09-27 05:55:04.000000000,43.634773,-116.354411,43.632425,-116.354506,0.162300893265,Stationary traffic on ID-55 from W McMillan Rd (ID-55) to E Fairview Ave (ID-55) due to roadwork.,3277.0,N Eagle Rd,L,Meridian,Ada,ID,83646-7790,US,US/Mountain,KMAN,2020-09-26 12:55:00,64.0,64.0,52.0,27.48,10.0,NW,10.0,0.0,Cloudy,False,False,False,False,False,False,False,False,False,False,False,False,False,Day,Day,Day,Day
C-3168129,2,2018-07-16 07:00:43.000000000,2018-07-20 07:00:32.000000000,40.63814,-74.02116,40.63552,-74.01668000000002,0.296555627004,Between 4th Ave and 6th Ave - Construction work.,,4th Ave,R,Brooklyn,Kings,NY,11220,US,US/Eastern,KJRB,2018-07-16 06:56:00,75.0,,87.0,30.0,10.0,North,,,Clear,False,False,False,False,False,False,False,False,False,False,False,True,False,Day,Day,Day,Day
C-3168130,2,2021-05-07 05:46:30.000000000,2021-05-07 10:37:25.000000000,41.865795,-87.62409,41.86812800000001,-87.624045,0.161211576315,Slow traffic from 22nd St/E Cermak Rd (Michigan Ave) to Balbo Dr (Michigan Ave) due to roadwork.,1300.0,S Michigan Ave,R,Chicago,Cook,IL,60605-2602,US,US/Central,KMDW,2021-05-07 05:53:00,43.0,38.0,68.0,29.32,10.0,WSW,8.0,0.0,Partly Cloudy,False,False,True,False,False,False,False,False,True,False,False,True,False,Day,Day,Day,Day
C-3168131,2,2018-11-15 20:00:00.000000000,2018-11-17 05:00:00.000000000,39.067182,-104.856601,39.084678,-104.860769,1.22935726921,At CO-105/Exit 161 - Construction work.,,US-87 N,R,Monument,El Paso,CO,80132,US,US/Mountain,KAFF,2018-11-15 19:58:00,28.6,21.5,72.0,30.24,10.0,NNW,6.9,,Clear,False,False,False,False,False,False,False,False,False,False,False,False,False,Night,Night,Night,Night
C-3168132,2,2021-04-15 09:30:30.000000000,2021-12-21 18:40:29.000000000,39.659566,-104.850881,39.659718,-104.847395,0.1857228163399999,Slow traffic on CO-83 at E Dartmouth Ave due to roadwork.,3245.0,S Parker Rd,R,Denver,Denver,CO,80014-3206,US,US/Mountain,KBKF,2021-06-18 16:58:00,86.0,86.0,24.0,24.42,10.0,SSE,7.0,0.0,Mostly Cloudy,False,False,True,False,False,False,False,False,False,False,False,False,False,Day,Day,Day,Day
C-3168133,2,2020-10-28 22:35:12.000000000,2020-11-01 07:57:57.000000000,39.740992,-105.516225,39.741532,-105.522935,0.358440362849,Roadwork on I-70/Exit 241 (I-70) from CO-103/Exit 240 (I-70) to I-70.,,I-70 W,R,Idaho Springs,Clear Creek,CO,80452,US,US/Mountain,K0CO,2020-10-28 22:53:00,26.0,17.0,78.0,20.88,10.0,ENE,9.0,0.0,Fair,False,False,False,False,True,False,False,False,False,False,False,False,False,Night,Night,Night,Night
C-3168134,2,2021-12-18 12:59:07.000000000,2021-12-18 15:18:19.000000000,26.166371,-80.15219599999998,26.165322,-80.154652,0.168669968275,Stationary traffic on FL-816 - FL-845 from NW 6th Ave to NW 30th Ct due to roadwork.,667.0,W Oakland Park Blvd,L,Wilton Manors,Broward,FL,33311-1727,US,US/Eastern,KFXE,2021-12-18 12:53:00,81.0,81.0,74.0,30.07,10.0,SE,13.0,0.0,Mostly Cloudy,False,False,False,False,False,False,False,False,False,False,False,False,False,Day,Day,Day,Day
C-3168135,2,2021-05-22 06:19:30.000000000,2021-05-22 16:19:00.000000000,41.693573,-87.700902,41.691557,-87.701246,0.140418498162,Slow traffic from W 109th St to S Sawyer Ave due to roadwork.,10955.0,S Kedzie Ave,L,Chicago,Cook,IL,60655-2219,US,US/Central,KMDW,2021-05-22 05:53:00,70.0,70.0,61.0,29.68,10.0,SW,7.0,0.0,Mostly Cloudy,False,False,True,False,False,False,False,False,True,False,False,True,False,Day,Day,Day,Day
C-3168136,2,2021-10-12 14:39:30.000000000,2021-10-12 15:20:00.000000000,35.050878999999995,-106.697933,35.05035,-106.70771,0.554222845943,Stationary traffic on NM-45 from Los Faisanes Rd SW to Huseman Pl SW due to roadwork.,2435.0,Arenal Rd SW,R,Albuquerque,Bernalillo,NM,87105,US,US/Mountain,KABQ,2021-10-12 14:52:00,53.0,53.0,37.0,24.44,10.0,W,20.0,0.0,Mostly Cloudy,False,False,False,False,False,False,False,False,False,False,False,False,False,Day,Day,Day,Day
C-3168137,4,2020-04-17 04:24:07.000000000,2020-04-17 09:24:06.000000000,29.71794,-95.46009,29.73533,-95.4592,1.20272064476,Closed at US-59/Exit 8 - Closed due to roadwork.,,I-610 N,R,Bellaire,Harris,TX,77401,US,US/Central,KMCJ,2020-04-17 04:53:00,68.0,68.0,81.0,29.94,10.0,SE,8.0,0.0,Mostly Cloudy,False,False,False,False,False,False,False,False,False,False,False,False,False,Night,Night,Night,Night
C-3168138,2,2020-09-01 13:10:30.000000000,2020-09-02 03:07:48.000000000,40.234759,-79.581476,40.241531,-79.57674499999997,0.53027932146,Stationary traffic on US-119 from Burton Ave (US-119) to Fairview St (US-119) due to roadwork.,298.0,S 3rd St,L,Youngwood,Westmoreland,PA,15697-1627,US,US/Eastern,KLBE,2020-09-01 12:47:00,77.0,77.0,74.0,28.77,10.0,S,5.0,0.0,Cloudy,False,False,False,False,False,False,False,False,False,False,False,False,False,Day,Day,Day,Day
C-3168139,4,2020-09-30 09:35:16.000000000,2020-10-08 06:59:00.000000000,40.608792,-79.968554,40.610381,-79.971102,0.172962990751,Closed road from Gibson Rd / W Hardies Rd to Lakemont Rd due to roadwork.,2596.0,Oakhill Rd,R,Gibsonia,Allegheny,PA,15044,US,US/Eastern,KBTP,2020-09-30 09:36:00,52.0,52.0,88.0,28.43,10.0,SW,9.0,0.0,Mostly Cloudy,False,False,True,False,False,False,True,False,False,False,False,False,False,Day,Day,Day,Day
C-3168140,2,2021-03-15 06:33:30.000000000,2021-11-18 12:40:00.000000000,37.246139,-78.444185,37.234829,-78.459439,1.14659007088,On VA-133 (Kingsville Rd) in the County of Prince Edward from College Rd; Kingsville Rd; Rt. 692S (Prince Edward County); Rt. 692N (Prince Edward County) to County Shop Rd; Etherton Dr; Farmville Rd; Old Dairy Ln; Stokes Rd; Town &amp; Country Trl; US-15N/S motorists can expect potential delays in this area from 09/17/21 at 8:00 AM until 09/17/21 at 5:00 PM due to paving operations. The east through lanes are alternating closures. The west through lanes are alternating closures.,,Kingsville Rd,R,Farmville,Prince Edward,VA,23901,US,US/Eastern,KFVX,2021-09-17 07:55:00,70.0,70.0,96.0,29.73,5.0,NNE,5.0,0.0,Cloudy,False,False,False,False,False,False,False,False,False,False,False,False,False,Night,Night,Day,Day
C-3168141,2,2019-10-25 21:04:02.000000000,2019-10-29 21:03:18.000000000,34.041540000000005,-84.47708,34.03698,-84.46695,0.660040438675,At Gordy Pkwy NE - Construction work.,3759.0,Steinhauer Rd NE,L,Marietta,Cobb,GA,30066,US,US/Eastern,KRYY,2019-10-25 20:50:00,64.0,64.0,90.0,28.99,10.0,E,7.0,0.01,Cloudy,False,False,True,False,False,False,False,False,False,False,False,True,False,Night,Night,Night,Night
C-3168142,2,2020-08-17 09:00:00.000000000,2020-08-21 15:00:00.000000000,42.457291,-71.023865,,,6.840000152590001,Intermittent lane closures due to construction work on US-1 Broadway Northbound from MA-16 Revere Beach Pkwy to Essex St.,,Essex St,R,Saugus,Essex,MA,01906,US,US/Eastern,KBOS,2020-08-17 08:54:00,66.0,66.0,81.0,29.89,10.0,N,9.0,0.0,Mostly Cloudy,False,False,False,False,True,False,False,False,False,False,False,False,False,Day,Day,Day,Day
C-3168143,4,2017-09-08 00:26:26.000000000,2017-09-08 07:18:10.000000000,40.499182,-76.18804899999998,40.500263,-76.18175699999998,0.338909702798,At PA-183/Exit 19 - Roadwork.,,I-78 W,R,Bethel,Berks,PA,19507,US,US/Eastern,KMUI,2017-09-08 00:58:00,51.4,,99.0,30.07,10.0,Calm,,,Clear,False,False,False,True,True,False,False,False,False,False,False,False,False,Night,Night,Night,Night
C-3168144,4,2020-05-29 12:45:31.000000000,2020-05-29 17:20:53.000000000,40.60861,-74.03819,40.61622,-74.02611,0.8233616338549999,Closed between I-278/Verrazano-Narrows Brg and I-278/92nd St - Closed due to roadwork.,,I-278 E,R,Brooklyn,Kings,NY,11209,US,US/Eastern,KJRB,2020-05-29 12:51:00,78.0,,71.0,29.89,10.0,,,0.0,Mostly Cloudy,False,False,False,False,False,False,False,False,False,False,False,False,False,Day,Day,Day,Day
C-3168145,2,2021-04-09 05:40:00.000000000,2021-04-09 16:16:11.000000000,33.460333,-112.151799,33.462504,-112.151784,0.150004305714,Slow traffic from W Van Buren St (N 43rd Ave) to I-10/Papago Fwy (N 43rd Ave) due to roadwork.,1069.0,N 43rd Ave,R,Phoenix,Maricopa,AZ,85009,US,US/Mountain,KPHX,2021-04-09 05:51:00,68.0,68.0,25.0,28.59,10.0,E,5.0,0.0,Fair,False,False,True,False,False,False,False,False,False,False,False,True,False,Night,Day,Day,Day
C-3168146,2,2020-10-04 04:00:00.000000000,2020-12-31 23:59:00.000000000,28.52327,-82.250816,,,0.0,Single alternate line traffic due to construction work on US-98 Cortez Blvd Eastbound from Lockhart Rd to Remington Rd.,29443.0,Cortez Blvd,L,Brooksville,Hernando,FL,34602-7416,US,US/Eastern,KBKV,2020-10-04 03:53:00,70.0,70.0,93.0,29.91,10.0,NE,7.0,0.02,Cloudy,False,False,False,False,False,False,False,False,False,False,False,False,False,Night,Night,Night,Night
C-3168148,2,2021-12-11 23:42:30.000000000,2021-12-12 02:00:13.000000000,43.390706,-99.330943,43.382786,-99.290213,2.1170995443400003,Roadwork on SD-47 (SD-44) from CR-36 (SD-44) to SD-44.,,SD-44,R,Burke,Gregory,SD,57523,US,US/Central,KICR,2021-12-11 23:53:00,30.0,20.0,61.0,27.65,10.0,SSW,14.0,0.0,Fair,False,False,False,False,False,False,False,False,False,False,False,False,False,Night,Night,Night,Night
C-3168149,2,2021-10-06 16:16:30.000000000,2021-10-06 16:51:00.000000000,41.201411,-79.974686,41.202077,-79.962824,0.618366941566,Slow traffic on I-80 E from PA-173/Exit 24 (I-80) to PA-308/Exit 35 (I-80) due to roadwork.,,I-80 E,R,Grove City,Venango,PA,16127,US,US/Eastern,KUCP,2021-10-06 15:56:00,78.0,78.0,64.0,29.1,9.0,E,3.0,0.0,Cloudy,False,False,False,False,False,False,False,False,False,False,False,False,False,Day,Day,Day,Day
C-3168150,2,2021-02-01 13:25:30.000000000,2021-02-02 03:59:47.000000000,25.732445,-80.366163,25.732392,-80.368916,0.171390055777,Slow traffic on FL-976 from SW 97th Ave (SW 40th St/Bird Rd/FL-976) to FL-821/117th Ave/Florida's Tpke (Bird Dr/SW 40th St/FL-976) due to roadwork.,10579.0,SW 40th St,R,Miami,Miami-Dade,FL,33165-3747,US,US/Eastern,KMIA,2021-02-01 13:53:00,74.0,74.0,45.0,29.81,10.0,W,16.0,0.0,Fair,False,False,False,False,False,False,False,False,False,False,False,False,False,Day,Day,Day,Day
C-3168151,2,2021-08-06 13:33:24.000000000,2021-08-06 18:30:14.000000000,43.74841,-116.713875,43.7357,-116.709203,0.908616477106,Slow traffic on I-84 E - Vietnam Veterans Memorial Hwy - US-30 E from Oasis Rd/Exit 17 (I-84) to ID-44/Exit 25 (I-84) due to roadwork.,,I-84 E,R,Caldwell,Canyon,ID,83607,US,US/Mountain,KEUL,2021-08-06 13:56:00,78.0,78.0,39.0,27.5,10.0,WSW,14.0,0.0,,False,False,False,False,False,False,False,False,False,False,False,False,False,Day,Day,Day,Day
C-3168152,2,2021-12-06 15:36:26.000000000,2021-12-06 16:08:54.000000000,28.803038,-81.888396,28.804074,-81.88755400000002,0.0878786217538,Slow traffic on FL-25 - US-27 N - FL-44 from Lynch Ave to Buena Vista Ave due to roadwork.,1408.0,South St,R,Leesburg,Lake,FL,34748-6628,US,US/Eastern,KLEE,2021-12-06 15:53:00,81.0,81.0,52.0,29.95,10.0,SW,6.0,0.0,Fair,False,False,False,False,False,False,False,False,False,False,False,False,False,Day,Day,Day,Day
C-3168153,2,2019-05-06 07:00:00.000000000,2019-05-10 17:01:00.000000000,39.553719,-105.022629,,,0.0,Intermittent lane closures due to paving repairs and maintenance work on Stonecrest Pt both ways at Stonecrest Way.,8970.0,Stonecrest Way,L,Littleton,Douglas,CO,80129,US,US/Mountain,KAPA,2019-05-06 06:53:00,48.0,48.0,77.0,24.14,10.0,CALM,0.0,0.0,Fair,False,False,False,False,False,False,False,False,False,False,False,False,False,Day,Day,Day,Day
C-3168154,2,2020-11-19 12:48:30.000000000,2020-11-19 22:03:02.000000000,40.73455300000001,-73.99889,40.736668,-73.997334,0.167304942393,Slow traffic from Bleecker St/Downing St/Minetta St (6th Ave) to W 13th St (6th Ave) due to roadwork.,432.0,Avenue of the Americas,R,New York,New York,NY,10011-8425,US,US/Eastern,KNYC,2020-11-19 12:51:00,45.0,43.0,40.0,30.41,10.0,WSW,5.0,0.0,Fair,True,False,True,False,False,False,True,False,True,False,False,True,False,Day,Day,Day,Day
C-3168155,2,2020-11-26 04:45:57.000000000,2020-11-26 18:00:00.000000000,39.408451,-77.128777,,,0.0,Intermittent lane closures due to construction on MD-27 both ways at Gillis Falls Rd.,6015.0,Ridge Rd,L,Mount Airy,Carroll,MD,21771,US,US/Eastern,KFDK,2020-11-26 04:35:00,54.0,54.0,94.0,29.64,10.0,S,9.0,0.0,Cloudy,False,False,False,False,False,False,False,False,False,False,False,False,False,Night,Night,Night,Night
C-3168156,2,2021-08-23 19:05:30.000000000,2021-08-23 19:27:32.000000000,40.7156,-73.960174,40.71731,-73.95831700000002,0.153025589332,Slow traffic from Metropolitan Ave to N 6th St due to roadwork.,249.0,Bedford Ave,L,Brooklyn,Kings,NY,11211,US,US/Eastern,KJRB,2021-08-23 18:51:00,81.0,81.0,65.0,29.68,10.0,NNW,8.0,0.0,Mostly Cloudy,True,False,False,False,False,False,False,False,False,True,False,True,False,Day,Day,Day,Day
C-3168157,3,2020-11-13 00:00:00.000000000,2020-11-13 06:00:00.000000000,33.930119,-118.366829,,,0.0,Lane blocked due to construction on I-105 Eastbound at I-405.,,Glenn Anderson Fwy E,R,Los Angeles,Los Angeles,CA,90045,US,US/Pacific,KLAX,2020-11-13 00:53:00,51.0,51.0,92.0,29.93,10.0,E,6.0,0.0,Fair,False,False,False,False,False,False,False,False,False,False,False,False,False,Night,Night,Night,Night
C-3168158,2,2020-08-04 14:00:00.000000000,2020-08-05 00:45:00.000000000,42.442672,-75.597029,42.442134,-75.597522,0.0448736857732,Roadwork roadwork on NY 12 both directions south of State Street; NY 220 (Oxford) alternate lanes blocked for bridge scour repairs 8/4-8/12 7am-5pm (Over Mill Brook) This work is weather dependent with flag personnel - IR# 40624,8.0,N Canal St,R,Oxford,Chenango,NY,13830-4231,US,US/Eastern,KBGM,2020-08-04 13:59:00,64.0,64.0,96.0,28.07,3.0,E,12.0,0.03,Rain,True,False,False,False,False,False,False,False,False,False,False,False,False,Day,Day,Day,Day
