ID,Severity,Start_Time,End_Time,Start_Lat,Start_Lng,End_Lat,End_Lng,Distance(mi),Description,Number,Street,Side,City,County,State,Zipcode,Country,Timezone,Airport_Code,Weather_Timestamp,Temperature(F),Wind_Chill(F),Humidity(%),Pressure(in),Visibility(mi),Wind_Direction,Wind_Speed(mph),Precipitation(in),Weather_Condition,Amenity,Bump,Crossing,Give_Way,Junction,No_Exit,Railway,Roundabout,Station,Stop,Traffic_Calming,Traffic_Signal,Turning_Loop,Sunrise_Sunset,Civil_Twilight,Nautical_Twilight,Astronomical_Twilight
C-3322928,2,2020-12-15 08:26:27.000000000,2020-12-15 17:11:27.000000000,44.067631,-121.302505,44.064961,-121.302505,0.184479430196,Road maintenance operations are occurring causing no to minimum delays. Use caution.,253.0,NE Revere Ave,R,Bend,Deschutes,OR,97701-4037,US,US/Pacific,KBDN,2020-12-15 08:35:00,37.0,29.0,81.0,26.52,10.0,SSW,15.0,0.0,Mostly Cloudy,False,False,True,False,False,False,False,False,False,False,False,True,False,Day,Day,Day,Day
C-3322929,2,2018-02-20 23:01:00.000000000,2018-02-21 05:01:00.000000000,40.752119,-73.943949,40.752109,-73.943928,0.00129828701651,At 59th St bridge - Construction work.,,Ed Koch Queensboro Brg,R,Long Island City,Queens,NY,11101,US,US/Eastern,KNYC,2018-02-20 22:51:00,64.0,,78.0,30.32,10.0,Variable,5.8,,Clear,False,False,False,False,False,False,False,False,False,False,False,True,False,Night,Night,Night,Night
C-3322930,2,2020-12-17 19:00:00.000000000,2020-12-18 00:45:00.000000000,33.391649,-85.868845,33.39414,-85.86914,0.172950984661,Construction on AL-281 NB near MM 470 Allow extra time.,,Adams Gap Rd,R,Lineville,Clay,AL,36266,US,US/Central,KANB,2020-12-17 18:53:00,32.0,32.0,79.0,29.62,10.0,CALM,0.0,0.0,Fair,False,False,False,False,False,False,False,False,False,False,False,False,False,Night,Night,Night,Night
C-3322931,2,2020-09-22 13:02:00.000000000,2020-09-22 18:16:49.000000000,40.60967700000001,-73.96521899999998,40.61010200000001,-73.96137900000002,0.203548366284,Slow traffic from Ocean Pkwy (Avenue P) to Kings Hwy (Avenue P) due to roadwork.,798.0,Avenue P,R,Brooklyn,Kings,NY,11223-2222,US,US/Eastern,KJRB,2020-09-22 12:51:00,67.0,67.0,31.0,29.96,10.0,N,7.0,0.0,Fair,False,False,True,False,False,False,False,False,False,False,False,True,False,Day,Day,Day,Day
C-3322932,2,2016-06-24 12:26:56.000000000,2016-06-27 13:01:12.000000000,41.99826,-87.88454,42.002611,-87.88454,0.300625468459,At Touhy Ave - Roadwork.,,Mannheim Rd,R,Des Plaines,Cook,IL,60018,US,US/Central,KORD,2016-06-24 12:51:00,79.0,,47.0,30.09,10.0,ESE,8.1,,Partly Cloudy,False,False,True,False,False,False,False,False,True,False,False,True,False,Day,Day,Day,Day
C-3322933,2,2019-06-03 09:00:00.000000000,2019-06-07 15:00:00.000000000,39.983349,-75.37239100000002,,,0.209999993443,Lane closed due to utility work on PA-3 West Chester Pike both ways from Ann Rd to Latches Ln.,99.0,Latches Ln,L,Broomall,Delaware,PA,19008,US,US/Eastern,KPHL,2019-06-03 08:54:00,65.0,65.0,48.0,29.92,10.0,WNW,8.0,0.0,Partly Cloudy,False,False,True,False,False,False,False,False,False,True,False,False,False,Day,Day,Day,Day
C-3322934,1,2020-03-27 22:00:00.000000000,2020-03-29 00:00:00.000000000,40.7029,-73.994743,,,1.70000004768,Road closed due to construction work on Furman St both ways from Montague St to Old Fulton St.,2.0,Furman St,R,Brooklyn,Kings,NY,11201-1325,US,US/Eastern,KJRB,2020-03-27 21:51:00,59.0,59.0,22.0,29.92,10.0,W,3.0,0.0,Fair,True,False,False,False,False,False,False,False,False,False,False,False,False,Night,Night,Night,Night
C-3322935,2,2021-12-13 10:49:00.000000000,2021-12-13 14:01:16.000000000,25.926033,-80.155923,25.926741,-80.153503,0.158134403142,Slow traffic on FL-826 - US-1 N - FL-5 from W Dixie Hwy to US-1 due to roadwork.,16299.0,W Dixie Hwy,R,North Miami Beach,Miami-Dade,FL,33160-4310,US,US/Eastern,KHWO,2021-12-13 10:53:00,81.0,81.0,60.0,30.26,10.0,ENE,9.0,0.0,Fair,False,False,True,False,False,False,False,False,False,False,False,True,False,Day,Day,Day,Day
C-3322936,2,2021-07-14 05:47:30.000000000,2021-07-19 02:59:35.000000000,34.781202,-83.746494,34.764972,-83.749854,1.1374847978799998,Roadwork on Chattahoochee River Rd (GA-75) from GA-356 (GA-75) to GA-75 - GA-17.,,Highway 75 N,R,Helen,White,GA,30545,US,US/Eastern,KDZJ,2021-07-14 05:55:00,67.0,67.0,100.0,28.51,7.0,CALM,0.0,0.0,Cloudy,False,False,False,False,False,False,False,False,False,False,False,False,False,Night,Night,Day,Day
C-3322937,3,2018-09-25 01:51:25.000000000,2018-09-25 06:00:00.000000000,34.033092,-118.028557,,,0.52999997139,Entry ramp to I-605 Northbound at Exit 12 from CA-60 Eastbound closed due to construction.,,I-605 S,R,Whittier,Los Angeles,CA,90601,US,US/Pacific,KEMT,2018-09-25 07:45:00,64.4,,77.0,29.93,7.0,Calm,,,Overcast,False,False,False,False,False,False,False,False,False,False,False,False,False,Night,Night,Night,Night
C-3322938,2,2018-09-08 07:02:26.000000000,2018-09-12 07:02:00.000000000,40.71419,-73.93165,40.714332,-73.931042,0.0333187882441,Between Metropolitan Ave and Grand Ave - Construction work.,1127.0,Grand St,L,Brooklyn,Kings,NY,11211-1811,US,US/Eastern,KJRB,2018-09-08 06:56:00,72.0,,68.0,30.09,10.0,North,,,Overcast,False,False,True,False,False,False,False,False,False,False,False,False,False,Day,Day,Day,Day
C-3322939,2,2021-12-21 17:03:32.000000000,2021-12-24 21:07:39.000000000,40.663244,-73.995039,40.66447,-73.992529,0.156464164397,Slow traffic from 20th St to Brooklyn due to roadwork.,655.0,4th Ave,L,Brooklyn,Kings,NY,11232-1241,US,US/Eastern,KJRB,2021-12-24 18:51:00,36.0,36.0,82.0,29.9,9.0,ENE,3.0,0.0,Fair,False,False,True,False,False,False,False,False,False,False,False,True,False,Night,Night,Day,Day
C-3322940,2,2020-11-25 14:19:30.000000000,2020-11-25 20:32:51.000000000,39.740037,-105.003541,39.740034,-104.998973,0.242696074507,Stationary traffic on US-40 E - I-70 Bus E - US-287 S from I-25/Auraria Pkwy (Colfax Ave) to Speer Blvd (Colfax Ave) due to roadwork.,1278.0,W Colfax Ave,R,Denver,Denver,CO,80204-2030,US,US/Mountain,KBJC,2020-11-25 13:55:00,41.0,38.0,53.0,24.2,10.0,SSW,5.0,0.0,Fair,False,False,True,False,False,True,False,False,False,False,False,True,False,Day,Day,Day,Day
C-3322941,2,2018-09-17 08:28:23.000000000,2018-09-21 08:28:51.000000000,40.02245,-76.1929,40.03926,-76.19943,1.21175004337,At PA-340/Old Philadelphia Pike - Roadwork. Lane blocked. Traffic problem.,2498.0,Lincoln Hwy E,R,Lancaster,Lancaster,PA,17602-1464,US,US/Eastern,KLNS,2018-09-17 08:53:00,70.0,,100.0,30.11,4.0,East,6.9,,Overcast,False,False,False,False,False,False,False,False,False,False,False,True,False,Day,Day,Day,Day
C-3322943,2,2021-08-19 06:01:00.000000000,2021-08-19 19:46:00.000000000,38.98948,-122.542201,39.00691,-122.489721,3.06456766218,Construction on CA-20 EB near N FORK CACHE CRK Expect long delays.,19999.0,E Highway 20,L,Clearlake Oaks,Lake,CA,95423-9394,US,US/Pacific,KUKI,2021-08-19 05:56:00,56.0,56.0,69.0,29.27,3.0,CALM,0.0,0.0,Haze,False,False,False,False,False,False,False,False,False,False,False,False,False,Night,Day,Day,Day
C-3322944,2,2020-06-11 10:49:47.000000000,2020-06-11 12:00:00.000000000,40.80976,-73.15417,40.81242,-73.12111,1.73860218127,At Ocean Ave/Exit 59 - Roadwork. Right lane closed.,,Long Island Expy E,R,Islandia,Suffolk,NY,11749,US,US/Eastern,KISP,2020-06-11 10:56:00,72.0,72.0,84.0,29.91,10.0,SSW,22.0,0.0,Cloudy / Windy,False,False,False,False,False,False,False,False,False,False,False,False,False,Day,Day,Day,Day
C-3322945,2,2020-07-14 15:03:53.000000000,2020-07-21 14:54:59.000000000,44.56393900000001,-103.760212,44.590119,-103.769543,1.86625010734,Construction on SD-34 near US-85 Construction. Drive with caution.,11561.0,State Highway 34,L,Saint Onge,Lawrence,SD,57779-7918,US,US/Central,KSPF,,,,,,,,,,,False,False,False,False,False,False,False,False,False,False,False,False,False,Day,Day,Day,Day
C-3322946,2,2020-03-06 00:01:00.000000000,2020-03-06 04:00:00.000000000,39.81397,-74.22933,39.81397,-74.22933,0.0,At CR-614/Exit 74 - Roadwork. Left lane blocked.,,Garden State Pkwy N,R,Forked River,Ocean,NJ,08731,US,US/Eastern,KMJX,2020-03-06 00:56:00,29.0,29.0,,29.98,10.0,CALM,0.0,0.0,Fair,False,False,False,False,False,False,False,False,False,False,False,False,False,Night,Night,Night,Night
C-3322947,2,2021-12-27 15:48:00.000000000,2021-12-27 17:49:34.000000000,33.449813,-112.35732,33.450707,-112.358127,0.077329469957,Stationary traffic from N 137th Ave / N La Jolla Blvd to N 135th Ln / W Auto Dr due to roadwork.,13869.0,W Van Buren St,L,Goodyear,Maricopa,AZ,85338-1261,US,US/Mountain,KGYR,2021-12-27 15:47:00,57.0,57.0,63.0,28.83,10.0,WSW,10.0,,Mostly Cloudy,False,False,False,False,False,False,False,False,True,False,False,False,False,Day,Day,Day,Day
C-3322948,2,2021-08-24 16:31:18.000000000,2021-08-24 18:48:38.000000000,31.962279,-81.33288,31.963497,-81.32539399999997,0.446812988965,Slow traffic on GA-144 from Fort Stewart Road 58 to I-95 N due to roadwork.,4470.0,GA Highway 144 E,L,Fort Stewart,Bryan,GA,31314,US,US/Eastern,KLHW,2021-08-24 16:56:00,85.0,85.0,78.0,29.92,10.0,SSW,8.0,0.0,Fair,False,False,False,False,False,False,False,False,False,False,False,False,False,Day,Day,Day,Day
C-3322949,2,2021-02-23 13:09:35.000000000,2021-02-23 17:04:22.000000000,41.856204,-72.66377800000002,41.84908400000001,-72.665018,0.496067142676,Road Work on I-91 Southbound between Exits 37 and 35A (2.6 miles) in effect today until 4:09 pm. The right lane is closed. Reported Tuesday February 23 at 1:09 pm.,,I-91 S,R,Windsor,Hartford,CT,06095,US,US/Eastern,KBDL,2021-02-23 12:51:00,40.0,32.0,58.0,29.38,10.0,W,15.0,0.0,Cloudy,False,False,False,False,False,False,False,False,False,False,False,False,False,Day,Day,Day,Day
C-3322950,2,2020-06-10 20:19:50.000000000,2020-06-11 06:00:00.000000000,30.41582,-90.04488,30.430740000000004,-90.09101,2.93538652801,At US-190/Exit 63 - Construction work.,,I-12 W,R,Mandeville,St. Tammany,LA,70471,US,US/Central,KASD,2020-06-10 20:20:00,81.0,81.0,77.0,29.95,10.0,CALM,0.0,0.0,Fair,False,False,False,False,False,False,False,False,False,False,False,False,False,Night,Day,Day,Day
C-3322951,2,2018-11-30 09:00:00.000000000,2018-11-30 15:00:00.000000000,38.006477,-84.48568,,,0.980000019073,Intermittent lane closures due to electricity work on Alumni Dr Westbound from Lakeside Dr to Chinoe Rd.,899.0,Chinoe Rd,R,Lexington,Fayette,KY,40502-2863,US,US/Eastern,KLEX,2018-11-30 08:54:00,51.1,,92.0,29.96,0.5,NNW,4.6,,Fog,False,False,False,False,False,False,False,False,False,False,False,True,False,Day,Day,Day,Day
C-3322952,2,2021-11-29 16:27:36.000000000,2021-11-29 18:59:06.000000000,25.580937,-80.394423,25.580382,-80.396992,0.164630335347,Stationary traffic on FL-994 from Quail Roost Dr to SW 203rd St due to roadwork.,12528.0,SW 200th St,L,Miami,Miami-Dade,FL,33177,US,US/Eastern,KTMB,2021-11-29 16:53:00,72.0,72.0,46.0,30.0,10.0,N,10.0,0.0,Fair,False,False,False,False,False,False,False,False,False,False,False,False,False,Day,Day,Day,Day
C-3322953,2,2021-08-30 15:40:30.000000000,2021-08-30 16:12:30.000000000,41.344499,-75.333798,41.341712,-75.318329,0.825206726892,Slow traffic on I-84 E from PA-191/Exit 17 (I-84) to PA-507/Exit 20 (I-84) due to roadwork.,,I-84 E,R,Greentown,Pike,PA,18426,US,US/Eastern,KMPO,2021-08-30 15:53:00,79.0,79.0,69.0,27.88,10.0,W,12.0,0.0,Fair,False,False,False,False,True,False,False,False,False,False,False,False,False,Day,Day,Day,Day
C-3322954,2,2020-06-11 09:50:24.000000000,2020-06-11 16:00:00.000000000,41.245689,-73.085716,,,0.0,Right lane closed due to construction on Milford Pkwy Southbound at CT-15 Exit 54.,137.0,Juniper Dr,R,Milford,New Haven,CT,06461-9148,US,US/Eastern,KBDR,2020-06-11 09:52:00,71.0,71.0,81.0,29.97,10.0,SSW,12.0,0.0,Cloudy,False,False,False,False,False,False,False,False,False,False,False,False,False,Day,Day,Day,Day
C-3322955,2,2021-06-17 15:27:30.000000000,2021-06-17 15:48:30.000000000,44.740055,-122.155693,44.728055,-122.138429,1.1855235672600002,Slow traffic on OR-22 from Gates Hill Rd (OR-22) to Blowout Rd (OR-22) due to roadwork.,,N Santiam Hwy,R,Detroit,Marion,OR,97342,US,US/Pacific,KSLE,2021-06-17 15:56:00,84.0,84.0,25.0,29.84,10.0,N,13.0,0.0,Fair,False,False,False,False,False,False,False,False,False,False,False,False,False,Day,Day,Day,Day
C-3322956,2,2021-10-27 13:08:00.000000000,2021-10-27 15:08:50.000000000,33.50786,-112.047535,33.509223,-112.04808,0.0992704185424,Slow traffic from E Pierson St to N 15th St due to roadwork.,4821.0,N 16th St,R,Phoenix,Maricopa,AZ,85016-4605,US,US/Mountain,KPHX,2021-10-27 12:51:00,72.0,72.0,18.0,28.94,10.0,CALM,0.0,0.0,Fair,True,False,False,False,False,False,False,False,False,False,False,False,False,Day,Day,Day,Day
C-3322957,2,2021-04-07 20:04:33.000000000,2021-04-20 01:44:00.000000000,39.236968,-76.46826300000002,39.237397,-76.466666,0.0904580235167999,Construction on I-695 NB near MP 47 Allow extra time.,,I-695 N,R,Sparrows Point,Baltimore County,MD,21219,US,US/Eastern,KDMH,,,,,,,,,,,False,False,False,False,True,False,False,False,False,False,False,False,False,Night,Night,Day,Day
C-3322958,2,2021-05-10 05:50:30.000000000,2021-05-10 17:09:16.000000000,30.142428,-82.03626700000002,30.15334600000001,-82.032234,0.7919116566959999,Stationary traffic on US-301 N - FL-200 from FL-200/CR-225/Lake St (US-301) to Max Middleburg Rd (US-301) due to roadwork.,,FL-200,R,Jacksonville,Clay,FL,32234,US,US/Eastern,KVQQ,2021-05-10 05:55:00,,,,29.94,10.0,CALM,0.0,0.0,Fair,False,False,False,False,False,False,False,False,False,False,False,False,False,Night,Night,Day,Day
C-3322959,2,2021-11-23 08:59:30.000000000,2021-11-23 11:27:56.000000000,25.840949,-80.304834,25.841275,-80.306562,0.109790217654,Stationary traffic on FL-25 - US-27 N from Hialeah Expy to NW South River Dr due to roadwork.,2133.0,W Okeechobee Rd,R,Hialeah,Miami-Dade,FL,33010-1931,US,US/Eastern,KMIA,2021-11-23 08:53:00,66.0,66.0,73.0,30.02,10.0,N,13.0,0.0,Fair,False,False,False,False,False,False,False,False,False,False,False,True,False,Day,Day,Day,Day
C-3322960,4,2020-12-02 03:01:00.000000000,2020-12-02 14:46:00.000000000,34.2115,-118.848627,34.21202,-118.848957,0.0405757598225,Construction on CA-23 NB near AVENIDA DE LOS ARBOLES Take alternate route.,,E Avenida de Los Arboles,R,Thousand Oaks,Ventura,CA,91362,US,US/Pacific,KCMA,2020-12-02 02:55:00,51.0,51.0,35.0,29.94,10.0,CALM,0.0,0.0,Fair,False,False,False,False,False,False,False,False,False,False,False,False,False,Night,Night,Night,Night
C-3322961,2,2020-12-08 19:10:30.000000000,2020-12-08 20:00:00.000000000,48.010693,-122.83012,47.992493,-122.85177,1.60720689011,Slow traffic on WA-20 from Anderson Lake Rd (WA-20) to US-101 (WA-20) due to roadwork.,3501.0,State Route 20,L,Port Townsend,Jefferson,WA,98368,US,US/Pacific,KOKH,2020-12-08 18:56:00,48.0,45.0,93.0,30.09,4.0,W,6.0,0.01,Light Rain,False,False,False,False,False,False,False,False,False,False,False,False,False,Night,Night,Night,Night
C-3322962,2,2021-02-18 04:37:00.000000000,2021-02-18 19:30:48.000000000,33.509437,-112.136204,33.51027,-112.134177,0.1301876095,Slow traffic from N 36th Ave to W Pasadena Ave due to roadwork.,3593.0,W Camelback Rd,L,Phoenix,Maricopa,AZ,85019-2706,US,US/Mountain,KGEU,2021-02-18 04:58:00,45.0,39.0,28.0,28.98,10.0,NW,10.0,0.0,Fair,True,False,False,False,False,False,False,False,True,False,False,False,False,Night,Night,Night,Night
C-3322963,2,2021-05-11 05:21:00.000000000,2021-05-11 16:29:30.000000000,39.70415300000001,-104.996514,39.696714,-104.992918,0.548384116523,Slow traffic on US-85 S from I-25/US-87 (Denver) (S Santa Fe Dr/US-85) to W Florida Ave (S Santa Fe Dr/US-85) due to roadwork.,,S Kalamath St,R,Denver,Denver,CO,80223,US,US/Mountain,KAPA,2021-05-11 05:02:00,32.0,27.0,92.0,24.27,3.0,W,5.0,0.0,Cloudy,False,False,True,False,False,False,False,False,False,False,False,True,False,Night,Day,Day,Day
C-3322964,2,2021-09-09 16:18:00.000000000,2021-11-26 14:08:30.000000000,33.507472,-112.073686,33.509289,-112.0744,0.132109706749,Stationary traffic from E Pierson St to N 3rd Ave due to roadwork.,4801.0,N Central Ave,R,Phoenix,Maricopa,AZ,85012-1713,US,US/Mountain,KPHX,2021-09-09 15:51:00,110.0,110.0,12.0,28.61,10.0,ESE,10.0,0.0,Fair,True,False,True,False,False,False,False,False,True,False,False,False,False,Day,Day,Day,Day
C-3322965,2,2021-12-07 19:17:30.000000000,2021-12-07 21:19:10.000000000,40.877918,-73.868534,40.878396,-73.870479,0.106842832195,Stationary traffic from US-1/Boston Rd/Hering Ave (E Gun Hill Rd) to Bronx River Pkwy (E Gun Hill Rd) due to roadwork.,621.0,E Gun Hill Rd,L,Bronx,Bronx,NY,10467-5616,US,US/Eastern,KLGA,2021-12-07 18:51:00,41.0,38.0,41.0,30.16,10.0,W,5.0,0.0,Mostly Cloudy,False,False,True,False,False,False,False,False,True,False,False,True,False,Night,Night,Night,Night
C-3322966,2,2020-10-22 20:49:30.000000000,2020-10-22 21:35:00.000000000,40.016492,-76.729338,40.01819,-76.728604,0.1235825848709999,Stationary traffic on PA-181 from Sinking Springs Ln to Emig Rd due to roadwork.,3201.0,N George St,R,York,York,PA,17406,US,US/Eastern,KMDT,2020-10-22 20:56:00,66.0,66.0,90.0,29.86,8.0,CALM,0.0,0.0,Fair,False,False,False,False,False,False,False,False,False,False,False,False,False,Night,Night,Night,Night
C-3322967,2,2021-10-19 15:27:30.000000000,2021-10-19 15:47:30.000000000,26.100396,-80.13268599999998,26.101189,-80.136712,0.2557410187009999,Slow traffic on US-1 N - FL-A1A - FL-5 from SE 10th Ave to SE 16th Ct due to roadwork.,1001.0,SE 17th St,R,Fort Lauderdale,Broward,FL,33316-2128,US,US/Eastern,KFLL,2021-10-19 15:53:00,83.0,83.0,63.0,30.05,10.0,NE,13.0,0.0,Fair,False,False,False,False,False,False,False,False,False,False,False,True,False,Day,Day,Day,Day
C-3322968,2,2021-12-07 16:41:00.000000000,2021-12-07 18:42:16.000000000,44.946674,-123.049961,44.945055,-123.047261,0.173051761201,Stationary traffic on OR-221 from Taggart Dr NW to Willamina-Salem Hwy due to roadwork.,541.0,Wallace Rd NW,L,Salem,Polk,OR,97304-3833,US,US/Pacific,KSLE,2021-12-07 16:56:00,57.0,57.0,83.0,29.73,10.0,S,6.0,0.0,Cloudy,False,False,False,False,False,False,False,False,False,False,False,False,False,Night,Day,Day,Day
C-3322969,2,2021-06-14 11:24:30.000000000,2021-06-14 15:28:57.000000000,38.68985,-77.227164,38.685674,-77.228117,0.293076088555,Roadwork on Exit 163 (I-95 HOV) from US-1/Exit 161 (I-95 HOV) to I-95 S - I-95 N.,,I-95 N,R,Lorton,Fairfax County,VA,22079,US,US/Eastern,KDAA,2021-06-14 10:56:00,78.0,78.0,71.0,29.78,10.0,S,5.0,0.0,Fair,False,False,False,False,False,False,False,False,False,False,False,False,False,Day,Day,Day,Day
C-3322970,2,2020-12-02 03:51:00.000000000,2020-12-02 14:45:00.000000000,37.376872,-77.415472,37.37700200000001,-77.420272,0.2637004291979999,On VA-288 (Rt 288) in the County of Chesterfield at the ramp to Jeff Davis Highway motorists can expect potential delays in this area from 12/01/20 at 7:51 PM until 12/02/20 at 6:00 AM due to bridge work. The north right lane and right shoulder are closed.,,VA-288 N,R,Richmond,Chesterfield,VA,23237,US,US/Eastern,KFCI,,,,,,,,,,,False,False,False,False,False,False,False,False,False,False,False,False,False,Night,Night,Night,Night
C-3322971,2,2020-11-17 12:51:54.000000000,2020-11-18 07:23:08.000000000,25.535756,-80.47805600000002,25.535498,-80.478053,0.0178270833953,Roadwork on Silver Palm Dr/232nd St (FL-997) from Bauer Dr/264th St (FL-997) to FL-997.,24798.0,SW 177th Ave,L,Homestead,Miami-Dade,FL,33031-1232,US,US/Eastern,KHST,2020-11-17 12:56:00,84.0,84.0,66.0,30.06,10.0,NNE,20.0,0.0,Partly Cloudy,False,False,True,False,False,False,False,False,False,False,False,True,False,Day,Day,Day,Day
C-3322972,2,2021-09-13 20:01:00.000000000,2021-09-14 05:46:00.000000000,36.972825,-120.073995,36.978203,-120.080526,0.517720903802,Alternating Lanes closure due to Striping Operation between Fresno River and Dry Creek,,CA-99 N,R,Madera,Madera,CA,93637,US,US/Pacific,KMAE,2021-09-13 19:53:00,81.0,81.0,30.0,29.51,10.0,NNW,3.0,0.0,Fair,False,False,False,False,False,False,False,False,False,False,False,False,False,Night,Night,Day,Day
C-3322973,2,2019-04-19 07:00:00.000000000,2019-04-20 19:00:00.000000000,40.08778,-104.945887,40.087776,-104.945963,0.00402689531955,At I-25/US-287 - Construction work.,5839.0,Highway 52,L,Dacono,Weld,CO,80514,US,US/Mountain,KEIK,2019-04-19 06:58:00,35.0,35.0,80.0,25.02,10.0,CALM,0.0,0.0,Fair,False,False,False,False,False,False,False,False,False,False,False,False,False,Day,Day,Day,Day
C-3322974,2,2020-02-05 07:35:09.000000000,2020-04-09 06:57:08.000000000,40.52822000000001,-75.5076,40.51868,-75.52162,0.988269597463,Between Chestnut St/12th St and PA-100/Kings Hwy N - Roadwork. Traffic problem.,1198.0,Chestnut St,L,Emmaus,Lehigh,PA,18049-1905,US,US/Eastern,KXLL,2020-02-05 07:35:00,37.0,31.0,70.0,29.59,10.0,N,9.0,0.0,Light Drizzle,True,False,False,False,False,False,False,False,False,False,False,True,False,Day,Day,Day,Day
C-3322975,2,2021-06-17 08:00:00.000000000,2021-08-13 16:45:00.000000000,32.018517,-89.287906,32.019938,-89.287892,0.0981851746477,Construction on MS-15 near MS-18 Drive with caution.,98.0,Commerce Dr,R,Bay Springs,Jasper,MS,39422-5144,US,US/Central,KPIB,2021-06-17 07:56:00,72.0,72.0,76.0,29.73,10.0,NNE,3.0,0.0,Fair,False,False,False,False,False,False,False,False,False,False,False,False,False,Day,Day,Day,Day
C-3322976,4,2020-11-19 03:01:00.000000000,2020-11-19 14:01:00.000000000,34.034808,-118.173358,34.036749,-118.169518,0.257540018147,Full closure due to Pavement Rehabilitation between Pomona Freeway Route 60 and Long Beach Freeway Route 710,,S Eastern Ave,R,Los Angeles,Los Angeles,CA,90063,US,US/Pacific,KCQT,2020-11-19 02:52:00,59.0,59.0,83.0,29.92,7.0,VAR,3.0,0.0,Cloudy,False,False,False,False,False,False,False,False,False,False,False,False,False,Night,Night,Night,Night
C-3322977,4,2020-04-24 09:11:14.000000000,2020-07-05 03:26:17.000000000,40.76381,-84.01311,40.76404,-84.02689000000002,0.721307177079,Closed at I-75 - Bridge closed. Roadwork.,4950.0,Ada Rd,R,Lima,Allen,OH,45801-9702,US,US/Eastern,KAOH,2020-05-08 21:53:00,40.0,34.0,40.0,28.99,10.0,NW,9.0,0.0,Mostly Cloudy,False,False,False,False,False,False,False,False,False,False,False,False,False,Day,Day,Day,Day
C-3322978,2,2018-08-19 20:55:47.000000000,2018-08-23 20:55:33.000000000,33.58246,-111.88622,33.58238,-111.829091,3.28841301988,Between 90th St and 118th St - Roadwork.,10698.0,N 90th St,L,Scottsdale,Maricopa,AZ,85258,US,US/Mountain,KSDL,2018-08-19 20:53:00,100.0,,21.0,29.71,10.0,WSW,3.5,,Clear,False,False,True,False,False,False,False,False,False,False,False,True,False,Night,Night,Night,Night
C-3322979,1,2019-12-28 08:00:00.000000000,2019-12-28 18:00:00.000000000,40.778481,-73.945251,,,0.219999998808,Road closed due to construction work on 90th St both ways between 1st Ave and York Ave.,468.0,E 90th St,R,New York,New York,NY,10128-7804,US,US/Eastern,KNYC,2019-12-28 07:51:00,45.0,43.0,82.0,30.06,6.0,WNW,5.0,0.0,Haze,False,False,True,False,False,False,False,False,False,False,False,True,False,Day,Day,Day,Day
C-3322980,2,2021-11-04 14:43:00.000000000,2021-11-04 16:47:56.000000000,27.821137,-82.678503,27.822206,-82.679473,0.0947035150978,Slow traffic on US-19 N from 33rd St N to 58th Ave N due to roadwork.,3351.0,54th Ave N,R,Saint Petersburg,Pinellas,FL,33714-2423,US,US/Eastern,KSPG,2021-11-04 14:53:00,77.0,77.0,74.0,29.98,10.0,ENE,8.0,0.0,Fair,False,False,True,False,False,False,False,False,False,False,False,False,False,Day,Day,Day,Day
C-3322981,3,2020-05-28 19:03:29.000000000,2020-06-01 19:03:10.000000000,26.26735,-80.20161999999998,26.326190000000004,-80.20273,4.06603818684,Between SR-834/Sample Rd/36th St and Loxahatchee Rd Broward/Palm Beach County - Construction work. Lane blocked.,,N State Road 7,R,Pompano Beach,Broward,FL,33063,US,US/Eastern,KFXE,2020-05-28 18:53:00,83.0,83.0,74.0,29.99,10.0,ESE,14.0,0.0,Fair,False,False,True,False,False,False,False,False,False,False,False,True,False,Day,Day,Day,Day
C-3322982,2,2021-05-19 05:49:00.000000000,2021-05-20 16:54:10.000000000,41.956505,-80.357208,41.975209,-80.309206,2.7841543405,Roadwork on I-90 eastbound between .6 miles west of Exit 9: PA 18 - GIRARD/PLATEA and 1.4 miles east of Exit 9: PA 18 - GIRARD/PLATEA. There is a lane restriction.,,I-90 E,R,Girard,Erie,PA,16417,US,US/Eastern,KERI,2021-05-19 05:51:00,61.0,61.0,50.0,29.53,10.0,S,3.0,0.0,Fair,False,False,False,False,False,False,False,False,False,False,False,False,False,Night,Day,Day,Day
C-3322983,2,2020-08-27 14:19:30.000000000,2020-08-27 23:43:01.000000000,40.058852,-104.657226,40.07391,-104.646372,1.18821049328,Stationary traffic on I-76 from 168th Ave/Exit 25 (I-76) to CO-52/Exit 31 (I-76) due to roadwork.,,I-76 E,R,Hudson,Weld,CO,80642,US,US/Mountain,KDEN,2020-08-27 13:53:00,93.0,93.0,21.0,24.53,10.0,ENE,7.0,0.0,Partly Cloudy,False,False,False,False,False,False,False,False,False,True,False,False,False,Day,Day,Day,Day
C-3322984,2,2021-09-07 07:32:00.000000000,2021-09-07 09:33:19.000000000,32.894373,-96.652174,32.894316,-96.648256,0.227340457446,Slow traffic from S Shiloh Rd (Miller Rd) to S 1st St (Miller Rd) due to roadwork.,,Landa Dr,R,Garland,Dallas,TX,75041,US,US/Central,KHQZ,2021-09-07 07:50:00,63.0,63.0,100.0,29.51,10.0,ESE,3.0,0.0,Fair,False,False,False,False,False,False,False,False,False,False,False,True,False,Day,Day,Day,Day
C-3322985,2,2020-10-05 08:00:00.000000000,2020-10-09 17:00:00.000000000,28.05093,-82.45111800000002,,,0.409999996424,Intermittent lane closures due to maintenance work on US-41 Nebraska Ave Southbound from FL-582 Fowler Ave to 113th Ave.,,E 113th Ave,R,Tampa,Hillsborough,FL,33612,US,US/Eastern,KVDF,2020-10-05 07:55:00,73.0,73.0,94.0,29.95,10.0,NE,3.0,0.0,Mostly Cloudy,False,False,True,False,False,False,False,False,True,False,False,False,False,Day,Day,Day,Day
C-3322986,2,2020-09-04 13:45:30.000000000,2020-09-04 19:28:30.000000000,39.711955,-86.37231899999998,39.711195,-86.374571,0.130708970847,Stationary traffic on US-40 from S Raceway Rd (W Washington St/US-40) to IN-267/Quaker Blvd (E Main St/US-40) due to roadwork.,2172.0,E Main St,R,Plainfield,Hendricks,IN,46168-1861,US,US/Eastern,KIND,2020-09-04 13:54:00,76.0,76.0,40.0,29.28,10.0,WNW,14.0,0.0,Partly Cloudy,False,False,False,False,False,False,False,False,False,False,False,True,False,Day,Day,Day,Day
C-3322987,2,2021-06-29 14:38:59.000000000,2021-06-29 15:13:58.000000000,46.952735,-122.944931,46.952742,-122.9385,0.303307341675,Stationary traffic on WA-121 from Littlerock Rd (93rd Ave) to I-5 (93rd Ave) due to roadwork.,2922.0,93rd Ave SW,L,Olympia,Thurston,WA,98512-9144,US,US/Pacific,KOLM,2021-06-29 14:54:00,85.0,85.0,48.0,29.54,10.0,SW,8.0,0.0,Fair,False,False,False,False,False,False,False,False,False,False,False,False,False,Day,Day,Day,Night
C-3322988,2,2020-07-24 03:59:00.000000000,2020-07-25 04:57:48.000000000,40.154331,-79.778863,40.145841,-79.814563,1.9745398133400005,Construction on I-70 WB near MP 45 Allow extra time.,,I-70 W,R,Belle Vernon,Westmoreland,PA,15012,US,US/Eastern,KAGC,2020-07-24 03:53:00,72.0,72.0,97.0,28.73,5.0,WSW,6.0,0.0,Light Rain,False,False,False,False,True,False,False,False,False,False,False,False,False,Night,Night,Night,Night
C-3322989,2,2016-11-08 10:01:58.000000000,2016-11-08 15:59:31.000000000,40.63448,-75.27662,40.67247,-75.20749,4.4744943538,Between PA-412/Exit 67 and Morgan Hill Rd/Exit 75 - Roadwork. Traffic problem.,,I-78 E,R,Hellertown,Northampton,PA,18055,US,US/Eastern,KABE,2016-11-08 09:51:00,50.0,,57.0,30.22,10.0,WSW,4.6,,Clear,False,False,False,False,True,False,False,False,False,False,False,False,False,Day,Day,Day,Day
C-3322990,2,2021-10-19 08:18:00.000000000,2021-10-20 09:09:08.000000000,40.29533,-76.00269899999998,40.29842,-75.996489,0.390738312039,Construction on US-222 NB near US-222 Expect delays.,,Lancaster Pike N,R,Reading,Berks,PA,19607,US,US/Eastern,KRDG,2021-10-19 07:54:00,46.0,42.0,73.0,29.72,,WSW,7.0,0.0,Fair,False,False,False,False,True,False,False,False,False,False,False,False,False,Day,Day,Day,Day
C-3322992,2,2019-02-21 09:42:21.000000000,2019-02-21 15:00:00.000000000,33.939171,-117.156677,,,3.22000002861,Right hand shoulder closed due to landscape work on CA-60 Eastbound between Exit 64 Nason St and Exit 66 Redlands Blvd.,,CA-60 E,R,Moreno Valley,Riverside,CA,92555,US,US/Pacific,KRIV,2019-02-21 09:58:00,47.8,,66.0,29.61,10.0,West,6.9,,Partly Cloudy,False,False,False,False,False,False,False,False,False,False,False,False,False,Day,Day,Day,Day
C-3322993,2,2020-11-03 13:49:30.000000000,2020-11-03 20:42:30.000000000,41.86876,-87.624211,41.867533,-87.62419799999998,0.0847802644536,Stationary traffic from Balbo Dr (Michigan Ave) to Roosevelt Rd (Michigan Ave) due to roadwork.,1144.0,S Michigan Ave,R,Chicago,Cook,IL,60605-2301,US,US/Central,KMDW,2020-11-03 13:53:00,69.0,69.0,26.0,29.37,10.0,SW,13.0,0.0,Fair,False,False,True,False,False,False,False,False,True,False,False,True,False,Day,Day,Day,Day
C-3322994,2,2021-11-19 20:05:30.000000000,2021-12-12 01:00:13.000000000,44.709342,-116.137259,44.703216,-116.133459,0.462574638085,Roadwork from W Roseberry Rd / Maverick Rd to Franks Rd.,2419.0,W Mountain Rd,R,Donnelly,Valley,ID,83615,US,US/Mountain,KMYL,2021-11-19 19:51:00,35.0,35.0,89.0,25.0,10.0,CALM,0.0,0.01,Light Rain,False,False,False,False,False,False,False,False,False,False,False,False,False,Night,Night,Night,Night
C-3322995,2,2021-06-29 09:29:57.000000000,2021-06-29 11:56:34.000000000,26.257693,-80.186272,26.259784000000003,-80.18781800000002,0.173348146675,Slow traffic from NW 22nd St to NW 48th Ter due to roadwork.,2266.0,Lyons Rd,L,Pompano Beach,Broward,FL,33066,US,US/Eastern,KFXE,2021-06-29 09:53:00,84.0,84.0,76.0,30.12,10.0,E,13.0,0.0,Partly Cloudy,False,False,False,False,False,False,False,False,False,False,False,False,False,Day,Day,Day,Day
C-3322996,2,2017-01-24 20:01:33.000000000,2017-01-25 02:01:34.000000000,39.56227,-104.87172,39.519796,-104.867342,2.94393046052,Between County Line Rd/Exit 195 and Surrey Rd/Exit 191 - Roadwork.,,US-87 S,R,Englewood,Douglas,CO,80112,US,US/Mountain,KAPA,2017-01-24 19:53:00,19.9,9.3,78.0,29.89,10.0,ENE,9.2,0.0,Light Snow,False,False,False,False,True,False,False,False,False,False,False,False,False,Night,Night,Night,Night
C-3322997,2,2020-11-21 09:26:00.000000000,2020-11-21 10:34:00.000000000,45.576901,-118.630434,45.580874,-118.585934,2.16947134545,Slow traffic on Old Oregon Trail Hwy No 6 - I-84 E - US-30 E - Old Oregon Trl from OR-331/Market Rd/Exit 216 (I-84) to Poverty Flat Rd/Exit 224 (I-84) due to roadwork.,,I-84 E,R,Pendleton,Umatilla,OR,97801,US,US/Pacific,KPDT,2020-11-21 09:53:00,39.0,36.0,65.0,28.87,10.0,SSE,5.0,0.0,Fair,False,False,False,False,False,False,False,False,False,False,False,False,False,Day,Day,Day,Day
C-3322998,2,2019-08-13 05:56:38.000000000,2019-08-17 05:56:33.000000000,34.033840000000005,-118.27083,34.033840000000005,-118.27083,0.0,At Washington Blvd - Roadwork.,,S Flower St,R,Los Angeles,Los Angeles,CA,90015,US,US/Pacific,KCQT,2019-08-13 05:52:00,67.0,67.0,81.0,29.75,4.0,CALM,0.0,0.0,Haze,False,False,True,False,False,False,True,False,False,False,False,True,False,Night,Day,Day,Day
C-3322999,2,2020-09-16 19:12:05.000000000,2020-09-16 20:08:30.000000000,41.156724,-85.049741,41.154204,-85.024916,1.3031374513299998,Slow traffic on US-30 from Maplecrest Rd/Exit 29 (I-469/US-30) to IN-37/Maysville Rd/Exit 25 (I-469/US-30) due to bridge maintenance work.,,I-469 E,R,Fort Wayne,Allen,IN,46835,US,US/Eastern,KGWB,2020-09-16 19:15:00,72.0,72.0,57.0,29.07,10.0,CALM,0.0,0.0,Fair,False,False,False,False,False,False,False,False,False,False,False,False,False,Day,Day,Day,Day
C-3323000,2,2021-10-28 15:44:30.000000000,2021-10-28 16:39:30.000000000,41.990438,-87.701837,41.989662,-87.710619,0.454170652497,Slow traffic on US-14 E - US-14 W from N Francisco Ave to W Thorndale Ave due to roadwork.,,N Francisco Ave,R,Chicago,Cook,IL,60659,US,US/Central,KORD,2021-10-28 15:38:00,54.0,54.0,90.0,28.81,4.0,ENE,12.0,0.02,Light Rain,False,False,False,False,False,False,False,False,True,False,False,False,False,Day,Day,Day,Day
C-3323001,2,2021-05-05 20:42:00.000000000,2021-05-06 06:45:00.000000000,37.859206,-77.90545,37.862967,-77.896826,0.537433731222,On US-522 (Cross County Rd) in the County of Louisa from Cartersville Rd; Rt. 629N/S (Louisa County) to Gardners Rd; Rt. 648N/S (Louisa County) motorists can expect potential delays in this area from 05/05/21 at 8:42 PM until 05/06/21 at 6:00 AM due to bridge work. All north lanes are alternating closures. All south lanes are alternating closures.,8533.0,Cross County Rd,L,Mineral,Louisa,VA,23117,US,US/Eastern,KLKU,2021-05-05 20:35:00,64.0,64.0,58.0,29.4,10.0,NNW,12.0,0.0,Partly Cloudy,True,False,False,False,False,False,False,False,False,False,False,False,False,Night,Night,Day,Day
C-3323003,3,2020-05-28 21:04:13.000000000,2020-06-01 21:03:48.000000000,41.76624,-87.62553,41.76816,-87.62539,0.132855409018,Ramp to W 67th St/W Marquette Rd - Roadwork.,,I-94 W,R,Chicago,Cook,IL,60621,US,US/Central,KMDW,2020-05-28 20:53:00,67.0,67.0,93.0,29.19,10.0,NE,8.0,0.04,Light Rain,False,False,False,False,False,False,False,False,False,False,False,False,False,Night,Night,Day,Day
C-3323004,4,2020-10-20 10:48:03.000000000,2020-10-28 06:59:00.000000000,31.134854,-97.757102,31.13500100000001,-97.756378,0.0440059777413,Closed road from 37th St to 31st St due to roadwork.,6373.0,37th St,R,Fort Hood,Bell,TX,76544-2302,US,US/Central,KHLR,2020-10-20 10:58:00,79.0,79.0,69.0,29.04,10.0,SSE,13.0,0.0,Mostly Cloudy,True,False,False,False,False,False,False,False,False,False,False,False,False,Day,Day,Day,Day
C-3323005,2,2020-10-29 14:00:00.000000000,2020-10-30 13:15:00.000000000,42.643226,-74.540204,42.67378,-74.443359,5.35457707551,Construction on I-88 EB near NY-10 Expect delays.,,I-88 E,R,Richmondville,Schoharie,NY,12149,US,US/Eastern,KSCH,2020-10-29 13:45:00,45.0,45.0,100.0,29.43,3.0,CALM,0.0,0.0,Rain,False,False,False,False,False,False,False,False,False,False,False,False,False,Day,Day,Day,Day
C-3323006,2,2018-09-07 09:02:41.000000000,2018-09-11 09:02:13.000000000,33.7865,-84.382503,33.786590000000004,-84.38311999999998,0.0359725183283,At Peachtree St NE - Construction work.,163.0,14th St NE,R,Atlanta,Fulton,GA,30309-3838,US,US/Eastern,KFTY,2018-09-07 08:53:00,75.0,,94.0,30.1,10.0,Calm,,,Clear,False,False,True,False,False,False,False,False,False,False,False,True,False,Day,Day,Day,Day
C-3323007,2,2021-06-09 17:36:48.000000000,2021-06-09 17:59:56.000000000,27.952812,-82.354824,27.948878000000004,-82.35421600000002,0.274334876445,Slow traffic on US-301 S from CR-574/E Broadway Ave (US-301) to FL-60/Adamo Dr (US-301) due to roadwork.,706.0,N US Highway 301,L,Tampa,Hillsborough,FL,33619,US,US/Eastern,KTPF,2021-06-09 17:35:00,95.0,95.0,36.0,30.03,10.0,CALM,0.0,0.0,Fair,False,False,False,False,False,False,False,False,True,False,False,False,False,Day,Day,Day,Day
C-3323008,2,2021-12-18 18:39:00.000000000,2021-12-18 20:40:24.000000000,40.72897,-74.00917199999998,40.729723,-74.010488,0.0863404237697,Slow traffic on NY-9A from Hudson St to exit [4] due to roadwork.,327.0,W Houston St,L,New York,New York,NY,10014-4806,US,US/Eastern,KJRB,2021-12-18 18:51:00,43.0,40.0,93.0,29.8,2.0,NNE,5.0,0.0,Fog,False,False,True,False,False,False,False,False,False,False,False,True,False,Night,Night,Night,Night
C-3323009,1,2020-03-19 14:30:28.000000000,2020-03-19 16:30:28.000000000,33.8067,-84.39386999999998,33.8067,-84.39386999999998,0.0,At GA-13/Buford Hwy - Roadwork. Right lane closed.,,Collier Rd NW,R,Atlanta,Fulton,GA,30309,US,US/Eastern,KFTY,2020-03-19 14:53:00,79.0,79.0,50.0,29.3,10.0,S,15.0,0.0,Mostly Cloudy,False,False,False,False,False,False,False,False,False,False,False,False,False,Day,Day,Day,Day
C-3323010,2,2020-11-10 13:40:24.000000000,2020-11-16 10:53:42.000000000,28.39082800000001,-81.825538,28.409598,-81.830178,1.32719096544,Roadwork on Bronson Ranch Rd (Commonwealth Ave/FL-33) from CR-561 (FL-33) to FL-33.,2938.0,State Road 33,R,Clermont,Lake,FL,34714-9576,US,US/Eastern,KISM,2020-11-10 13:56:00,78.0,78.0,84.0,29.77,10.0,E,9.0,0.0,Fair,False,False,False,False,False,False,False,False,False,False,False,False,False,Day,Day,Day,Day
C-3323011,2,2021-12-16 14:45:30.000000000,2021-12-16 16:54:05.000000000,33.986302,-118.331004,33.980612,-118.330854,0.393235473888,Stationary traffic from W Slauson Ave (Crenshaw Blvd) to Hyde Park Blvd (Crenshaw Blvd) due to roadwork.,5949.0,Crenshaw Blvd,R,Los Angeles,Los Angeles,CA,90043-3041,US,US/Pacific,KHHR,2021-12-16 14:53:00,54.0,54.0,90.0,30.01,5.0,WSW,5.0,0.0,Cloudy,False,False,False,False,False,False,False,False,False,False,False,True,False,Day,Day,Day,Day
C-3323012,2,2021-09-28 19:46:00.000000000,2021-09-28 20:07:30.000000000,33.507158000000004,-112.047533,33.509223,-112.04808,0.146116578268,Slow traffic from E Highland Ave to N 15th St due to roadwork.,4784.0,N 16th St,L,Phoenix,Maricopa,AZ,85016-4604,US,US/Mountain,KPHX,2021-09-28 19:51:00,88.0,88.0,32.0,28.52,10.0,S,6.0,0.0,Partly Cloudy,True,False,False,False,False,False,False,False,False,False,False,False,False,Night,Night,Night,Night
C-3323013,2,2021-02-28 21:09:00.000000000,2021-02-28 22:01:30.000000000,47.437375,-115.681005,47.457866,-115.695055,1.56059344151,Slow traffic on I-90 W from Exit 5 (I-90) to I-90 Bus/Exit 69 (I-90) due to roadwork.,,I-90 W,R,Saint Regis,Mineral,MT,59866,US,US/Mountain,K3TH,2021-02-28 20:53:00,25.0,19.0,81.0,24.02,1.0,S,5.0,0.0,Haze,False,False,False,False,False,False,False,False,False,False,False,False,False,Night,Night,Night,Night
C-3323014,4,2021-08-15 22:01:00.000000000,2021-09-28 12:32:30.000000000,33.8476,-117.855373,33.84765,-117.855553,0.0108914621019,Full closure due to Permit Work between Kraemer Blvd and Artesia Frwy Rte 91,,N Glassell St,R,Anaheim,Orange,CA,92806,US,US/Pacific,KFUL,2021-08-15 21:53:00,73.0,73.0,73.0,29.75,10.0,SSE,5.0,0.0,Fair,False,False,False,False,False,False,False,False,False,False,False,False,False,Night,Night,Night,Night
C-3323015,2,2021-10-30 12:49:00.000000000,2021-10-30 14:52:25.000000000,39.966347,-75.29918,39.969022,-75.29326999999998,0.363458143668,Slow traffic on US-1 N - US-1 S from Drexel Ave (Township Line Rd/US-1) to Haverford Rd/Haverford Ave (City Ave/US-1) due to roadwork.,2490.0,Township Line Rd,L,Havertown,Delaware,PA,19083-5236,US,US/Eastern,KPHL,2021-10-30 12:54:00,66.0,66.0,54.0,29.59,10.0,S,10.0,0.0,Mostly Cloudy,False,False,True,False,False,False,False,False,False,True,False,False,False,Day,Day,Day,Day
C-3323016,2,2021-03-27 18:55:26.000000000,2021-11-10 06:46:00.000000000,40.764512,-124.191252,40.762869,-124.190753,0.116485296613,Construction on US-101 SB near K-MART Drive with caution.,4387.0,Broadway,R,Eureka,Humboldt,CA,95503-5739,US,US/Pacific,KEKA,2021-11-09 18:53:00,51.0,51.0,96.0,30.02,7.0,ENE,5.0,0.0,Cloudy,False,False,False,False,False,False,False,False,False,False,False,True,False,Day,Day,Day,Day
C-3323017,2,2021-10-13 09:58:30.000000000,2021-10-13 10:11:30.000000000,35.077607,-81.724023,35.075532,-81.738281,0.818866996302,Slow traffic on I-85 S from Hyatt St/Exit 90 (I-85) to Green River Rd/Exit 86 (I-85) due to roadwork.,,I-85 S,R,Gaffney,Cherokee,SC,29341,US,US/Eastern,KEHO,2021-10-13 09:55:00,67.0,67.0,89.0,29.22,10.0,CALM,0.0,0.0,Partly Cloudy,False,False,False,False,False,False,False,False,False,False,False,False,False,Day,Day,Day,Day
C-3323018,2,2021-03-30 05:22:30.000000000,2021-04-10 22:45:00.000000000,40.673165,-73.8962,40.67575,-73.895808,0.179783863531,Slow traffic from Glenmore Ave to Vermont St due to roadwork.,190.0,Pennsylvania Ave,R,Brooklyn,Kings,NY,11207-3437,US,US/Eastern,KJFK,2021-03-30 05:51:00,35.0,30.0,72.0,30.37,10.0,ENE,6.0,0.0,Fair,True,False,False,False,False,False,False,False,False,False,False,True,False,Night,Night,Night,Day
C-3323019,2,2021-10-25 05:44:00.000000000,2021-12-03 16:54:02.000000000,33.503213,-111.926204,33.502214,-111.92556,0.0783647333855,Slow traffic from E Highland Ave to N Brown Ave due to roadwork.,4548.0,N Scottsdale Rd,L,Scottsdale,Maricopa,AZ,85251-7604,US,US/Mountain,KPHX,2021-12-03 14:51:00,79.0,79.0,20.0,28.75,10.0,CALM,0.0,0.0,Fair,False,False,False,False,False,False,False,False,True,False,False,False,False,Night,Night,Night,Day
C-3323020,2,2021-09-26 16:44:00.000000000,2021-09-26 19:02:14.000000000,39.74886400000001,-105.025164,39.7524,-105.025165,0.244314337301,Stationary traffic on US-287 N from US-40/W Colfax Ave (CO-88/Federal Blvd/US-287) to W 26th Ave (Federal Blvd/US-287) due to roadwork.,2100.0,Federal Blvd,R,Denver,Denver,CO,80211-4640,US,US/Mountain,KBJC,2021-09-26 16:47:00,86.0,86.0,11.0,24.37,10.0,E,6.0,0.0,Partly Cloudy,False,False,True,False,False,False,False,False,False,True,False,False,False,Day,Day,Day,Day
C-3323022,2,2021-06-15 15:54:28.000000000,2021-09-30 15:46:47.000000000,33.790203000000005,-84.621907,33.788799,-84.622816,0.110158663511,Slow traffic from Tree Terrace Pkwy to Westfork Dr due to roadwork.,548.0,Maxham Rd,L,Austell,Douglas,GA,30168-5513,US,US/Eastern,KFTY,2021-09-30 12:53:00,79.0,79.0,64.0,29.24,10.0,CALM,0.0,0.0,Fair,False,False,True,False,False,False,False,False,False,False,False,True,False,Day,Day,Day,Day
C-3323023,2,2021-09-21 15:45:30.000000000,2021-09-21 16:05:30.000000000,29.20567,-90.041719,29.209706,-90.032012,0.6484407643819999,Slow traffic on LA-1 - LA-3235 from Central Ave (LA-1) to Cheramie Dr (LA-1) due to roadwork.,,Highway 1,R,District 1,Jefferson,LA,,US,,,,,,,,,,,,,False,False,False,False,False,False,False,False,False,False,False,False,False,,,,
C-3323024,2,2021-11-06 22:00:00.000000000,2021-11-06 23:59:59.000000000,40.852836,-73.959103,40.850432,-73.946936,0.657215836831,Port Authority NY/NJ: bridge construction on George Washington Bridge Upper Level eastbound New Jersey Side (Fort Lee) to New York Side (New York) Saturday November 6th 2021 thru Sunday November 7th 2021 Saturday 10:00 PM thru 10:00 AM 3 Left lanes of,,George Washington Brg,R,Fort Lee,Bergen,NJ,07024,US,US/Eastern,KTEB,2021-11-06 21:51:00,41.0,41.0,73.0,30.29,10.0,CALM,0.0,0.0,Fair,False,False,False,False,False,False,False,False,False,False,False,False,False,Night,Night,Night,Night
C-3323025,2,2020-11-14 07:58:05.000000000,2020-11-14 14:08:13.000000000,40.828918,-73.84403499999998,40.827748,-73.843745,0.0822487917346,Construction construction on I-278 eastbound between Zerega Avenue (New York) and Bruckner Interchange (New York) right lane closed from 9:00 P.M. until 6:00 A.M.,1023.0,Zerega Ave,L,Bronx,Bronx,NY,10462-5401,US,US/Eastern,KLGA,2020-11-14 07:51:00,48.0,42.0,61.0,30.12,10.0,NW,16.0,0.0,Fair,False,False,True,False,False,False,False,False,False,False,False,True,False,Day,Day,Day,Day
C-3323026,2,2020-09-01 13:01:21.000000000,2020-09-02 09:41:10.000000000,39.968415,-75.67484300000002,39.968357,-75.674467,0.0203096644550999,Roadwork on US-322 from Shadyside Rd/Harmony Hill Rd (Downingtown Pike/US-322) to Skelp Level Rd (Downingtown Pike/US-322).,1084.0,Downingtown Pike,R,West Chester,Chester,PA,19380,US,US/Eastern,KOQN,2020-09-01 12:55:00,73.0,73.0,83.0,29.41,10.0,SE,6.0,0.0,Mostly Cloudy,False,False,False,False,False,False,False,False,False,False,False,True,False,Day,Day,Day,Day
C-3323027,3,2020-06-23 21:00:00.000000000,2020-06-26 06:00:00.000000000,41.63843,-87.66169000000002,41.61141,-87.69646,2.59041086319,Between Thornton Rd and Kedzie Ave - Roadwork. Two lanes closed.,,I-57 S,R,Harvey,Cook,IL,60426,US,US/Central,KIGQ,2020-06-23 20:55:00,67.0,67.0,68.0,29.16,10.0,N,13.0,0.0,Mostly Cloudy,False,False,False,False,False,False,False,False,False,False,False,False,False,Night,Day,Day,Day
C-3323028,2,2021-08-07 00:00:00.000000000,2021-08-10 00:43:59.000000000,40.716894,-73.9862,40.717409,-73.98788499999998,0.0951454103936,Construction on BROOME ST near CLINTON ST Allow extra time.,160.0,Clinton St,L,New York,New York,NY,10002-3409,US,US/Eastern,KJRB,2021-08-07 00:51:00,76.0,76.0,60.0,30.02,10.0,VAR,5.0,0.0,Fair,True,False,True,False,False,False,False,False,False,False,False,True,False,Night,Night,Night,Night
C-3323029,2,2021-12-17 19:58:30.000000000,2021-12-17 22:04:02.000000000,48.380694,-117.269898,48.385663,-117.272571,0.364578383143,Roadwork from Le Cler Creek Rd to Cee Cee Ah Creek Rd.,4617.0,Le Clerc Rd N,L,Cusick,Pend Oreille,WA,99119,US,US/Pacific,KDEW,2021-12-17 19:53:00,21.0,,71.0,27.99,10.0,,,0.0,Cloudy,False,False,False,False,False,False,False,False,False,False,False,False,False,Night,Night,Night,Night
C-3323030,2,2020-11-04 21:24:00.000000000,2020-11-04 22:22:30.000000000,40.666964,-73.978217,40.668775,-73.976698,0.148304752427,Stationary traffic from 9th St (8th Ave) to Union St (8th Ave) due to roadwork.,501.0,7th St,L,Brooklyn,Kings,NY,11215,US,US/Eastern,KJRB,2020-11-04 21:51:00,57.0,57.0,51.0,30.36,10.0,VAR,5.0,0.0,Fair,False,False,False,False,False,False,False,False,False,False,False,True,False,Night,Night,Night,Night
C-3323031,2,2019-02-14 09:03:20.000000000,2019-02-18 09:03:19.000000000,40.23416,-74.22142,40.24954,-74.26383299999998,2.47647335423,Between RT-33 (East) and Kondrup Way - Construction work.,301.0,Brickyard Rd,L,Freehold,Monmouth,NJ,07728-8412,US,US/Eastern,KBLM,2019-02-14 08:56:00,36.0,28.0,55.0,30.1,10.0,WSW,11.5,,Mostly Cloudy,False,False,False,False,False,False,False,False,False,False,False,True,False,Day,Day,Day,Day
C-3323032,4,2018-10-05 11:01:52.000000000,2018-10-05 13:01:08.000000000,41.67869,-83.57337,41.677724,-83.573758,0.0696829120347,At I-475/Exit 204 - Roadwork.,,I-75 S,R,Toledo,Lucas,OH,43610,US,US/Eastern,KDUH,2018-10-05 10:55:00,51.8,,83.0,30.14,10.0,Calm,,,Light Rain,False,False,False,False,False,False,False,False,False,False,False,False,False,Day,Day,Day,Day
C-3323033,2,2021-03-15 06:26:30.000000000,2021-12-15 19:48:30.000000000,25.776937,-80.140857,25.773666,-80.140371,0.2280184920679999,Slow traffic on FL-907 from 8th St to 4th St due to roadwork.,698.0,Alton Rd,L,Miami Beach,Miami-Dade,FL,33139,US,US/Eastern,KMIA,2021-03-15 06:53:00,67.0,67.0,90.0,30.09,10.0,CALM,0.0,0.0,Fair,True,False,False,False,False,False,False,False,False,False,False,False,False,Night,Night,Night,Day
C-3323034,4,2021-08-25 08:30:00.000000000,2021-08-25 15:30:00.000000000,33.722234,-82.412273,33.726115,-82.40952,0.3113423516169999,GA-220 is closed from White Rock Rd to Wells Rd / Walker Hawes Rd due to roadwork.,5101.0,GA Highway 220 W,R,Lincolnton,Lincoln,GA,30817-5039,US,US/Eastern,KHQU,2021-08-25 08:35:00,77.0,77.0,93.0,29.58,10.0,CALM,0.0,0.0,Fair,False,False,False,False,False,False,False,False,False,False,False,False,False,Day,Day,Day,Day
C-3323035,2,2018-11-13 23:27:18.000000000,2018-11-14 05:59:00.000000000,34.154564,-118.378311,,,0.850000023842,Entry ramp to CA-134 Eastbound at Exits 5A 5B from CA-170 Southbound closed due to paving repairs.,,US-101 N,R,North Hollywood,Los Angeles,CA,91602,US,US/Pacific,KBUR,2018-11-13 23:53:00,55.0,,23.0,30.25,10.0,NNW,3.5,,Clear,False,False,False,False,False,False,False,False,False,False,False,False,False,Night,Night,Night,Night
C-3323036,2,2021-01-26 16:16:13.000000000,2021-01-27 04:14:24.000000000,28.811359000000003,-81.35437399999998,28.810578000000003,-81.363038,0.5272926486399999,Stationary traffic on FL-46 from Lake Forest Blvd to Wayside Dr due to roadwork.,5320.0,W State Road 46,L,Sanford,Seminole,FL,32771-9233,US,US/Eastern,KSFB,2021-01-26 15:53:00,78.0,78.0,62.0,29.93,10.0,S,7.0,0.0,Fair,False,False,False,False,False,False,False,False,False,False,False,False,False,Day,Day,Day,Day
C-3323037,2,2020-09-22 20:56:30.000000000,2020-09-22 23:38:39.000000000,47.809516,-122.540605,47.809537,-122.54328,0.124136401866,Stationary traffic on WA-104 from Edmonds-Kingston Fry (WA-104) to WA-307/Bond Rd NE (WA-104) due to roadwork.,8159.0,NE State Highway 104,L,Kingston,Kitsap,WA,98346-9472,US,US/Pacific,KPAE,2020-09-22 20:53:00,65.0,65.0,61.0,29.31,10.0,ESE,5.0,0.0,Fair,False,False,False,False,False,False,False,False,False,False,False,False,False,Night,Night,Night,Night
C-3323038,2,2021-10-06 17:25:30.000000000,2021-12-03 13:00:29.000000000,41.595509,-93.638352,41.594572,-93.634583,0.205230206811,Stationary traffic from I-235 E / Martin Luther King Jr Pkwy to Oakridge Dr due to roadwork.,1251.0,School St,L,Des Moines,Polk,IA,50314,US,US/Central,KDSM,2021-11-16 07:54:00,34.0,25.0,89.0,28.82,10.0,ESE,12.0,0.0,Cloudy,False,False,True,False,False,False,False,False,False,False,False,False,False,Day,Day,Day,Day
C-3323039,2,2018-10-12 06:00:00.000000000,2018-10-12 18:00:00.000000000,45.733627,-122.551605,,,0.879999995232,Intermittent lane closures due to construction on WA-503 122nd Ave both ways between Caples Rd and 154th St.,,NE 122nd Ave,R,Brush Prairie,Clark,WA,98606,US,US/Pacific,KVUO,2018-10-12 05:53:00,44.1,,93.0,30.12,10.0,Calm,,,Clear,False,False,False,False,False,False,False,False,False,False,False,False,False,Night,Night,Night,Day
C-3323040,2,2021-03-27 05:11:00.000000000,2021-03-27 12:33:20.000000000,25.777831,-80.140872,25.773666,-80.140371,0.2894574215329999,Stationary traffic on FL-907 from 8th St to 4th St due to roadwork.,770.0,Alton Rd,L,Miami Beach,Miami-Dade,FL,33139-5504,US,US/Eastern,KMIA,2021-03-27 04:53:00,76.0,76.0,82.0,30.11,10.0,E,9.0,0.0,Fair,True,False,False,False,False,False,False,False,False,False,False,False,False,Night,Night,Night,Night
C-3323041,2,2020-10-08 12:51:00.000000000,2020-10-08 21:20:30.000000000,40.657651,-75.427748,40.662069,-75.423141,0.389214655856,Queuing traffic from City Line Rd (Airport Rd) to Schoenersville Rd (Airport Rd) due to roadwork.,3425.0,Airport Rd,L,Allentown,Lehigh,PA,18109-3047,US,US/Eastern,KABE,2020-10-08 12:51:00,62.0,62.0,46.0,29.61,10.0,WNW,13.0,0.0,Mostly Cloudy,False,False,False,False,False,False,False,False,False,False,False,True,False,Day,Day,Day,Day
C-3323042,2,2021-12-02 07:38:00.000000000,2021-12-02 07:59:00.000000000,39.65323,-105.049284,39.65361,-105.03486399999998,0.7675399721709999,Slow traffic on US-285 N from CO-95/Sheridan Blvd (US-285) to S Lowell Blvd/S Knox Ct (US-285) due to roadwork.,,US-285 N,R,Denver,Denver,CO,80236,US,US/Mountain,KAPA,2021-12-02 07:53:00,50.0,50.0,27.0,24.28,10.0,S,6.0,0.0,Fair,False,False,False,False,False,False,False,False,False,False,False,False,False,Day,Day,Day,Day
C-3323043,3,2017-07-19 21:00:00.000000000,2017-07-20 05:00:00.000000000,32.766102000000004,-96.776489,,,7.590000152589999,Two lanes closed due to construction during the night on I-45 Northbound between Exits 279A 279B TX-12 Loop Great Trinity Forest Way and Exit 283B US-175. Detour in operation - Northbound traffic will exit at Loop 12 and will then go the SH 310 then continue traveling on northbound SH 310 until it ties into US 175 back into I-45.,,I-45 S,R,Dallas,Dallas,TX,75215,US,US/Central,KDAL,2017-07-19 20:53:00,91.0,,47.0,30.0,10.0,SE,13.8,,Partly Cloudy,False,False,False,False,False,False,False,False,False,False,False,False,False,Night,Day,Day,Day
C-3323044,4,2021-09-20 07:32:58.000000000,2021-10-07 23:02:43.000000000,39.022013,-94.783759,39.026258,-94.785848,0.314005399312,Construction on I-435 NB near JOHNSON DR Take alternate route.,,Johnson Dr,R,Shawnee,Johnson,KS,66217,US,US/Central,KOJC,2021-09-20 07:53:00,69.0,69.0,93.0,28.64,10.0,S,15.0,0.0,Partly Cloudy,False,False,False,False,False,False,False,False,False,True,False,False,False,Day,Day,Day,Day
C-3323045,2,2019-04-06 07:00:00.000000000,2020-05-27 07:00:39.000000000,45.72181,-102.16648,45.93495,-102.17689,14.7350974174,Between Dewitt Rd and US-12 - Roadwork.,,S Cabin Rd,R,Lemmon,Perkins,SD,57638,US,US/Mountain,KY22,2019-04-06 06:53:00,38.0,31.0,100.0,27.01,0.25,ESE,9.0,0.0,Fog,False,False,False,False,False,False,False,False,False,False,False,False,False,Day,Day,Day,Day
C-3323046,4,2021-09-06 19:35:27.000000000,2021-09-13 23:59:00.000000000,34.07817,-118.470036,34.081313,-118.472897,0.271965591058,Closed road from W Sunset Blvd (Sepulveda Blvd/CA-1) to I-405/San Diego Fwy (3) (Sepulveda Blvd/CA-1) due to roadwork.,808.0,N Sepulveda Blvd,R,Los Angeles,Los Angeles,CA,90049-2119,US,US/Pacific,KSMO,2021-09-06 19:51:00,69.0,69.0,87.0,29.74,8.0,WSW,3.0,0.0,Fair,False,False,False,False,False,False,False,False,False,False,False,False,False,Night,Day,Day,Day
C-3323047,2,2021-08-08 00:00:01.000000000,2021-08-09 00:00:01.000000000,38.938121,-104.601181,38.9379,-104.601515,0.0235662176267,Right in/right out development paving shoulder work,12411.0,E US Highway 24,R,Peyton,El Paso,CO,80831,US,US/Mountain,KFLY,2021-08-08 00:15:00,62.0,62.0,38.0,23.42,10.0,W,8.0,0.0,Fair,False,False,False,False,False,False,False,False,False,False,False,True,False,Night,Night,Night,Night
C-3323048,2,2021-10-13 13:09:03.000000000,2021-10-13 15:10:43.000000000,33.690853999999995,-84.513438,33.690505,-84.510777,0.1548665038759999,Slow traffic on GA-154 - GA-166 from County Line Rd (GA-166) to GA-166/Mellwood Ave/Exit 5A (GA-166) due to roadwork.,2399.0,Camp Ground Rd SW,R,Atlanta,Fulton,GA,30331-5047,US,US/Eastern,KFTY,2021-10-13 12:53:00,79.0,79.0,64.0,29.18,10.0,CALM,0.0,0.0,Partly Cloudy,False,False,False,False,False,False,False,False,False,False,False,False,False,Day,Day,Day,Day
C-3323049,2,2020-09-05 16:22:30.000000000,2020-09-05 22:54:51.000000000,31.58352600000001,-97.110005,31.577118,-97.112708,0.470469420705,Slow traffic on I-35 from Behrens Cir/Exit 338B (I-35) to US-77/Exit 337 (I-35) due to roadwork.,,I-35 S,R,Waco,McLennan,TX,76705,US,US/Central,KCNW,2020-09-05 15:55:00,82.0,82.0,62.0,29.71,10.0,E,12.0,,Partly Cloudy,False,False,False,False,False,False,False,False,False,False,False,False,False,Day,Day,Day,Day
C-3323050,2,2021-12-01 12:08:00.000000000,2021-12-18 15:47:10.000000000,25.74753,-80.337365,25.748224,-80.335628,0.1182572564,Stationary traffic on County Hwy-913 - FL-973 - FL-972 from SW 88th Ave to SW 21st St / SW 21st Ter due to roadwork.,8786.0,SW 24th St,L,Miami,Miami-Dade,FL,33165-2006,US,US/Eastern,KMIA,2021-12-01 11:53:00,79.0,79.0,48.0,30.17,10.0,E,9.0,0.0,Fair,False,False,True,False,False,False,False,False,True,False,False,False,False,Day,Day,Day,Day
C-3323051,2,2021-10-27 13:16:30.000000000,2021-10-27 14:23:00.000000000,39.763705,-86.343858,39.762821,-86.33685799999998,0.376765556118,Slow traffic on US-36 E - US-36 W from Creekstone Cv to Conrail Railroad due to roadwork.,10083.0,E US Highway 36,R,Avon,Hendricks,IN,46123-7986,US,US/Eastern,KIND,2021-10-27 12:54:00,51.0,51.0,59.0,29.17,10.0,ESE,9.0,0.0,Fair,False,False,False,False,False,False,False,False,False,False,False,False,False,Day,Day,Day,Day
C-3323052,2,2021-01-21 20:15:28.000000000,2021-01-21 21:14:24.000000000,32.730598,-96.825282,32.708240999999994,-96.829761,1.5665103850400002,Slow traffic on US-67 S - I-35E N - US-77 S - R L Thornton Fwy S - US-67 N - US-77 N - R L Thornton Fwy N - I-35E S from exit [428B] to W Kiest Blvd due to roadwork.,,I-35E N,R,Dallas,Dallas,TX,75224,US,US/Central,KRBD,2021-01-21 19:53:00,54.0,54.0,90.0,29.15,10.0,N,5.0,0.0,Mostly Cloudy,False,False,False,False,False,False,False,False,False,False,False,False,False,Night,Night,Night,Night
C-3323053,4,2019-11-02 17:09:47.000000000,2019-11-02 22:09:00.000000000,34.98223,-82.00298000000002,34.95922,-82.05769000000002,3.48175549557,Closed between US-176/Exit 72 and SC-129/Exit 68 - Closed due to roadwork. Left lane blocked.,,I-85 S,R,Spartanburg,Spartanburg,SC,29303,US,US/Eastern,KSPA,2019-11-02 17:15:00,61.0,61.0,39.0,29.23,10.0,CALM,0.0,0.0,Fair,False,False,False,False,True,False,False,False,False,False,False,False,False,Day,Day,Day,Day
C-3323054,2,2020-06-03 17:00:00.000000000,2020-06-03 19:02:36.000000000,35.419599,-119.021105,35.419599,-119.021105,0.0,At Norris Rd - Lane control signs not working.,100.0,E Norris Rd,L,Bakersfield,Kern,CA,93308,US,US/Pacific,KBFL,2020-06-03 16:54:00,98.0,98.0,24.0,29.31,10.0,NW,10.0,0.0,Fair,False,False,True,False,False,False,True,False,False,False,False,True,False,Day,Day,Day,Day
C-3323055,2,2017-04-11 20:01:08.000000000,2017-04-12 02:01:08.000000000,36.03669,-86.42882,36.17875,-86.35155999999998,10.7211059961,Between TN-452 and I-40/Exit 76 - Construction work.,,I-840 E,R,Murfreesboro,Rutherford,TN,37129,US,US/Central,KMQY,2017-04-11 19:56:00,63.0,,84.0,30.08,10.0,NNW,12.7,,Mostly Cloudy,False,False,False,False,True,False,False,False,False,False,False,False,False,Night,Night,Day,Day
C-3323056,3,2020-05-17 08:37:15.000000000,2020-05-22 20:33:55.000000000,33.94215,-81.26226,34.00564,-81.16247,7.2067385627,Between SC-6/Exit 55 and US-378/Exit 61 - Roadwork. Lane blocked.,,I-20 E,R,Lexington,Lexington,SC,29073,US,US/Eastern,KCAE,2020-05-18 20:56:00,71.0,71.0,93.0,29.57,10.0,E,7.0,0.0,Mostly Cloudy,False,False,False,False,False,False,False,False,False,False,False,False,False,Day,Day,Day,Day
C-3323057,2,2021-12-18 23:01:00.000000000,2021-12-19 09:46:00.000000000,34.14202,-117.252348,34.14077,-117.248318,0.246109618024,Construction on CA-210 EB near DEL ROSA AVE Construction. Expect long delays.,,N Del Rosa Ave,R,San Bernardino,San Bernardino,CA,92404,US,US/Pacific,KSBD,2021-12-18 23:00:00,43.0,40.0,51.0,28.88,10.0,ENE,6.0,0.0,Fair,False,False,True,False,True,False,False,False,False,False,False,True,False,Night,Night,Night,Night
C-3323058,2,2020-07-31 01:30:00.000000000,2020-08-08 05:45:00.000000000,38.34130800000001,-86.467927,38.349268,-86.454137,0.927841197259,Construction on IN-64 EB near IN-37 Right lane closed. Expect delays.,1.0,W State Road 64,R,English,Crawford,IN,47118,US,US/Eastern,KHNB,2020-07-31 01:35:00,70.0,70.0,100.0,29.31,5.0,CALM,0.0,0.0,Light Drizzle,False,False,False,False,False,False,False,False,False,False,False,False,False,Night,Night,Night,Night
C-3323059,3,2019-12-31 04:09:51.000000000,2019-12-31 08:12:00.000000000,41.973419,-72.066727,,,3.26999998093,Road closed due to utility work on CT-197 both ways between CT-198 and Old Turnpike Rd.,1486.0,Route 197,L,Woodstock,Windham,CT,06281-1204,US,US/Eastern,KIJD,2019-12-31 03:52:00,36.0,30.0,97.0,29.45,4.0,NNW,8.0,0.0,Wintry Mix,False,False,False,False,False,False,False,False,False,False,False,False,False,Night,Night,Night,Night
C-3323060,2,2021-06-15 10:17:05.000000000,2021-06-15 15:44:48.000000000,30.433982,-91.113056,30.430707,-91.109172,0.323639872407,Stationary traffic on LA-73 from Government St (Jefferson Hwy/LA-73) to Corporate Blvd (Jefferson Hwy/LA-73) due to roadwork.,7349.0,Jefferson Hwy,L,Baton Rouge,East Baton Rouge,LA,70806-8205,US,US/Central,KBTR,2021-06-15 09:53:00,88.0,88.0,65.0,29.91,10.0,N,5.0,0.0,Fair,False,False,False,False,False,False,False,False,False,False,False,True,False,Day,Day,Day,Day
C-3323061,2,2020-08-17 03:00:00.000000000,2020-08-17 19:45:00.000000000,39.106409,-120.161717,39.104931,-120.162505,0.110514619961,Construction on CA-89 SB near TALLAC DR Expect delays.,198.0,Tallac Ave,R,Homewood,Placer,CA,96141,US,US/Pacific,KTRK,2020-08-17 02:55:00,55.0,55.0,63.0,24.44,10.0,S,3.0,0.0,Fair,False,False,False,False,False,False,False,False,False,False,False,False,False,Night,Night,Night,Night
C-3323062,2,2021-12-21 07:25:00.000000000,2021-12-21 12:37:20.000000000,40.68309,-73.979118,40.684125,-73.97777099999998,0.100473375891,Slow traffic from Dean St to Flatbush Ave due to roadwork.,43.0,4th Ave,L,Brooklyn,Kings,NY,11217-1929,US,US/Eastern,KJRB,2021-12-21 07:51:00,33.0,29.0,56.0,30.03,10.0,W,5.0,0.0,Fair,True,False,True,False,False,False,False,False,True,False,False,True,False,Day,Day,Day,Day
C-3323063,2,2020-09-12 08:15:30.000000000,2020-09-13 01:14:35.000000000,27.082557,-80.281474,27.088031,-80.27814000000002,0.4302464069169999,Roadwork on FL-76 from CR-708/SW Bridge Rd (FL-76) to CR-711/SW Pratt Whitney Rd/96th St (FL-76).,2025.0,SW Kanner Hwy,L,Stuart,Martin,FL,34997-2619,US,US/Eastern,KSUA,2020-09-12 07:47:00,77.0,77.0,89.0,29.81,5.0,ESE,12.0,0.0,Light Rain,False,False,False,False,False,False,False,False,False,False,False,True,False,Day,Day,Day,Day
C-3323064,2,2021-11-24 11:24:30.000000000,2021-11-24 13:29:22.000000000,41.959506,-87.688544,41.962509,-87.688636,0.207541372018,Stationary traffic from IL-19/W Irving Park Rd (N Western Ave) to W Leland Ave (N Western Ave) due to roadwork.,4301.0,N Western Ave,L,Chicago,Cook,IL,60618-1621,US,US/Central,KORD,2021-11-24 11:51:00,49.0,44.0,50.0,29.16,10.0,SSW,14.0,0.0,Cloudy,True,False,False,False,False,False,False,False,False,False,False,False,False,Day,Day,Day,Day
C-3323065,2,2020-09-17 12:17:30.000000000,2020-09-18 02:50:15.000000000,42.012464,-87.79899300000002,42.011804,-87.802366,0.17906243361,Stationary traffic from W Harts Rd/W Gross Point Rd (Touhy Ave) to IL-43/N Harlem Ave (W Touhy Ave) due to roadwork.,6981.0,W Touhy Ave,R,Niles,Cook,IL,60714-4521,US,US/Central,KORD,2020-09-17 11:51:00,68.0,68.0,49.0,29.44,10.0,ENE,13.0,0.0,Fair,False,False,False,False,False,False,False,False,False,False,False,False,False,Day,Day,Day,Day
C-3323066,2,2021-04-07 05:17:30.000000000,2021-04-07 08:28:00.000000000,25.73217,-80.372309,25.731345,-80.367727,0.290833060093,Stationary traffic on FL-976 - FL-985 from SW 110th Ave to SW 41st Ter due to roadwork.,,SW 40th St,R,Miami,Miami-Dade,FL,33165,US,US/Eastern,KMIA,2021-04-07 04:53:00,63.0,63.0,75.0,30.04,10.0,CALM,0.0,0.0,Partly Cloudy,False,False,False,False,False,False,False,False,False,False,False,False,False,Night,Night,Night,Night
C-3323067,2,2021-02-15 12:48:00.000000000,2021-02-15 19:48:10.000000000,31.226225,-99.221042,31.226209000000004,-99.218753,0.135247011193,Roadwork on US-377 (SE 7th St/FM-1121) from US-190/Crew Ave (SE 7th St/FM-1121) to FM-1121.,5201.0,FM 1121,R,Rochelle,McCulloch,TX,76872,US,US/Central,KBBD,2021-02-15 15:15:00,14.0,-3.0,67.0,28.25,10.0,NNW,18.0,0.0,Fair,False,False,False,False,False,False,False,False,False,False,False,False,False,Day,Day,Day,Day
C-3323068,2,2021-12-07 15:14:00.000000000,2021-12-07 17:15:50.000000000,41.648923,-91.540149,41.646602,-91.540223,0.160411331728,Slow traffic on IA-1 - US-6 E from Highway 1 W / US Highway 6 to Airport Rd due to roadwork.,984.0,Cole's Mobile Home Ct,L,Iowa City,Johnson,IA,52246,US,US/Central,KIOW,2021-12-07 14:52:00,30.0,19.0,38.0,29.32,10.0,SSE,15.0,0.0,Mostly Cloudy,False,False,False,False,False,False,False,False,False,False,False,False,False,Day,Day,Day,Day
C-3323069,3,2016-06-30 06:01:07.000000000,2016-07-01 03:01:21.000000000,40.72591,-95.03787,40.74227,-95.06122,1.66500100264,At W State St - Roadwork.,1249.0,S 16th St,L,Clarinda,Page,IA,51632-2920,US,US/Central,KICL,2016-06-30 05:55:00,66.2,,100.0,29.96,10.0,North,,,,False,False,False,False,False,False,False,False,False,False,False,False,False,Day,Day,Day,Day
C-3323070,2,2021-10-07 15:53:42.000000000,2021-10-07 18:00:17.000000000,28.259778000000004,-81.604686,28.260776,-81.612188,0.46173377747,Slow traffic from CR-545/S Lake Wilson Rd (Osceola Polk Line Rd/CR-532) to I-4 (Osceola Polk Line Rd/CR-532) due to roadwork.,7923.0,Osceola Polk Line Rd,R,Davenport,Osceola,FL,33896-9100,US,US/Eastern,KISM,2021-10-07 15:56:00,91.0,91.0,48.0,29.94,10.0,VAR,3.0,0.0,Fair,False,False,False,False,False,False,False,False,False,False,False,True,False,Day,Day,Day,Day
C-3323071,4,2021-09-25 08:08:00.000000000,2021-09-25 10:09:47.000000000,32.804156,-79.94179100000002,32.805536,-79.94832099999998,0.391029309668,Bridge closure from US-17 S / N Highway 17 to I-26 W.,,Arthur Ravenel Jr Bridge,R,Charleston,Charleston,SC,29403,US,US/Eastern,KJZI,2021-09-25 08:15:00,63.0,63.0,82.0,30.07,10.0,CALM,0.0,0.0,Fair,False,False,False,False,False,False,False,False,False,False,False,False,False,Day,Day,Day,Day
C-3323072,1,2019-09-02 04:18:43.000000000,2019-09-13 11:00:00.000000000,42.761608,-96.603554,,,0.0,Temporary traffic signals and single alternate line traffic due to construction work on IA-12 around IA-3.,19840.0,Highway 12,R,Westfield,Plymouth,IA,51062,US,US/Central,KLRJ,2019-09-02 04:15:00,66.0,66.0,100.0,28.8,5.0,CALM,0.0,0.0,Fair,False,False,True,False,False,False,True,False,False,False,False,False,False,Night,Night,Night,Night
C-3323073,2,2019-02-14 09:00:00.000000000,2019-02-14 15:00:00.000000000,38.033199,-84.508926,,,0.40000000596,Intermittent lane closures due to cable laying on US-27 Limestone both ways between Virginia Ave and Leader Ave.,798.0,S Limestone,L,Lexington,Fayette,KY,40526,US,US/Eastern,KLEX,2019-02-14 08:54:00,41.0,32.8,53.0,29.98,10.0,SSE,16.1,,Clear,False,False,False,False,False,False,False,False,False,False,False,True,False,Day,Day,Day,Day
C-3323074,2,2020-10-29 20:23:23.000000000,2020-10-29 22:49:20.000000000,28.465851,-99.009111,28.465865,-99.002601,0.3954193273219999,Stationary traffic on TX-97 from FM-624 (TX-97) to FM-469 (TX-97) due to roadwork.,,TX-97,R,Cotulla,La Salle,TX,78014,US,US/Central,KCOT,2020-10-29 20:53:00,61.0,61.0,52.0,29.69,10.0,N,5.0,0.0,Fair,False,False,False,False,False,False,False,False,False,False,False,False,False,Night,Night,Night,Night
C-3323075,2,2021-09-17 08:27:00.000000000,2021-09-18 09:16:54.000000000,41.413213,-78.53025500000003,41.413156,-78.513502,0.868102870484,Construction on MICHAEL ST near ROBIN RD Allow extra time.,101.0,Mckennedy Rd,L,Saint Marys,Elk,PA,15857-4703,US,US/Eastern,KDUJ,2021-09-17 08:53:00,68.0,68.0,90.0,28.31,8.0,SE,7.0,0.0,Cloudy,False,False,False,False,False,False,False,False,False,False,False,False,False,Day,Day,Day,Day
C-3323076,2,2020-10-08 12:51:30.000000000,2020-10-09 01:31:10.000000000,40.656505,-73.584956,40.656346,-73.582261,0.1416885851579999,Stationary traffic on NY-27 from Brookside Ave (NY-27) to Main St (NY-27) due to roadwork.,57.0,W Sunrise Hwy,L,Freeport,Nassau,NY,11520-3611,US,US/Eastern,KFRG,2020-10-08 12:53:00,64.0,64.0,41.0,29.86,10.0,NW,17.0,0.0,Fair,False,False,False,False,False,False,False,False,False,False,False,True,False,Day,Day,Day,Day
C-3323077,2,2021-05-09 10:32:48.000000000,2021-10-06 12:40:00.000000000,32.466561,-91.759866,32.458423,-91.758734,0.56614159982,Stationary traffic on US-425 S from US-80/Harrison St (US-425) to I-20 (US-425) due to roadwork.,198.0,Learning Pl,L,Rayville,Richland,LA,71269-3534,US,US/Central,KMLU,2021-10-06 11:53:00,77.0,77.0,69.0,29.99,10.0,CALM,0.0,0.0,Fair,False,False,False,False,False,False,False,False,False,False,False,False,False,Day,Day,Day,Day
C-3323078,1,2020-03-26 08:50:28.000000000,2020-03-28 17:30:00.000000000,42.0964,-76.23144,42.0964,-76.23144,0.0,At Valley View Dr - Roadwork. Roadway reduced to 1 lane.,1201.0,State Route 17C,L,Owego,Tioga,NY,13827,US,US/Eastern,KBGM,2020-03-26 08:53:00,34.0,29.0,96.0,28.25,9.0,SSW,6.0,0.0,Cloudy,False,False,False,False,False,False,False,False,False,False,False,True,False,Day,Day,Day,Day
C-3323079,2,2017-06-29 08:41:29.000000000,2017-06-29 15:00:00.000000000,42.630209,-91.46846,42.208364,-91.530769,29.3194741556,Between IA-3/400th St and CR-E16/W Maple St/Main Ridge Rd - Slow moving maintenance vehicle.,,Highway 13,R,Edgewood,Delaware,IA,52042,US,US/Central,KOLZ,2017-06-29 08:35:00,68.0,,100.0,29.77,6.0,SW,5.8,,Mostly Cloudy,False,False,False,False,False,False,False,False,False,False,False,False,False,Day,Day,Day,Day
C-3323080,2,2020-12-15 16:01:05.000000000,2020-12-15 16:25:30.000000000,40.752269,-73.96821,40.752993,-73.969892,0.101256520442,Stationary traffic from United Nations Plz to 2nd Ave due to roadwork.,331.0,E 47th St,L,New York,New York,NY,10017-2313,US,US/Eastern,KNYC,2020-12-15 15:51:00,37.0,30.0,39.0,30.2,10.0,WNW,9.0,0.0,Fair,True,False,False,False,False,False,False,False,False,False,False,True,False,Day,Day,Day,Day
C-3323081,2,2021-02-21 05:25:30.000000000,2021-02-21 18:45:50.000000000,26.231112,-80.15773100000001,26.231901,-80.156662,0.0857991297293,Stationary traffic on FL-814 - FL-845 from NW 27th Ave / SW 27th Ave to NW 2nd St due to roadwork.,2616.0,W Atlantic Blvd,L,Pompano Beach,Broward,FL,33069-5710,US,US/Eastern,KFXE,2021-02-21 05:53:00,68.0,68.0,59.0,30.21,10.0,ENE,16.0,0.0,Fair,False,False,False,False,False,False,False,False,False,False,False,False,False,Night,Night,Night,Night
C-3323082,3,2017-06-19 20:01:04.000000000,2017-06-20 02:01:05.000000000,36.00287,-79.85406,36.05347,-79.6852,10.0624018032,Between I-85-BR/US-29/US-70/Exit 120A and I-840/Exit 131 - Construction work.,,I-85 N,R,Greensboro,Guilford,NC,27407,US,US/Eastern,KGSO,2017-06-19 19:57:00,75.0,,100.0,29.94,2.0,NNW,11.5,0.02,Heavy Rain,False,False,False,False,True,False,False,False,False,False,False,False,False,Day,Day,Day,Day
C-3323083,2,2021-11-03 07:27:00.000000000,2021-11-03 07:55:00.000000000,25.942301,-80.30958299999998,25.942279,-80.305897,0.229020758854,Slow traffic on FL-860 from 82nd Ave (FL-860) to FL-823/57th Ave/Red Rd (FL-860) due to roadwork.,,NW 186th St,R,Hialeah,Miami-Dade,FL,33015,US,US/Eastern,KOPF,2021-11-03 07:53:00,73.0,73.0,81.0,30.04,10.0,N,5.0,0.0,Cloudy,False,False,False,False,False,False,False,False,True,False,False,False,False,Night,Day,Day,Day
C-3323084,2,2021-10-05 11:19:00.000000000,2021-12-29 23:59:00.000000000,39.98258,-86.619811,39.98114,-86.619799,0.0994965524911,Roadwork on W 200 S (IN-75) from I-74 (IN-75) to IN-75.,3874.0,S State Road 75,L,Jamestown,Boone,IN,46147,US,US/Eastern,KEYE,2021-10-05 11:40:00,69.0,69.0,81.0,29.27,10.0,E,3.0,0.0,Cloudy,False,False,False,False,False,False,False,False,False,False,False,False,False,Day,Day,Day,Day
C-3323085,2,2021-02-12 06:44:00.000000000,2021-02-12 19:09:12.000000000,27.082864,-82.426025,27.078985,-82.423754,0.302240839267,Stationary traffic on FL-45 - US-41 S from Corporation Way to Ogden Rd due to roadwork.,1276.0,US Highway 41 Byp S,L,Venice,Sarasota,FL,34285-5541,US,US/Eastern,KVNC,2021-02-12 06:53:00,64.0,64.0,100.0,29.93,10.0,SE,7.0,0.0,Fair,False,False,False,False,False,False,False,False,False,False,False,False,False,Night,Day,Day,Day
C-3323086,3,2020-02-07 09:00:00.000000000,2020-02-07 14:00:00.000000000,42.989647,-88.037994,,,1.14999997616,Right lane closed due to construction on I-41 Northbound between Exit 3 CR-T and Exit 2B CR-NN.,,I-41 N,R,Milwaukee,Milwaukee,WI,53227,US,US/Central,KMWC,2020-02-07 08:45:00,27.0,21.0,31.0,28.91,10.0,NNW,5.0,0.0,Cloudy,False,False,False,False,False,False,False,False,False,False,False,True,False,Day,Day,Day,Day
C-3323087,2,2021-08-28 18:37:30.000000000,2021-10-20 16:29:22.000000000,30.461074,-91.101646,30.466356,-91.105412,0.428360942268,Stationary traffic on US-190 W - US-61 N from US-190/Florida Blvd (US-61) to LA-37/Greenwell Springs Rd (US-61) due to roadwork.,8299.0,Airline Hwy,L,Baton Rouge,East Baton Rouge,LA,70815-8112,US,US/Central,KBTR,2021-08-28 18:53:00,79.0,79.0,97.0,29.88,10.0,ENE,3.0,0.0,Fair,False,False,False,False,False,False,False,False,False,False,False,True,False,Day,Day,Day,Day
C-3323088,2,2018-12-18 09:12:21.000000000,2018-12-22 09:12:49.000000000,40.900385,-76.029771,40.885865,-76.018332,1.16766417165,At PA-309/Exit 138 - Roadwork. Lane blocked.,,I-81 S,R,McAdoo,Schuylkill,PA,18237,US,US/Eastern,KAVP,2018-12-18 08:54:00,26.1,15.6,60.0,30.1,10.0,NW,11.5,0.0,Overcast,False,False,False,False,False,False,False,False,False,False,False,False,False,Day,Day,Day,Day
C-3323089,2,2021-03-03 07:40:00.000000000,2021-06-09 17:06:19.000000000,40.840633,-73.866388,40.839729,-73.871195,0.258916895866,Stationary traffic from White Plains Rd (E Tremont Ave) to Boston Rd/W Farms Rd (E Tremont Ave) due to roadwork.,1825.0,E Tremont Ave,R,Bronx,Bronx,NY,10460-3105,US,US/Eastern,KLGA,2021-06-09 16:34:00,89.0,89.0,45.0,29.9,10.0,E,7.0,0.0,Mostly Cloudy,True,False,True,False,False,False,False,False,True,False,False,True,False,Day,Day,Day,Day
C-3323090,2,2018-10-30 20:32:59.000000000,2018-11-03 20:31:55.000000000,39.379489,-76.518905,39.379622,-76.52039599999998,0.0801575071488,At MD-147/Harford Rd - Construction work. Lane blocked.,3621.0,Putty Hill Ave,R,Nottingham,Baltimore County,MD,21236-3507,US,US/Eastern,KMTN,2018-10-30 20:45:00,48.2,,93.0,30.16,10.0,Calm,,,Clear,False,False,False,False,False,False,False,False,False,False,False,False,False,Night,Night,Night,Night
C-3323091,2,2021-11-24 09:02:30.000000000,2021-11-24 11:11:40.000000000,25.850268,-80.180396,25.850115,-80.185676,0.328479154605,Slow traffic on FL-934 from NE 10th Ave (NE 82nd St/FL-934) to NE 2nd Ave (NE 82nd St/FL-934) due to roadwork.,788.0,NE 82nd St,R,Miami,Miami-Dade,FL,33138-4161,US,US/Eastern,KOPF,2021-11-24 08:53:00,67.0,67.0,63.0,30.19,10.0,N,9.0,0.0,Fair,False,False,False,False,False,False,False,False,False,False,False,False,False,Day,Day,Day,Day
C-3323092,2,2020-12-02 12:41:30.000000000,2020-12-03 04:56:14.000000000,25.769722,-80.333529,25.769646,-80.337255,0.2318986517929999,Slow traffic from FL-826/Palmetto Expy (W Flagler St/FL-968) to FL-985/107th Ave/Avenue of the Americas (W Flagler St/FL-968) due to roadwork.,8507.0,W Flagler St,L,Miami,Miami-Dade,FL,33126,US,US/Eastern,KMIA,2020-12-02 12:53:00,72.0,72.0,53.0,30.19,10.0,NNE,12.0,0.0,Fair,False,False,False,False,False,False,False,False,False,False,False,False,False,Day,Day,Day,Day
C-3323093,2,2021-12-05 16:14:30.000000000,2021-12-05 16:35:35.000000000,33.987418,-83.777431,33.988935,-83.779235,0.147197890877,Stationary traffic from Patrick Mill Rd SW to West Winder Bypass due to roadwork.,68.0,Patrick Mill Rd SW,R,Winder,Barrow,GA,30680-3848,US,US/Eastern,KWDR,2021-12-05 16:15:00,61.0,61.0,68.0,29.13,10.0,CALM,0.0,,Cloudy,False,False,False,False,False,False,False,False,False,False,False,False,False,Day,Day,Day,Day
C-3323094,2,2020-07-31 02:10:23.000000000,2020-08-31 12:00:00.000000000,37.35862,-118.395248,,,0.340000003576,Shoulder closed due to construction work on US-395 Main St Northbound from Jay St to South St.,400.0,S Main St,R,Bishop,Inyo,CA,93514-3421,US,US/Pacific,KBIH,2020-07-31 01:56:00,64.0,64.0,26.0,25.85,10.0,NNW,7.0,0.0,Fair,False,False,False,False,False,False,False,False,False,False,False,False,False,Night,Night,Night,Night
C-3323095,2,2016-10-18 07:01:09.000000000,2016-10-18 13:01:09.000000000,38.887585,-76.954676,38.8947,-76.94946,0.565998618312,Between A St SE and Benning Rd NE - Construction work.,3603.0,Minnesota Ave SE,R,Washington,District Of Columbia,DC,20019-7345,US,US/Eastern,KWBC,2016-10-18 06:38:00,,,,,,North,,,,True,False,False,False,False,False,False,False,False,False,False,True,False,Night,Day,Day,Day
C-3323096,4,2020-10-01 04:00:00.000000000,2020-10-01 13:00:00.000000000,32.748911,-81.659162,32.751101,-81.657416,0.1821821609809999,Road US-301 is closed from Sylvan Ter (US-301) to GA-21/Millen Hwy (US-301) due to roadwork.,,Statesboro Hwy,R,Sylvania,Screven,GA,30467,US,US/Eastern,KJYL,2020-10-01 03:55:00,53.0,53.0,96.0,29.85,10.0,CALM,0.0,0.0,Fair,False,False,False,False,False,False,False,False,False,False,False,False,False,Night,Night,Night,Night
C-3323097,2,2020-02-11 10:42:36.000000000,2020-02-11 14:42:36.000000000,45.06526,-123.7062,45.06526,-123.7062,0.0,At Grand Ronde Rd - Maintenance work.,33015.0,Salmon River Hwy,R,Grand Ronde,Polk,OR,97347-9407,US,US/Pacific,KMMV,2020-02-11 10:39:00,37.0,37.0,96.0,30.25,1.0,CALM,0.0,0.0,Fog,False,False,False,False,False,False,False,False,False,False,False,False,False,Day,Day,Day,Day
C-3323098,2,2020-11-01 14:04:30.000000000,2020-11-01 22:41:24.000000000,40.651467,-73.92316600000002,40.654277,-73.92211,0.2018893987319999,Slow traffic from Utica Ave (Kings Hwy) to NY-27/Remsen Ave/Linden Blvd (Kings Hwy) due to roadwork.,,Kings Hwy,R,Brooklyn,Kings,NY,11203,US,US/Eastern,KJRB,2020-11-01 13:51:00,52.0,,93.0,29.76,2.0,,,0.06,Light Rain,False,False,False,False,False,False,False,False,True,False,False,True,False,Day,Day,Day,Day
C-3323099,2,2021-02-14 07:15:30.000000000,2021-02-14 23:54:00.000000000,47.462493,-115.738584,47.469252,-115.77008700000002,1.54380755894,Slow traffic on I-90 W from Lookout Pass/Exit 0 (Saint Regis) (I-90) to I-90 Bus/Exit 69 (I-90) due to roadwork.,,I-90 W,R,Mullan,Shoshone,ID,83846,US,US/Pacific,KMLP,2021-02-14 07:34:00,-4.0,-19.0,76.0,23.7,10.0,SSE,8.0,0.0,Cloudy,False,False,False,False,False,False,False,False,False,False,False,False,False,Day,Day,Day,Day
C-3323100,2,2020-10-27 19:55:50.000000000,2020-10-28 00:36:51.000000000,41.953101,-74.019539,41.962733,-74.01495200000002,0.706007453487,Road maintenance operations right lane closed on I-87 - NYS Thruway northbound from After Exit 19 (I-87) - Kingston (Rte 28) to After Exit 19 (I-87) - Kingston (Rte 28) until 3:30 PM 10/27/2020 [CARS CAD-203010246],,I-87 N,R,Kingston,Ulster,NY,12401,US,US/Eastern,KPOU,2020-10-27 19:53:00,52.0,52.0,66.0,29.98,10.0,CALM,0.0,0.0,Cloudy,False,False,False,False,False,False,False,False,False,False,False,False,False,Night,Night,Night,Night
C-3323101,2,2020-12-15 09:01:30.000000000,2020-12-15 09:56:00.000000000,39.561326,-107.286268,39.562891,-107.265712,1.100272646,Slow traffic on I-70 E - US-6 E from CR-129/No Name Ln/Exit 119 (I-70) to Exit 121 (I-70) due to roadwork.,,I-70 E,R,Glenwood Springs,Garfield,CO,81601,US,US/Mountain,K5SM,2020-12-15 08:55:00,,,,20.17,10.0,N,10.0,,Cloudy,False,False,False,False,False,False,False,False,False,False,False,False,False,Day,Day,Day,Day
C-3323102,2,2020-11-14 20:06:57.000000000,2020-11-14 20:51:08.000000000,41.81837,-87.62307,41.816553000000006,-87.623661,0.129178656325,Stationary traffic from E 42nd St to I-90 W / W 43rd St due to roadwork.,4200.0,S Michigan Ave,R,Chicago,Cook,IL,60653-3113,US,US/Central,KMDW,2020-11-14 19:53:00,46.0,40.0,86.0,29.01,5.0,SSE,15.0,0.15,Light Rain,False,False,False,False,False,False,False,False,False,False,False,False,False,Night,Night,Night,Night
C-3323103,2,2020-09-18 12:31:00.000000000,2020-09-19 00:07:34.000000000,42.738664,-73.67286,42.739757,-73.682879,0.513999085328,Queuing traffic on NY-7 from Lake Ave (Hoosick St/NY-7) to 6th Ave (NY-7) due to roadwork.,221.0,Hoosick St,L,Troy,Rensselaer,NY,12180-2428,US,US/Eastern,KALB,2020-09-18 12:51:00,60.0,60.0,51.0,29.76,10.0,N,12.0,0.0,Partly Cloudy,True,False,False,False,False,False,False,False,True,False,False,True,False,Day,Day,Day,Day
C-3323104,4,2021-09-13 22:21:33.000000000,2021-09-13 23:20:18.000000000,26.303932,-80.119362,,,3.27999997139,Express lane closed due to construction work on I-95 Northbound from Exit 39 FL-834 Sample Rd to Exit 41 FL-869 10th St.,,I-95 N,R,Deerfield Beach,Broward,FL,33441,US,US/Eastern,KPMP,2021-09-13 21:53:00,81.0,81.0,79.0,30.03,10.0,E,8.0,0.0,Partly Cloudy,False,False,False,False,False,False,False,False,False,False,False,False,False,Night,Night,Night,Night
C-3323105,2,2021-05-26 23:24:00.000000000,2021-11-13 19:42:18.000000000,41.629918,-87.508794,41.628832,-87.509698,0.0883739342018999,Stationary traffic on US-41 S - US-41 N - IN-312 from S Calumet Ave / Hudson St to S Baltimore Ave due to roadwork.,4607.0,Calumet Ave,L,Hammond,Lake,IN,46327-1609,US,US/Central,KGYY,2021-11-13 17:45:00,37.0,28.0,65.0,29.36,10.0,W,17.0,0.0,Cloudy,False,False,True,False,False,False,True,False,False,False,False,False,False,Night,Night,Night,Night
C-3323106,1,2020-05-29 16:59:38.000000000,2020-05-29 17:59:38.000000000,39.18636,-77.66903,39.16577,-77.64759000000002,1.82828562601,At VA-704/Hamilton Station Rd - Construction work.,38502.0,Old Wheatland Rd,R,Waterford,Loudoun,VA,20197-1014,US,US/Eastern,KJYO,2020-05-29 16:52:00,81.0,81.0,67.0,29.57,10.0,S,13.0,0.0,Cloudy,False,False,False,False,False,False,False,False,False,False,False,False,False,Day,Day,Day,Day
C-3323107,2,2021-06-22 06:30:00.000000000,2021-06-22 16:01:00.000000000,36.32578,-119.10763,36.32562,-119.099066,0.4768516807680001,One-Way Traffic closure due to Crack Seal Operation between Route 245/Avenue 296/Road 204 and Road 220,20820.0,Avenue 296,R,Exeter,Tulare,CA,93221-9713,US,US/Pacific,KVIS,2021-06-22 06:56:00,65.0,65.0,70.0,29.59,10.0,NW,7.0,0.0,Fair,False,False,False,False,False,False,False,False,False,False,False,False,False,Day,Day,Day,Day
C-3323108,2,2021-07-10 16:15:30.000000000,2021-10-28 16:04:58.000000000,39.20029,-84.380269,39.198663,-84.381151,0.121931967517,Stationary traffic on US-22 E - US-22 W - OH-3 from Happiness Way to Garden Rd due to roadwork.,7630.0,Kenwood Rd,R,Cincinnati,Hamilton,OH,45236-2802,US,US/Eastern,KLUK,2021-07-17 17:53:00,81.0,81.0,67.0,29.54,10.0,W,7.0,0.0,Partly Cloudy,False,False,True,False,False,False,False,False,True,False,False,True,False,Day,Day,Day,Day
C-3323109,2,2021-09-16 16:29:42.000000000,2021-09-16 16:52:38.000000000,33.204749,-97.08396,33.210289,-97.08347,0.383824256771,Stationary traffic from Gayla Ln to N Mayhill Rd / E McKinney St due to roadwork.,619.0,S Mayhill Rd,L,Denton,Denton,TX,76208-6324,US,US/Central,KDTO,2021-09-16 16:53:00,91.0,91.0,43.0,29.17,10.0,ENE,9.0,0.0,Mostly Cloudy,False,False,False,False,False,False,False,False,False,False,False,True,False,Day,Day,Day,Day
C-3323110,2,2017-08-31 07:00:00.000000000,2017-08-31 16:30:00.000000000,33.088879,-117.089767,,,0.25,Intermittent lane closures due to sewer works on Bernardo Ave both ways from Hamilton Ln to Park Dr.,2438.0,Bernardo Ave,L,Escondido,San Diego,CA,92029-5615,US,US/Pacific,KCRQ,2017-08-31 06:53:00,71.1,,90.0,29.73,7.0,Calm,,,Clear,False,False,False,False,False,False,False,False,False,False,False,False,False,Day,Day,Day,Day
C-3323111,2,2021-06-25 08:13:30.000000000,2021-06-25 11:31:39.000000000,39.920712,-75.18916,39.921662,-75.191046,0.1195665217049999,Slow traffic from S 24th St to B and O Railroad due to roadwork.,2499.0,W Oregon Ave,R,Philadelphia,Philadelphia,PA,19145-4136,US,US/Eastern,KPHL,2021-06-25 07:54:00,65.0,65.0,75.0,30.33,10.0,SSE,3.0,0.0,Mostly Cloudy,False,False,False,False,False,False,False,False,False,False,False,False,False,Day,Day,Day,Day
C-3323112,2,2021-08-26 04:06:58.000000000,2021-08-26 18:00:00.000000000,39.186981,-76.613106,,,3.05999994278,Intermittent lane closures due to construction on MD-2 Ritchie Hwy both ways between Warfield Rd and Dover Rd.,6882.0,Ritchie Hwy,R,Glen Burnie,Anne Arundel,MD,21061-2302,US,US/Eastern,KBWI,2021-08-26 03:54:00,75.0,75.0,84.0,29.96,10.0,CALM,0.0,0.0,Cloudy,False,False,False,False,False,False,False,False,False,False,False,True,False,Night,Night,Night,Night
C-3323113,2,2021-09-20 12:02:00.000000000,2021-09-20 14:08:48.000000000,40.785828,-73.952947,40.786926,-73.95215400000002,0.0864664461717,Slow traffic from E 79th St (Park Ave) to E 97th St (Park Ave) due to roadwork.,1223.0,Park Ave,R,New York,New York,NY,10128-1741,US,US/Eastern,KNYC,2021-09-20 11:51:00,71.0,,66.0,30.25,10.0,,,0.0,Cloudy,True,False,True,False,False,False,False,False,False,False,False,True,False,Day,Day,Day,Day
C-3323114,2,2021-02-11 05:07:30.000000000,2021-02-11 17:58:39.000000000,25.734283,-80.27458,25.734892,-80.27323299999998,0.093804730571,Stationary traffic on FL-976 from SW 40th St to Durango St due to roadwork.,,Bird Rd,R,Miami,Miami-Dade,FL,33146,US,US/Eastern,KMIA,2021-02-11 04:53:00,73.0,73.0,87.0,30.04,10.0,ESE,7.0,0.0,Partly Cloudy,False,False,False,False,False,False,False,False,False,False,False,False,False,Night,Night,Night,Night
C-3323115,2,2020-09-03 02:52:27.000000000,2020-09-03 12:45:00.000000000,39.108242,-94.567936,39.107194,-94.569394,0.106553184063,Construction on I-35 SB near I-70 Construction. Left lane closed.,,I-29 S,R,Kansas City,Jackson,MO,64106,US,US/Central,KMKC,2020-09-03 02:54:00,69.0,69.0,87.0,29.04,10.0,SSW,6.0,0.0,Fair,False,False,False,False,False,False,False,False,False,False,False,False,False,Night,Night,Night,Night
C-3323116,2,2021-10-28 07:45:44.000000000,2021-10-28 15:45:00.000000000,40.665646,-73.739172,40.665866,-73.744642,0.287080008628,NYSDOT - Region 11: Construction construction on NY 27 westbound at 233rd Street (New York) 1 Right lane of 3 lanes closed from 10:00 A.M. until 3:00 P.M.,14025.0,Brookville Blvd,L,Rosedale,Queens,NY,11422-2013,US,US/Eastern,KJFK,2021-10-28 07:51:00,51.0,51.0,74.0,29.95,10.0,NNW,6.0,0.0,Mostly Cloudy,False,False,True,False,True,False,False,False,False,False,False,True,False,Day,Day,Day,Day
C-3323117,2,2020-09-29 17:24:00.000000000,2020-09-30 18:16:30.000000000,26.133655,-80.20236,26.133869,-80.20235799999998,0.0147865122273999,Construction on US-441 NB near SUNRISE BLVD Construction. Right lane closed.,3998.0,NW 8th Pl,L,Fort Lauderdale,Broward,FL,33311,US,US/Eastern,KFXE,2020-09-29 17:53:00,85.0,85.0,69.0,29.82,10.0,W,5.0,0.0,Mostly Cloudy,False,False,False,False,False,False,False,False,False,False,False,False,False,Day,Day,Day,Day
C-3323118,4,2021-08-10 09:31:41.000000000,2021-08-29 02:57:11.000000000,35.504304,-80.68502,35.501794,-80.70062,0.8944409030060001,Closed road from Pagemont Rd to Beaver Rd due to roadwork.,6296.0,Tuckaseegee Rd,L,Kannapolis,Cabarrus,NC,28081-9517,US,US/Eastern,KJQF,2021-08-10 09:50:00,79.0,79.0,83.0,29.48,10.0,CALM,0.0,0.0,Fair,False,False,False,False,False,False,False,False,False,False,False,False,False,Day,Day,Day,Day
C-3323119,2,2021-08-16 12:24:33.000000000,2021-08-16 14:28:00.000000000,40.429361,-78.389954,40.428156,-78.39022800000002,0.0844955577493,Slow traffic on US-22 E - US-22 W - PA-36 from Mulberry St to S Juniata St due to roadwork.,,Mulberry St,R,Hollidaysburg,Blair,PA,16648,US,US/Eastern,KAOO,2021-08-16 12:11:00,68.0,68.0,81.0,28.6,10.0,CALM,0.0,0.0,Cloudy,False,False,False,False,False,False,False,False,False,False,False,False,False,Day,Day,Day,Day
C-3323120,2,2021-09-02 06:31:30.000000000,2021-09-02 06:53:00.000000000,35.622321,-84.273986,35.626081,-84.27363100000002,0.260555204858,Stationary traffic on TN-72 from Bat Creek Dr to Lakeside Rd due to roadwork.,160.0,Bat Creek Dr,L,Vonore,Monroe,TN,37885-2081,US,US/Eastern,KTYS,2021-09-02 06:53:00,66.0,66.0,93.0,28.89,10.0,NNE,7.0,0.0,Partly Cloudy,False,False,False,False,False,False,False,False,False,False,False,False,False,Night,Night,Day,Day
C-3323121,2,2021-08-31 17:16:36.000000000,2021-08-31 17:39:24.000000000,40.589783,-74.166625,40.592522,-74.16313199999998,0.263442627757,Stationary traffic from Richmond Hill Rd (Richmond Ave) to Victory Blvd (Richmond Ave) due to roadwork.,2407.0,Richmond Ave,L,Staten Island,Richmond,NY,10314-3906,US,US/Eastern,KLDJ,2021-08-31 17:15:00,82.0,82.0,42.0,29.76,10.0,NNW,7.0,0.0,Fair,False,False,False,False,False,False,False,False,False,True,False,True,False,Day,Day,Day,Day
C-3323122,2,2021-11-19 10:34:30.000000000,2021-11-19 10:58:30.000000000,28.593122,-81.368422,28.593052,-81.36506800000002,0.203534041664,Stationary traffic on FL-426 from I-4 (FL-426) to US-92/S Orlando Ave (FL-426) due to roadwork.,1436.0,W Fairbanks Ave,L,Winter Park,Orange,FL,32789-4806,US,US/Eastern,KORL,2021-11-19 10:53:00,79.0,79.0,66.0,30.06,10.0,NNE,10.0,0.0,Partly Cloudy,False,False,True,False,False,False,False,False,False,False,False,True,False,Day,Day,Day,Day
C-3323123,2,2021-03-03 04:17:55.000000000,2021-03-09 09:53:10.000000000,38.311977,-84.13680500000002,38.313611,-84.13552299999998,0.132576618313,Roadwork from Cemetery Rd / Locust Ave to Carpenter Rd.,452.0,Maysville Rd,R,Carlisle,Nicholas,KY,40311-9713,US,US/Eastern,KIOB,2021-03-03 04:15:00,27.0,27.0,86.0,28.99,10.0,CALM,0.0,0.0,Fair,False,False,False,False,False,False,False,False,False,False,False,False,False,Night,Night,Night,Night
C-3323124,2,2021-04-02 05:42:00.000000000,2021-04-02 14:05:49.000000000,33.512764000000004,-112.16874,33.509392,-112.167838,0.238707429195,Stationary traffic from W Colter St to N 47th Ave due to roadwork.,5169.0,N 51st Ave,R,Glendale,Maricopa,AZ,85301-7604,US,US/Mountain,KGEU,2021-04-02 05:38:00,72.0,72.0,29.0,28.67,10.0,NE,5.0,0.0,Cloudy,False,False,False,False,False,False,True,False,False,False,False,False,False,Night,Night,Day,Day
C-3323125,2,2021-06-11 07:30:00.000000000,2021-06-11 16:46:00.000000000,38.634486,-119.523698,38.610914,-119.519798,1.6422201852899998,Lane closure due to Utility Work between and Topaz Lane,115796.0,US Highway 395,R,Topaz,Mono,CA,96133-9123,US,US/Pacific,KBAN,2021-06-11 07:35:00,46.0,46.0,29.0,25.33,10.0,CALM,0.0,0.0,Fair,False,False,False,False,False,False,False,False,False,False,False,False,False,Day,Day,Day,Day
C-3323126,3,2018-11-28 08:30:00.000000000,2018-11-30 05:00:00.000000000,38.85948,-77.36017,38.87043,-77.29943,3.3541328104900003,Between VA-286/Fairfax Co Pky/Exit 55 and VA-123/Exit 60 - Narrow lanes. Queuing traffic. Maintenance work. Three lanes blocked. Lane blocked.,,I-66 E,R,Fairfax,Fairfax County,VA,22033,US,US/Eastern,KIAD,2018-11-28 08:52:00,32.0,18.1,50.0,29.83,10.0,NW,27.6,,Mostly Cloudy,False,False,False,False,True,False,False,False,False,False,False,False,False,Day,Day,Day,Day
C-3323127,2,2020-11-18 07:07:32.000000000,2020-11-18 15:07:32.000000000,45.422104,-122.576512,45.41993400000001,-122.575592,0.156430320725,Road maintenance operations are occurring causing no to minimum delays. Use caution.,,Cascade Hwy,R,Portland,Clackamas,OR,97222,US,US/Pacific,KPDX,2020-11-18 06:53:00,47.0,43.0,93.0,29.6,10.0,SE,9.0,0.08,Light Rain,False,False,False,False,True,False,False,False,False,False,False,True,False,Night,Day,Day,Day
C-3323128,2,2021-09-08 07:45:00.000000000,2021-09-10 02:58:43.000000000,40.822781,-73.59258299999998,40.821236,-73.591515,0.1204727818799999,Roadwork from Northern Blvd to Pioneer Blvd.,,Gold Coast Rd,R,Glen Head,Nassau,NY,11545,US,US/Eastern,KFRG,2021-09-08 07:53:00,72.0,72.0,76.0,29.83,10.0,SSW,9.0,0.0,Fair,False,False,False,False,False,False,False,False,False,False,False,False,False,Day,Day,Day,Day
C-3323129,2,2020-09-26 13:24:30.000000000,2020-09-27 00:22:03.000000000,42.244338,-88.962985,42.226827,-88.979454,1.4743231755,Slow traffic on I-39 from Cherry Valley Toll Plaza (I-39) to US-20 (I-39) due to roadwork.,,I-39 S,R,Cherry Valley,Winnebago,IL,61016,US,US/Central,KRFD,2020-09-26 13:14:00,72.0,72.0,73.0,28.97,10.0,S,18.0,0.0,Cloudy,False,False,False,False,False,False,False,False,False,False,False,False,False,Day,Day,Day,Day
C-3323130,2,2021-12-15 00:22:00.000000000,2021-12-16 02:59:59.000000000,40.76603400000001,-74.023046,40.76654,-74.02260600000002,0.0418622609200999,Roadwork on Weehawken from Lincoln Tunl E to NJ-495 W - NJ-495 E.,,NJ-495 W,R,Weehawken,Hudson,NJ,07086,US,US/Eastern,KNYC,2021-12-15 00:51:00,43.0,37.0,40.0,30.53,10.0,NE,10.0,0.0,Fair,False,False,False,False,False,False,False,False,False,False,False,False,False,Night,Night,Night,Night
C-3323131,2,2021-09-07 15:54:01.000000000,2021-09-07 17:57:01.000000000,42.03691,-88.341105,42.035106,-88.338901,0.168311162756,Stationary traffic on County Hwy-34 from Win Haven Dr to Brookside Dr due to roadwork.,,Win Haven Dr,R,Elgin,Kane,IL,60123,US,US/Central,KDPA,2021-09-07 15:52:00,75.0,75.0,79.0,28.83,10.0,SW,8.0,0.0,Partly Cloudy,False,False,False,False,False,False,False,False,False,False,False,False,False,Day,Day,Day,Day
C-3323132,2,2021-06-01 07:01:00.000000000,2021-06-01 17:44:00.000000000,38.641399,-122.764895,38.638966,-122.769234,0.288257961303,Construction on CA-128 WB near FOOTE CRK Expect long delays.,10601.0,Kreck Rd,R,Healdsburg,Sonoma,CA,95448,US,US/Pacific,KSTS,2021-06-01 06:53:00,52.0,52.0,89.0,29.79,7.0,CALM,0.0,0.0,Fair,False,False,False,False,False,False,False,False,False,False,False,False,False,Day,Day,Day,Day
C-3323133,2,2021-04-17 08:40:07.000000000,2021-12-07 11:20:00.000000000,25.925989,-80.158153,25.926031,-80.15397,0.259947048872,Stationary traffic on FL-826 from 19th Ave (FL-826) to US-1/FL-5/Biscayne Blvd (FL-826) due to roadwork.,2086.0,NE 163rd St,R,North Miami Beach,Miami-Dade,FL,33162-4902,US,US/Eastern,KHWO,2021-12-07 10:53:00,79.0,79.0,58.0,30.11,10.0,CALM,0.0,0.0,Fair,False,False,True,False,False,False,False,False,False,False,False,True,False,Day,Day,Day,Day
C-3323134,2,2019-12-12 00:32:47.000000000,2020-05-31 23:59:00.000000000,41.68196500000001,-88.380112,,,12.3000001907,Intermittent lane closures due to construction work on US-34 both ways between IL-47 Bridge St and CR-9A Orchard Rd.,,US Highway 34,R,Oswego,Kendall,IL,60543,US,US/Central,KARR,2019-12-12 00:52:00,18.0,8.0,81.0,29.61,6.0,ESE,8.0,0.0,Haze,False,False,False,False,False,False,False,False,False,False,False,True,False,Night,Night,Night,Night
C-3323135,3,2021-01-21 21:00:00.000000000,2021-01-22 05:00:00.000000000,34.022434000000004,-117.550468,,,51.13000106810001,Intermittent lane closures due to construction work on I-15 both ways from Exit 90 Weirick Rd to CA-60.,,I-15 S,R,Mira Loma,Riverside,CA,91752,US,US/Pacific,KRAL,2021-01-21 20:53:00,56.0,56.0,67.0,29.17,,NNE,3.0,0.0,Fair,False,False,False,False,False,False,False,False,False,False,False,False,False,Night,Night,Night,Night
C-3323136,2,2020-09-25 04:01:00.000000000,2020-09-25 12:46:00.000000000,38.758351,-121.261324,38.787712,-121.222476,2.91454786737,Construction on I-80 EB near ATLANTIC ST Construction. Expect long delays.,,I-80 E,R,Roseville,Placer,CA,95661,US,US/Pacific,KMCC,2020-09-25 03:45:00,55.0,55.0,82.0,29.82,10.0,SE,9.0,,Fair,False,False,False,False,True,False,False,False,False,False,False,False,False,Night,Night,Night,Night
C-3323137,2,2020-05-04 08:49:00.000000000,2021-12-30 13:43:20.000000000,27.916737,-82.785526,27.914917,-82.787864,0.190233085933,Slow traffic on US-19 Alt S - FL-686 - FL-595 from 2nd St NE to US-19 Alt due to roadwork.,2.0,2nd St NE,R,Largo,Pinellas,FL,33770,US,US/Eastern,KPIE,2021-12-20 17:53:00,67.0,67.0,87.0,30.0,10.0,NNE,15.0,0.0,Light Rain,False,False,False,False,False,False,False,False,True,False,False,False,False,Day,Day,Day,Day
C-3323138,2,2021-04-04 05:24:00.000000000,2021-12-09 07:55:30.000000000,44.890748,-93.264731,44.891128,-93.267831,0.15399763098,Construction on MN-62 WB near PORTLAND AVE Expect delays.,,Crosstown Hwy W,R,Minneapolis,Hennepin,MN,55417,US,US/Central,KMSP,2021-05-24 06:25:00,67.0,67.0,97.0,29.09,2.0,SE,8.0,0.0,Fog,False,False,False,False,False,False,False,False,True,False,False,False,False,Night,Night,Night,Day
C-3323139,2,2020-07-30 04:27:00.000000000,2020-07-30 13:45:00.000000000,40.480398,-74.30166,40.475072,-74.29905500000002,0.392634729583,Construction on GARDEN STATE PKWY SB near NORTH Construction. Left lane closed.,,Garden State Pkwy S,R,Sayreville,Middlesex,NJ,08872,US,US/Eastern,KLDJ,2020-07-30 04:35:00,75.0,75.0,62.0,29.85,10.0,CALM,0.0,0.0,Fair,False,False,False,False,False,False,False,False,False,False,False,False,False,Night,Night,Night,Day
C-3323140,2,2021-02-14 22:45:30.000000000,2021-02-14 23:29:30.000000000,29.751469,-98.054499,29.76952,-98.041776,1.46215329109,Slow traffic on Vetter Memorial Hwy - I-35 N from Conrads Ln/Kohlenberg Rd/Exit 193 (I-35) to Watson Ln/Exit 195 (I-35) due to roadwork.,,I-35 N,R,New Braunfels,Comal,TX,78130,US,US/Central,KBAZ,2021-02-14 22:51:00,18.0,2.0,71.0,29.54,8.0,N,20.0,0.0,Cloudy,False,False,False,False,False,False,False,False,False,False,False,False,False,Night,Night,Night,Night
C-3323141,2,2021-04-07 10:00:00.000000000,2021-04-10 15:52:09.000000000,40.742851,-73.19386800000002,40.743361,-73.18987800000002,0.211820803925,Construction on SUNRISE HIGHWAY SERVICE RD EB near CARLETON AVE Expect delays.,3099.0,Sunrise Hwy,L,East Islip,Suffolk,NY,11730,US,US/Eastern,KISP,2021-04-07 09:56:00,54.0,54.0,49.0,29.9,10.0,NNW,6.0,0.0,Mostly Cloudy,False,False,False,False,False,False,False,False,False,False,False,False,False,Day,Day,Day,Day
C-3323142,3,2019-08-08 18:54:41.000000000,2019-08-12 18:54:36.000000000,41.4797,-81.66713,41.47952,-81.66431,0.146503887236,Ramp to I-77 - Roadwork.,,I-490 E,R,Cleveland,Cuyahoga,OH,44115,US,US/Eastern,KBKL,2019-08-08 18:53:00,80.0,80.0,58.0,29.15,10.0,W,10.0,0.0,Fair,False,False,False,False,False,False,False,False,False,False,False,True,False,Day,Day,Day,Day
C-3323143,2,2020-08-26 14:57:30.000000000,2020-08-27 02:20:20.000000000,42.011822,-87.713135,42.012556,-87.71146999999998,0.0993881922714,Stationary traffic from N Kimball Ave to Howard St due to resurfacing work.,3363.0,W Touhy Ave,L,Lincolnwood,Cook,IL,60712-2716,US,US/Central,KORD,2020-08-26 14:51:00,93.0,93.0,42.0,29.2,10.0,SW,14.0,0.0,Partly Cloudy,False,False,False,False,False,False,False,False,False,False,False,False,False,Day,Day,Day,Day
C-3323144,2,2020-12-01 13:39:30.000000000,2020-12-01 23:45:11.000000000,39.973577,-75.323048,39.973645,-75.319491,0.188398470322,Slow traffic on PA-3 from Fairlamb Ave to Garfield Ave due to roadwork.,1466.0,W Chester Pike,L,Havertown,Delaware,PA,19083-2813,US,US/Eastern,KPHL,2020-12-01 13:54:00,45.0,36.0,56.0,29.63,10.0,WSW,24.0,0.0,Mostly Cloudy / Windy,False,False,False,False,False,False,False,False,False,False,False,False,False,Day,Day,Day,Day
C-3323145,2,2016-10-12 09:01:27.000000000,2016-10-12 15:01:27.000000000,39.32232800000001,-76.472899,39.32233,-76.472724,0.00935480697276,At MD-150/Eastern Blvd - Construction work.,1016.0,Mace Ave,L,Essex,Baltimore,MD,21221-4741,US,US/Eastern,KMTN,2016-10-12 08:45:00,51.8,,100.0,30.37,10.0,Calm,,,Scattered Clouds,False,False,False,False,False,False,False,False,False,False,False,False,False,Day,Day,Day,Day
C-3323146,3,2019-09-12 22:02:12.000000000,2020-04-15 14:01:07.000000000,26.19277,-80.15167,26.00717,-80.167,12.858967303599998,Between Andrews Ave and SR-820/Hollywood Blvd/Exit 20 - Construction work.,,I-95 S,R,Fort Lauderdale,Broward,FL,33309,US,US/Eastern,KFXE,2019-09-12 21:53:00,83.0,83.0,77.0,29.91,10.0,ENE,14.0,0.0,Partly Cloudy,False,False,False,False,False,False,False,False,False,False,False,False,False,Night,Night,Night,Night
C-3323147,2,2021-02-19 03:42:00.000000000,2021-02-19 04:14:30.000000000,32.269496000000004,-92.093141,32.238372,-92.098745,2.17525123817,Slow traffic on US-165 S from Bosco Ln/Cordell Ln (US-165) to LA-847 (US-165) due to roadwork.,606.0,Highway 165,R,Columbia,Caldwell,LA,71418-3116,US,US/Central,KMLU,2021-02-19 03:53:00,23.0,16.0,88.0,30.34,10.0,N,6.0,0.0,Fair,False,False,False,False,False,False,False,False,False,False,False,False,False,Night,Night,Night,Night
C-3323148,2,2020-09-22 19:27:30.000000000,2020-09-22 20:39:30.000000000,40.748613,-73.895301,40.74896500000001,-73.89178299999998,0.1857443075589999,Queuing traffic from Broadway to 74th St due to resurfacing work.,7003.0,37th Ave,L,Jackson Heights,Queens,NY,11372-3922,US,US/Eastern,KLGA,2020-09-22 19:51:00,70.0,70.0,32.0,29.87,10.0,WNW,10.0,0.0,Partly Cloudy,True,False,False,False,False,False,False,False,True,False,False,True,False,Night,Night,Day,Day
C-3323149,2,2021-12-29 17:31:30.000000000,2021-12-29 17:51:30.000000000,38.474012,-106.334882,38.465961,-106.341553,0.663073121409,Slow traffic on US-50 W - US-50 E from US-285/Kimberlin Ln (US-50) to CO-114 (US-50) due to roadwork.,,US Highway 50,R,Gunnison,Gunnison,CO,81230,US,US/Mountain,KGUC,2021-12-29 17:56:00,25.0,15.0,58.0,22.35,10.0,W,10.0,0.0,Mostly Cloudy,False,False,False,False,False,False,False,False,False,False,False,False,False,Night,Night,Day,Day
C-3323150,3,2020-06-04 19:02:17.000000000,2020-06-08 19:01:33.000000000,29.81785,-95.37722,29.70601,-95.3019,8.95109839466,Between Allen Pky/Houston Ave/Exit 47 and US-59/TX-288/Exit 46 - Roadwork. Two lanes closed.,,I-45 S,R,Houston,Harris,TX,77022,US,US/Central,KMCJ,2020-06-04 18:53:00,86.0,86.0,63.0,29.8,10.0,S,14.0,0.0,Mostly Cloudy,False,False,False,False,True,False,False,False,False,False,False,False,False,Day,Day,Day,Day
C-3323151,2,2020-09-28 19:07:30.000000000,2020-09-28 22:57:49.000000000,41.229524,-82.65805300000002,41.223472,-82.62931999999998,1.5505821451,Roadwork on US-20 from S Main St (OH-18/S Main St/US-20) to CR-114/Ridge Rd (OH-18/US-20).,1657.0,US Highway 20 W,L,Norwalk,Huron,OH,44857-9549,US,US/Eastern,KPCW,2020-09-28 19:12:00,57.0,57.0,93.0,29.1,10.0,WNW,7.0,0.0,Light Rain,False,False,False,False,False,False,False,False,False,False,False,False,False,Day,Day,Day,Day
C-3323152,2,2021-07-19 02:48:15.000000000,2021-07-23 01:04:00.000000000,37.693794,-112.158426,37.683349,-112.123605,2.03608866513,Roadwork on Toms Best Spring Rd (UT-12) from Center St (Main St/UT-12) to UT-12 - UT-63.,13542.0,E Highway 12,R,Bryce,Garfield,UT,84764,US,US/Mountain,,,,,,,,,,,,False,False,False,False,False,False,False,False,False,False,False,False,False,Night,Night,Night,Night
C-3323153,2,2021-09-27 19:52:30.000000000,2021-09-27 22:06:57.000000000,33.507158000000004,-112.047533,33.510042,-112.047524,0.199266096543,Stationary traffic from E Highland Ave (N 16th St) to E Colter St (N 16th St) due to roadwork.,4784.0,N 16th St,L,Phoenix,Maricopa,AZ,85016-4604,US,US/Mountain,KPHX,2021-09-27 19:51:00,83.0,83.0,39.0,28.66,10.0,NE,7.0,0.0,Mostly Cloudy,False,False,False,False,False,False,False,False,False,False,False,False,False,Night,Night,Night,Night
C-3323154,2,2020-09-23 15:50:00.000000000,2020-09-24 09:52:38.000000000,38.952015,-81.795197,38.961535,-81.784657,0.867959626057,Roadwork on OH-124 from US-33 (OH-338/OH-124) to OH-338 (OH-124).,55098.0,State Route 124,L,Portland,Meigs,OH,45770-9704,US,US/Eastern,K3I2,2020-09-23 15:55:00,73.0,73.0,52.0,29.22,10.0,W,6.0,0.0,Fair,False,False,False,False,False,False,False,False,False,False,False,False,False,Day,Day,Day,Day
