ID,Severity,Start_Time,End_Time,Start_Lat,Start_Lng,End_Lat,End_Lng,Distance(mi),Description,Number,Street,Side,City,County,State,Zipcode,Country,Timezone,Airport_Code,Weather_Timestamp,Temperature(F),Wind_Chill(F),Humidity(%),Pressure(in),Visibility(mi),Wind_Direction,Wind_Speed(mph),Precipitation(in),Weather_Condition,Amenity,Bump,Crossing,Give_Way,Junction,No_Exit,Railway,Roundabout,Station,Stop,Traffic_Calming,Traffic_Signal,Turning_Loop,Sunrise_Sunset,Civil_Twilight,Nautical_Twilight,Astronomical_Twilight
C-6127196,2,2021-08-01 11:55:16.000000000,2021-08-01 12:24:50.000000000,33.241006,-92.729587,33.243859,-92.729472,0.197235511598,Stationary traffic on AR-335 from Randall Ln to Sleepy Hollow Rd due to roadwork.,,N Wyatt Dr,R,El Dorado,Union,AR,71730,US,US/Central,KELD,2021-08-01 11:53:00,92.0,92.0,59.0,29.73,10.0,VAR,5.0,0.0,Fair,False,False,False,False,False,False,False,False,False,False,False,False,False,Day,Day,Day,Day
C-6127197,2,2017-04-21 07:01:15.000000000,2017-04-21 13:01:15.000000000,39.07284,-84.35204,39.07284,-84.35204,0.0,At Five Mile Rd - Construction work.,,Beechmont Ave,R,Cincinnati,Hamilton,OH,45230,US,US/Eastern,KLUK,2017-04-21 06:53:00,54.0,,83.0,29.99,10.0,North,6.9,,Partly Cloudy,False,False,True,False,False,False,False,False,False,False,False,True,False,Day,Day,Day,Day
C-6127198,1,2019-12-10 18:47:00.000000000,2020-03-10 03:58:00.000000000,40.769619,-73.911552,,,0.0,Road closed intermittently due to construction work on 24th Ave both ways from 37th St to Astoria Blvd.,3805.0,Astoria Blvd,L,Astoria,Queens,NY,11103-3608,US,US/Eastern,KLGA,2019-12-10 18:51:00,55.0,55.0,69.0,29.91,10.0,W,14.0,0.01,Cloudy,False,False,True,False,False,False,False,False,False,True,False,False,False,Night,Night,Night,Night
C-6127199,4,2017-11-13 19:21:53.000000000,2017-11-14 01:21:53.000000000,32.59762,-117.08904,32.59762,-117.08904,0.0,At Main St/Exit 5B - Entry ramp closed. Construction work.,,I-5 N,R,Chula Vista,San Diego,CA,91911,US,US/Pacific,KNRS,2017-11-13 18:56:00,63.0,,78.0,30.07,7.0,NNW,5.8,,Mostly Cloudy,False,False,False,False,False,False,False,False,False,False,False,False,False,Night,Night,Night,Night
C-6127200,2,2020-11-14 16:02:30.000000000,2020-11-15 02:18:37.000000000,43.662986,-116.353158,43.661924,-116.354546,0.100982201228,Slow traffic on US-20 W - ID-55 - US-20 E - US-26 E - US-26 W from Stone Rd to W Bristol Heights Dr due to roadwork.,13389.0,E Chinden Blvd,R,Boise,Ada,ID,83713-1335,US,US/Mountain,KBOI,2020-11-14 15:53:00,43.0,43.0,51.0,27.19,10.0,CALM,0.0,0.0,Cloudy,False,False,True,False,False,False,False,False,False,False,False,False,False,Day,Day,Day,Day
C-6127201,2,2021-05-21 14:38:09.000000000,2021-11-03 19:56:30.000000000,35.416241,-93.386954,35.451461,-93.461784,4.86499942505,Slow traffic on I-40 W from US-64/Exit 64 (I-40) to AR-103/Exit 58 (I-40) due to roadwork.,,I-40 W,R,Lamar,Johnson,AR,72846,US,US/Central,KRUE,2021-06-02 09:53:00,66.0,66.0,93.0,29.53,10.0,W,8.0,0.0,Cloudy,False,False,False,False,True,False,False,False,False,False,False,False,False,Day,Day,Day,Day
C-6127202,2,2021-06-19 09:41:30.000000000,2021-06-19 15:45:16.000000000,29.583806,-95.181247,29.5794,-95.177233,0.3883913406840001,Roadwork on Dixie Farm Rd from FM-518 exit [23] to I-45 N - I-45 S.,,I-45 N,R,Friendswood,Harris,TX,77546,US,US/Central,KLVJ,2021-06-19 09:53:00,86.0,86.0,61.0,29.87,10.0,W,6.0,0.0,Fair,False,False,False,False,False,False,False,False,False,False,False,False,False,Day,Day,Day,Day
C-6127203,2,2019-08-22 19:00:00.000000000,2019-08-23 10:00:00.000000000,39.60834000000001,-106.44906,39.609078,-106.453263,0.2294658507759999,At US-24/US-6/Exit 171 - Maintenance work.,,I-70 E,R,Vail,Eagle,CO,81657,US,US/Mountain,KCCU,2019-08-22 18:53:00,58.0,58.0,41.0,20.93,10.0,SSW,9.0,0.0,Cloudy,False,False,False,False,True,False,False,False,False,False,False,False,False,Day,Day,Day,Day
C-6127204,2,2021-11-12 13:08:30.000000000,2021-11-12 15:20:01.000000000,26.256871000000004,-80.282116,26.259035,-80.28161999999998,0.152644228514,Stationary traffic from NW 20th Dr to NW 115th Dr due to roadwork.,,NW 20th Dr,R,Coral Springs,Broward,FL,33071,US,US/Eastern,KFXE,2021-11-12 12:53:00,83.0,83.0,72.0,30.02,10.0,SW,6.0,0.0,Partly Cloudy,False,False,False,False,False,False,False,False,False,False,False,False,False,Day,Day,Day,Day
C-6127205,2,2020-11-25 05:37:38.000000000,2020-11-25 18:00:00.000000000,39.391369,-79.46344,,,0.0,Intermittent lane closures due to construction on MD-39 Hutton Rd both ways at Otterbein St.,2.0,Otterbein St,R,Oakland,Garrett,MD,21550,US,US/Eastern,K2G4,2020-11-25 05:35:00,37.0,31.0,56.0,27.07,10.0,SSW,9.0,,Fair,False,False,False,False,False,False,False,False,False,False,False,False,False,Night,Night,Night,Night
C-6127206,2,2020-07-09 07:00:00.000000000,2020-07-13 13:15:00.000000000,39.54719,-119.733831,39.544348,-119.733779,0.196383042086,Construction on NV-659 near GREENBRAE DR Drive with caution.,1521.0,N McCarran Blvd,L,Sparks,Washoe,NV,89431-3865,US,US/Pacific,KRNO,2020-07-09 06:55:00,60.0,60.0,41.0,25.57,10.0,S,3.0,0.0,Fair,False,False,False,False,False,False,False,False,False,False,False,True,False,Day,Day,Day,Day
C-6127207,4,2021-04-27 17:30:00.000000000,2021-04-28 06:30:00.000000000,32.572692,-85.014193,32.607134,-85.026037,2.47758865823,GA-219 is closed from Double Churches Rd/Spring Harbor Dr (GA-219) to GA-315 (GA-219) due to roadwork.,8588.0,River Rd,R,Columbus,Muscogee,GA,31904-1404,US,US/Eastern,KCSG,2021-04-27 17:51:00,82.0,82.0,44.0,29.65,10.0,VAR,7.0,0.0,Fair,False,False,False,False,False,False,False,False,False,False,False,False,False,Day,Day,Day,Day
C-6127208,2,2021-10-23 22:27:30.000000000,2021-12-23 18:44:30.000000000,40.757673,-73.86568199999998,40.757178,-73.870421,0.250371593383,Slow traffic on NY-25A from 108th St (Northern Blvd/NY-25A) to Junction Blvd (Northern Blvd/NY-25A) due to roadwork.,,103rd St,R,Corona,Queens,NY,11368,US,US/Eastern,KLGA,2021-10-23 22:51:00,55.0,55.0,64.0,29.99,10.0,WNW,12.0,0.0,Partly Cloudy,True,False,False,False,False,False,False,False,True,False,False,True,False,Night,Night,Night,Night
C-6127209,2,2021-04-07 06:46:30.000000000,2021-04-07 15:40:50.000000000,33.305323,-111.91276299999998,33.306384,-111.91109099999998,0.1212265856289999,Stationary traffic from N 79th St to W Tyson St due to roadwork.,4085.0,W Chandler Blvd,L,Chandler,Maricopa,AZ,85226-3732,US,US/Mountain,KCHD,2021-04-07 06:47:00,55.0,55.0,12.0,28.55,10.0,ENE,7.0,,Fair,False,False,False,False,False,False,False,False,False,False,False,False,False,Day,Day,Day,Day
C-6127210,2,2021-09-06 17:05:58.000000000,2021-09-07 03:00:49.000000000,27.971964,-81.71199,27.971053,-81.71041899999999,0.114682883091,Roadwork on Cypress Cove Rd from Lake Eloise Ln to County Hwy-540A.,1681.0,Eloise Loop Rd,R,Winter Haven,Polk,FL,33884,US,US/Eastern,KGIF,2021-09-06 16:53:00,86.0,86.0,63.0,29.78,10.0,W,8.0,0.0,Fair,False,False,False,False,False,False,False,False,False,False,False,False,False,Day,Day,Day,Day
C-6127211,2,2020-11-20 13:10:30.000000000,2020-11-21 01:00:43.000000000,28.043337,-82.676852,28.043628,-82.677739,0.0577063697644,Stationary traffic on FL-584 from FL-580 (FL-584) to Forest Lake Blvd (FL-584) due to roadwork.,3777.0,Tampa Rd,L,Oldsmar,Pinellas,FL,34677-3004,US,US/Eastern,KPIE,2020-11-20 12:53:00,77.0,77.0,64.0,30.28,10.0,NE,9.0,0.0,Fair,False,False,False,False,False,False,False,False,False,False,False,True,False,Day,Day,Day,Day
C-6127212,3,2018-08-02 18:00:00.000000000,2018-08-03 06:00:00.000000000,33.342735,-87.02750400000002,,,34.8800010681,Intermittent lane closures due to construction on I-459 both ways from Exit 10 AL-150 John Hawkins Pkwy to I-59 I-20.,,I-59 N,R,Bessemer,Jefferson,AL,35022,US,US/Central,KEET,2018-08-02 17:53:00,82.0,,67.0,29.97,10.0,ESE,4.6,,Scattered Clouds,False,False,False,False,False,False,False,False,False,False,False,False,False,Day,Day,Day,Day
C-6127213,2,2018-08-13 10:02:33.000000000,2018-08-13 16:02:33.000000000,42.4262,-71.10309000000002,42.50559000000001,-71.12040999999998,5.555907372359999,Between RT-28/Fellsway West/Exit 33 and I-95/RT-128/Exit 37 - Construction work.,,I-93 N,R,Medford,Middlesex,MA,02155,US,US/Eastern,KBOS,2018-08-13 09:54:00,70.0,,93.0,30.09,0.5,North,10.4,,Overcast,False,False,False,False,True,False,False,False,False,False,False,False,False,Day,Day,Day,Day
C-6127214,2,2020-10-23 12:35:30.000000000,2020-10-23 21:26:38.000000000,28.254825,-81.478623,28.255448,-81.484365,0.35210390926,Stationary traffic on US-17 from CR-535/Broad St/Ham Brown Rd (US-92/US-17) to Poinciana Blvd (US-92/US-17) due to resurfacing work.,4924.0,S Orange Blossom Trl,L,Kissimmee,Osceola,FL,34758-2039,US,US/Eastern,KISM,2020-10-23 12:25:00,75.0,75.0,94.0,29.96,6.0,E,9.0,0.0,Rain,False,False,False,False,False,False,False,False,False,False,False,False,False,Day,Day,Day,Day
C-6127215,4,2021-09-13 13:16:18.000000000,2021-11-20 10:46:00.000000000,34.181657,-118.314344,34.185814,-118.316802,0.3197404747289999,Construction on I-5 NB near BURBANK BLVD Use alternate exit ramp.,,Golden State Fwy N,R,Burbank,Los Angeles,CA,91502,US,US/Pacific,KBUR,2021-11-19 19:53:00,59.0,59.0,75.0,29.23,5.0,E,3.0,0.0,Fair,False,False,False,False,False,False,False,False,False,False,False,True,False,Day,Day,Day,Day
C-6127216,2,2020-04-27 10:00:22.000000000,2020-04-28 10:00:22.000000000,36.16611,-95.85083,36.16611,-95.85083,0.0,At Garnett Rd/Exit 14 - Bridge maintenance work.,,Crosstown Expy E,R,Tulsa,Tulsa,OK,74116,US,US/Central,KTUL,2020-04-27 09:53:00,62.0,62.0,72.0,29.28,10.0,S,22.0,0.0,Light Rain / Windy,False,False,False,False,True,False,False,False,False,False,False,False,False,Day,Day,Day,Day
C-6127217,2,2021-08-13 20:11:51.000000000,2021-08-13 22:14:29.000000000,25.939897,-80.27430799999998,25.938908,-80.277398,0.203788351902,Stationary traffic on FL-847 - FL-860 from NW 44th Pl to NW 181st Ter due to roadwork.,,FL-860,R,Opa Locka,Miami-Dade,FL,33055,US,US/Eastern,KOPF,2021-08-13 19:53:00,85.0,85.0,69.0,30.02,10.0,E,8.0,0.0,Partly Cloudy,False,False,False,False,False,False,False,False,True,False,False,False,False,Night,Day,Day,Day
C-6127218,2,2021-07-29 09:00:00.000000000,2021-07-29 15:15:00.000000000,39.159676,-77.610906,39.166809,-77.609502,0.4985496941619999,Construction on CLARKES GAP RD WB near HURLEY LA Drive with caution.,16538.0,Clarkes Gap Rd,R,Waterford,Loudoun,VA,20197-1131,US,US/Eastern,KJYO,2021-07-29 08:52:00,75.0,75.0,84.0,29.65,6.0,SW,7.0,0.0,Haze,False,False,False,False,False,False,False,False,False,False,False,False,False,Day,Day,Day,Day
C-6127219,4,2020-10-16 06:05:31.000000000,2020-10-28 06:59:00.000000000,30.264056,-97.735706,30.265235,-97.740027,0.270423182284,Closed road from N Interstate 35 to Trinity St due to roadwork.,398.0,N Interstate 35,L,Austin,Travis,TX,78701,US,US/Central,KATT,2020-10-16 05:51:00,65.0,65.0,43.0,29.5,10.0,NE,9.0,0.0,Cloudy,True,False,True,False,False,False,True,False,True,True,False,False,False,Night,Night,Night,Night
C-6127220,2,2016-07-25 09:30:38.000000000,2017-06-30 23:59:00.000000000,42.93031,-78.89974000000002,42.88876,-78.888351,2.928114770390001,Between Amherst St/Exit 12 and RT-266/Niagara St/Exit 8 - Construction work.,,I-190 S,R,Buffalo,Erie,NY,14207,US,US/Eastern,KBUF,2016-07-27 09:54:00,77.0,,69.0,29.99,10.0,West,12.7,,Partly Cloudy,False,False,False,False,True,False,False,False,False,False,False,False,False,Day,Day,Day,Day
C-6127221,2,2019-02-24 20:00:00.000000000,2019-02-25 06:00:00.000000000,30.21845200000001,-97.691063,,,2.69000005722,Intermittent lane closures due to construction during the night on TX-71 Westbound between Spirit Of Texas Dr and Riverside Dr.,,TX-71 W,R,Austin,Travis,TX,78741,US,US/Central,KAUS,2019-02-24 19:53:00,54.0,,43.0,30.31,10.0,NE,9.2,,Partly Cloudy,False,False,False,False,False,False,False,False,False,False,False,False,False,Night,Night,Night,Night
C-6127222,2,2021-09-29 13:27:30.000000000,2021-09-29 15:31:13.000000000,27.940087,-82.353307,27.940778,-82.354097,0.0678582047460999,Stationary traffic on US-301 N from Delaney Creek Blvd to Lee Roy Selmon Expy W due to roadwork.,1038.0,S US Highway 301,L,Tampa,Hillsborough,FL,33619-4908,US,US/Eastern,KTPF,2021-09-29 13:35:00,88.0,88.0,46.0,29.99,10.0,E,5.0,0.0,Fair,False,False,False,False,False,False,False,False,False,False,False,False,False,Day,Day,Day,Day
C-6127223,2,2021-08-01 18:41:30.000000000,2021-08-01 19:13:00.000000000,40.05652,-78.511205,40.050803,-78.51116,0.395014248987,Slow traffic on US-220 Bus S - US-220 Bus N from PA-56/Pensyl Hollow Rd (US-220 Bus) to US-30 (Overpass) (US-220 Bus) due to roadwork.,,Business 220,R,Bedford,Bedford,PA,15522,US,US/Eastern,KHMZ,2021-08-01 18:53:00,66.0,66.0,68.0,28.31,10.0,VAR,3.0,0.0,Cloudy,False,False,False,False,False,False,False,False,False,False,False,False,False,Day,Day,Day,Day
C-6127224,2,2021-10-27 17:51:00.000000000,2021-10-27 20:11:43.000000000,33.509446000000004,-112.119193,33.509946,-112.116978,0.13219894409,Slow traffic from N 28th Ave to W Medlock Dr due to roadwork.,2814.0,W Camelback Rd,L,Phoenix,Maricopa,AZ,85017-3214,US,US/Mountain,KPHX,2021-10-27 17:51:00,78.0,78.0,15.0,28.84,10.0,SSW,6.0,0.0,Fair,True,False,False,False,False,True,False,False,True,False,False,False,False,Night,Day,Day,Day
C-6127225,4,2017-12-05 09:29:45.000000000,2017-12-05 15:31:07.000000000,40.034842,-76.500672,40.033873,-76.499595,0.0879130676713,Closed at Malleable Rd/S 15th St - Closed due to roadwork.,498.0,Walnut St,L,Columbia,Lancaster,PA,17512-1217,US,US/Eastern,KLNS,2017-12-05 09:53:00,52.0,,97.0,30.15,6.0,SSW,9.2,,Overcast,False,False,False,False,False,False,False,False,False,False,False,False,False,Day,Day,Day,Day
C-6127226,4,2018-09-12 20:30:22.000000000,2018-09-13 01:29:38.000000000,43.01941,-85.63615,43.01742,-85.68890999999998,2.66879897703,Closed between Leonard St/Exit 36 and M-37/Alpine Ave/Exit 30 - Closed due to roadwork.,,Plainfield Ave NE,R,Grand Rapids,Kent,MI,49505,US,US/Eastern,KGRR,2018-09-12 20:53:00,69.1,,70.0,30.19,10.0,Calm,,,Clear,False,False,False,False,True,False,False,False,False,False,False,False,False,Night,Night,Day,Day
C-6127227,2,2021-09-29 14:03:52.000000000,2021-09-29 16:05:43.000000000,40.72301,-73.998796,40.722186,-74.000654,0.112726542397,Slow traffic from Spring St to Mercer St due to roadwork.,89.0,Spring St,R,New York,New York,NY,10012-3906,US,US/Eastern,KJRB,2021-09-29 13:51:00,67.0,,40.0,29.87,10.0,,,0.0,Fair,True,False,True,False,False,False,True,False,False,False,False,True,False,Day,Day,Day,Day
C-6127228,2,2020-10-27 12:52:30.000000000,2020-10-28 05:35:34.000000000,28.033642,-82.453453,28.0328,-82.452206,0.0957510092327,Queuing traffic on FL-580 from Busch Blvd (FL-580) exit [50] to N Nebraska Ave due to roadwork.,,E Busch Blvd,R,Tampa,Hillsborough,FL,33612,US,US/Eastern,KVDF,2020-10-27 12:55:00,90.0,90.0,59.0,30.06,10.0,E,9.0,0.0,Mostly Cloudy,False,False,False,False,False,False,False,False,False,False,False,False,False,Day,Day,Day,Day
C-6127229,2,2021-01-25 12:11:00.000000000,2021-01-26 01:56:31.000000000,30.327017,-90.978787,30.320452000000003,-90.977127,0.4642769200609999,Stationary traffic on LA-73 - LA-42 from Floyd Webb Rd to Airline Hwy due to roadwork.,17692.0,Old Jefferson Hwy,R,Prairieville,Ascension,LA,70769-3931,US,US/Central,KL38,2021-01-25 11:53:00,74.0,74.0,79.0,29.75,10.0,S,17.0,0.0,Cloudy,False,False,False,False,False,False,False,False,False,False,False,False,False,Day,Day,Day,Day
C-6127230,3,2016-09-02 17:29:16.000000000,2016-09-30 18:00:00.000000000,41.675029,-83.576574,41.673264,-83.573751,0.189993680744,At I-75/US-24/Exit 203 - Construction work.,,I-475 E,R,Toledo,Lucas,OH,43606,US,US/Eastern,KDUH,2016-09-02 17:34:00,73.0,,50.0,30.21,10.0,NE,5.8,,Clear,False,False,False,False,False,False,False,False,False,False,False,False,False,Day,Day,Day,Day
C-6127231,2,2021-11-04 21:01:00.000000000,2021-11-05 05:46:00.000000000,33.018190999999995,-117.272437,33.006195,-117.260058,1.09607978902,Construction on I-5 SB near BIRMINGHAM DR Construction. Expect long delays.,,I-5 S,R,Cardiff By the Sea,San Diego,CA,92007,US,US/Pacific,KCRQ,2021-11-04 20:53:00,57.0,57.0,93.0,29.6,1.0,CALM,0.0,0.0,Fog,False,False,False,False,True,False,False,False,False,False,False,False,False,Night,Night,Night,Night
C-6127232,2,2021-11-08 16:32:00.000000000,2021-11-08 18:40:33.000000000,33.06994,-112.04539,33.07253,-112.04534,0.178975371897,Slow traffic on AZ-347 - AZ-238 from W Edison Rd to N Costa Brava Ave due to roadwork.,21047.0,N John Wayne Pkwy,R,Maricopa,Pinal,AZ,85139-5590,US,US/Mountain,KCGZ,2021-11-08 16:56:00,85.0,85.0,13.0,28.45,10.0,WSW,8.0,0.0,Fair,False,False,False,False,False,False,False,False,False,False,False,False,False,Day,Day,Day,Day
C-6127233,2,2018-05-24 07:00:52.000000000,2018-05-24 13:00:52.000000000,41.643695,-73.78773100000002,42.01542,-73.73661,25.8182473501,Between RT-82 (South) and CR-2/Jackson Corners-Mt Ross Rd - Construction work.,,Taconic State Pkwy,R,Lagrangeville,Dutchess,NY,12540,US,US/Eastern,KPOU,2018-05-24 06:53:00,54.0,,90.0,30.09,10.0,Calm,,,Clear,False,False,False,False,False,False,False,False,False,False,False,False,False,Day,Day,Day,Day
C-6127234,2,2021-12-28 10:00:30.000000000,2021-12-28 10:21:30.000000000,37.530337,-118.627978,37.551597,-118.641718,1.65056919695,Stationary traffic on US-395 N from Wye Rd (US-395) to South Landing Rd (US-395) due to roadwork.,,US-395 N,R,Bishop,Mono,CA,93514,US,US/Pacific,KBIH,2021-12-28 09:56:00,32.0,27.0,75.0,25.55,10.0,W,5.0,0.0,Fair,False,False,False,False,False,False,False,False,False,False,False,False,False,Day,Day,Day,Day
C-6127235,4,2019-09-07 15:22:38.000000000,2019-09-07 20:17:04.000000000,40.83337,-75.67559,40.97618,-75.62834000000002,10.1710594576,Closed between PA-895/E Lizard Creek Rd and Hickory Run Service Plaza - Closed due to roadwork.,,NE Extension Penn Tpke N,R,Lehighton,Carbon,PA,18235,US,US/Eastern,KABE,2019-09-07 15:51:00,75.0,75.0,46.0,29.43,10.0,W,9.0,0.0,Cloudy,False,False,False,False,False,False,False,False,False,False,False,False,False,Day,Day,Day,Day
C-6127236,2,2021-06-07 13:41:30.000000000,2021-12-18 19:31:05.000000000,41.857816,-87.666226,41.852335,-87.6671,0.381362776531,Slow traffic from W 18th St to S Paulina St due to roadwork.,1798.0,S Ashland Ave,R,Chicago,Cook,IL,60608-2015,US,US/Central,KMDW,2021-06-07 13:48:00,79.0,79.0,65.0,29.27,10.0,S,7.0,0.0,Cloudy,False,False,False,False,False,False,False,False,True,False,False,True,False,Day,Day,Day,Day
C-6127237,2,2020-07-07 14:00:50.000000000,2020-07-11 06:59:00.000000000,43.141132,-76.1196,43.139692,-76.1212,0.128086395169,Installation of traffic management systems on Bear Road Extension both directions at South Bay Road; CR 208; END ROUTE (Cicero) alternate shoulder closures Tuesday July 7th 2020 thru Friday July 10th 2020 Tuesday/Wednesday/Thursday/Friday 07:00 AM thru 03:30 PM,862.0,S Bay Rd,L,Syracuse,Onondaga,NY,13212,US,US/Eastern,KSYR,2020-07-07 13:54:00,88.0,88.0,49.0,29.54,10.0,SE,13.0,0.0,Partly Cloudy,False,False,False,False,False,False,False,False,False,False,False,True,False,Day,Day,Day,Day
C-6127238,2,2021-07-07 10:00:00.000000000,2021-07-07 17:45:00.000000000,41.523762,-100.886528,41.523353,-100.886582,0.0283969327442,Construction on NE-97 SB near NE-92 Drive with caution.,442.0,E Highway 92,R,Tryon,McPherson,NE,69167,US,US/Central,KLBF,2021-07-07 09:53:00,70.0,70.0,71.0,27.21,10.0,NNE,3.0,0.0,Cloudy,False,False,False,False,False,False,False,False,False,False,False,False,False,Day,Day,Day,Day
C-6127239,4,2021-08-12 17:32:40.000000000,2021-08-19 23:59:00.000000000,26.79822,-80.05341899999998,26.799266,-80.053528,0.0725836785528,Closed road from US Highway 1 / Date Palm Dr to Greenbriar Dr due to roadwork.,620.0,Lake Shore Dr,L,West Palm Beach,Palm Beach,FL,33403,US,US/Eastern,KPBI,2021-08-12 17:53:00,88.0,88.0,61.0,30.03,10.0,ENE,14.0,0.0,Mostly Cloudy,False,False,False,False,False,False,False,False,False,False,False,False,False,Day,Day,Day,Day
C-6127240,2,2021-08-19 11:26:33.000000000,2021-08-19 13:21:38.000000000,39.95541400000001,-76.683589,39.958214,-76.682202,0.206938445603,Stationary traffic on SR 2005 from Springettsbury to I-83 N / Mount Rose Ave due to roadwork.,1343.0,Camp Betty Washington Rd,L,York,York,PA,17402,US,US/Eastern,KTHV,2021-08-19 11:53:00,82.0,82.0,65.0,29.51,10.0,NW,8.0,0.0,Cloudy,False,False,False,False,False,False,False,False,False,False,False,True,False,Day,Day,Day,Day
C-6127241,2,2021-07-01 15:34:16.000000000,2021-07-01 19:14:30.000000000,39.774994,-104.940489,39.778755,-104.940504,0.259861571655,Stationary traffic on CO-2 from CO-33/E 40th Ave (Colorado Blvd/CO-2) to I-70 (Colorado Blvd/CO-2) due to roadwork.,,N Colorado Blvd,R,Denver,Denver,CO,80216,US,US/Mountain,KBJC,2021-07-01 15:59:00,66.0,66.0,73.0,24.54,2.0,NW,28.0,0.0,Heavy T-Storm / Windy,False,False,False,False,False,False,False,False,False,False,False,True,False,Day,Day,Day,Day
C-6127242,2,2021-03-23 07:00:00.000000000,2021-03-23 19:45:00.000000000,37.075482,-77.991679,37.080375,-77.97969499999998,0.742086290504,Construction on ROCKY BUMP RD EB near S EPES ST Drive with caution.,536.0,Rocky Bump Rd,L,Blackstone,Nottoway,VA,23824,US,US/Eastern,,,,,,,,,,,,False,False,False,False,False,False,False,False,False,False,False,False,False,Night,Day,Day,Day
C-6127243,2,2021-12-04 06:30:00.000000000,2021-12-04 14:46:00.000000000,34.736076000000004,-117.46553,34.755046,-117.472,1.36120066296,One-Way Traffic closure due to Pavement Marker Replacement between Shadow Mountain Rd and Buckthrone Canyon rd,27131.0,US Highway 395,R,Adelanto,San Bernardino,CA,92301,US,US/Pacific,KVCV,2021-12-04 06:30:00,46.0,42.0,46.0,27.16,10.0,SE,9.0,0.0,Fair,False,False,False,False,False,False,False,False,False,False,False,False,False,Night,Day,Day,Day
C-6127244,2,2020-05-25 07:29:26.000000000,2020-05-27 00:29:26.000000000,42.15282,-79.88616,42.12942,-79.76194,6.56624689066,Between I-90/Exit 1 and PA/New York State Line - Roadwork.,,PA-17 W,R,North East,Erie,PA,16428,US,US/Eastern,KERI,2020-05-25 07:51:00,69.0,69.0,73.0,29.27,10.0,SSE,18.0,0.0,Fair,False,False,False,False,False,False,False,False,False,False,False,False,False,Day,Day,Day,Day
C-6127245,2,2021-06-01 06:57:01.000000000,2021-06-01 15:15:00.000000000,40.849641,-73.942161,40.849854,-73.94324399999998,0.0584840397719,Port Authority NY/NJ: Construction construction on George Washington Bridge Upper Level westbound ramp from Exit 1A - Henry Hudson Parkway (Manhattan) 1 Right lane of 2 lanes closed until 2:30 P.M.,,I-95 S,R,New York,New York,NY,10033,US,US/Eastern,KNYC,2021-06-01 06:51:00,58.0,58.0,81.0,30.17,10.0,WNW,5.0,0.0,Fair,False,False,False,False,True,False,False,False,False,False,False,False,False,Day,Day,Day,Day
C-6127246,4,2021-05-25 02:57:30.000000000,2021-06-01 23:59:00.000000000,41.664261,-86.17467099999998,41.664535,-86.173354,0.0705656494138999,Closed road from N Pine St to N Cedar St due to roadwork.,400.0,N Pine St,R,Mishawaka,St. Joseph,IN,46545-6929,US,US/Eastern,KSBN,2021-05-25 02:54:00,71.0,71.0,57.0,29.23,10.0,SSW,6.0,0.0,Fair,False,False,False,False,False,False,False,False,False,False,False,False,False,Night,Night,Night,Night
C-6127247,2,2021-07-08 16:22:11.000000000,2021-07-08 17:37:30.000000000,41.835279,-87.83352,41.835367,-87.828128,0.277641808086,Stationary traffic from Maple Ave (31st St) to Des Plaines Ave/Woodside Rd (31st St) due to roadwork.,,31st St,R,Brookfield,Cook,IL,60513,US,US/Central,KMDW,2021-07-08 15:53:00,66.0,66.0,75.0,29.29,9.0,NNE,7.0,0.0,Cloudy,False,False,False,False,False,False,False,False,True,False,False,True,False,Day,Day,Day,Day
C-6127248,3,2019-04-15 07:00:59.000000000,2020-01-21 02:00:00.000000000,33.522339,-86.825737,,,0.409999996424,Entry ramp to I-20 Eastbound at Exits 260 260B 261A 261B 261C 261D 262A from I-65 Southbound blocked due to maintenance work.,,AL-4 E,R,Birmingham,Jefferson,AL,35204,US,US/Central,KBHM,2019-04-15 06:53:00,43.0,43.0,93.0,29.44,10.0,WNW,3.0,0.0,Fair,False,False,False,False,False,False,False,False,False,False,False,False,False,Day,Day,Day,Day
C-6127250,4,2020-04-16 15:17:53.000000000,2020-04-16 20:16:19.000000000,41.2538,-111.84167,41.24848,-111.88771,2.4196889786099995,Closed between UT-167/Trappers Loop Rd and Valley Dr - Closed due to roadwork.,999.0,Ogden Cyn,L,Ogden,Weber,UT,84401-0951,US,US/Mountain,KOGD,2020-04-16 14:53:00,45.0,43.0,44.0,25.55,10.0,NW,5.0,0.0,Mostly Cloudy,False,False,False,False,False,False,False,False,False,True,False,False,False,Day,Day,Day,Day
C-6127251,2,2021-11-15 11:41:30.000000000,2021-11-15 12:03:00.000000000,35.825038,-92.558864,35.828241,-92.562876,0.31542144814,Stationary traffic on US-65 S - US-65 N from AR-254 (US-65) to AR-27 (US-65) due to roadwork.,700.0,Highway 65 S,L,Leslie,Searcy,AR,72645,US,US/Central,KCCA,2021-11-15 11:35:00,63.0,63.0,37.0,29.6,9.0,S,7.0,0.0,Fair,False,False,False,False,False,False,False,False,False,False,False,False,False,Day,Day,Day,Day
C-6127252,2,2021-11-07 15:54:34.000000000,2021-11-07 16:07:34.000000000,40.734783,-73.836203,40.740923,-73.837303,0.428124362321,Stationary traffic on I-678 N from Exit 11 (I-678) to Horace Harding Expy/Exit 12A (I-678) due to roadwork.,,Van Wyck Expy N,R,Flushing,Queens,NY,11367,US,US/Eastern,KLGA,2021-11-07 15:51:00,55.0,55.0,33.0,30.09,10.0,NE,3.0,0.0,Mostly Cloudy,False,False,False,False,True,False,False,False,False,False,False,False,False,Day,Day,Day,Day
C-6127253,3,2021-03-13 20:00:00.000000000,2021-03-14 05:00:00.000000000,32.923607000000004,-96.77919,,,0.0,Intermittent lane closures due to construction work on Lyndon B Johnson Fwy both ways at US-75 Central Expy.,7520.0,Lyndon B Johnson Fwy,R,Dallas,Dallas,TX,75251-1007,US,US/Central,KADS,2021-03-13 19:47:00,73.0,73.0,57.0,29.21,13.0,SE,14.0,0.0,Partly Cloudy,False,False,False,False,False,False,False,False,False,False,False,False,False,Night,Night,Night,Night
C-6127254,2,2021-03-20 00:00:00.000000000,2021-03-20 23:59:00.000000000,41.123119,-101.35614,,,1.51999998093,Restrictions due to construction work on NE-51C-LINK Northbound from I-80 Exit 145 to 1st St.,101.0,W 1st St,L,Paxton,Keith,NE,69155,US,US/Mountain,KOGA,2021-03-20 00:15:00,42.0,35.0,67.0,26.72,10.0,S,14.0,0.0,Fair,False,False,False,False,False,False,False,False,False,False,False,False,False,Night,Night,Night,Night
C-6127255,2,2021-03-26 05:41:30.000000000,2021-03-26 15:33:00.000000000,42.110274,-122.617287,42.08844600000001,-122.603379,1.66822158258,Slow traffic on OR-99 S - Pacific Highway 1 S - I-5 S from OR-99/Exit 11 (I-5) to Old Siskiyou Hwy/Exit 6 (I-5) due to roadwork.,,I-5 S,R,Ashland,Jackson,OR,97520,US,US/Pacific,KMFR,2021-03-26 05:53:00,32.0,32.0,88.0,28.75,10.0,CALM,0.0,0.0,Partly Cloudy,False,False,False,False,False,False,False,False,False,False,False,False,False,Night,Night,Night,Day
C-6127256,2,2021-07-30 00:00:00.000000000,2021-12-30 20:34:11.000000000,38.017214,-87.470176,37.987787,-87.460326,2.10274718034,Construction on I-69 SB near IN-62 Construction. Left lane closed.,,I-69 S,R,Evansville,Vanderburgh,IN,47715,US,US/Central,KEVV,2021-07-30 00:54:00,81.0,81.0,85.0,29.59,10.0,WNW,7.0,0.0,Mostly Cloudy,False,False,False,False,False,False,False,False,False,False,False,False,False,Night,Night,Night,Night
C-6127257,2,2020-09-30 11:58:00.000000000,2020-10-01 00:29:00.000000000,39.169919,-96.594383,39.168986,-96.599459,0.279442494248,Slow traffic on KS-18 from S 17th St (Fort Riley Blvd/KS-18) to KS-113/S Seth Child Rd (Fort Riley Blvd/KS-18) due to roadwork.,2336.0,Fort Riley Blvd,L,Manhattan,Riley,KS,66502,US,US/Central,KMHK,2020-09-30 11:52:00,74.0,74.0,32.0,28.91,10.0,N,14.0,0.0,Fair,False,False,False,False,False,False,False,False,False,False,False,False,False,Day,Day,Day,Day
C-6127258,2,2021-10-21 12:37:30.000000000,2021-10-21 14:48:58.000000000,42.380935,-83.314035,42.383648,-83.313644,0.188509648931,Stationary traffic from Fullerton to Mercedes due to roadwork.,13356.0,Inkster Rd,R,Redford,Wayne,MI,48239,US,US/Eastern,KDTW,2021-10-21 12:53:00,66.0,66.0,70.0,29.1,8.0,SW,14.0,0.0,Mostly Cloudy,False,False,False,False,False,False,False,False,False,False,False,False,False,Day,Day,Day,Day
C-6127259,2,2021-09-22 17:35:12.000000000,2021-09-22 20:03:20.000000000,40.734811,-74.16928100000001,40.73490200000001,-74.166173,0.162839757104,Stationary traffic on County Hwy-510 - NJ-21 from Mulberry St to Raymond Blvd due to roadwork.,121.0,Mulberry St,R,Newark,Essex,NJ,07102-4006,US,US/Eastern,KEWR,2021-09-22 17:51:00,79.0,79.0,77.0,29.97,10.0,SE,12.0,0.0,Mostly Cloudy,False,False,True,False,False,False,False,False,False,False,False,True,False,Day,Day,Day,Day
C-6127260,2,2021-03-08 14:12:00.000000000,2021-03-08 15:11:33.000000000,40.732334,-73.95461800000002,40.732563,-73.952086,0.133507726885,Slow traffic from Manhattan Ave to McGuinness Blvd due to roadwork.,132.0,India St,R,Brooklyn,Kings,NY,11222-1605,US,US/Eastern,KNYC,2021-03-08 13:51:00,40.0,40.0,27.0,30.28,10.0,VAR,3.0,0.0,Fair,True,False,False,False,False,False,True,False,True,False,False,True,False,Day,Day,Day,Day
C-6127261,2,2021-09-11 14:22:02.000000000,2021-09-11 14:42:02.000000000,42.609563,-72.582933,42.613205,-72.58838,0.374219469583,Slow traffic on MA-2 W from MA-2/French King Hwy (Mohawk Trl/MA-2) to US-5/MA-10/Bernardston Rd (MA-2) due to roadwork.,,MA-2 W,R,Greenfield,Franklin,MA,01301,US,US/Eastern,KORE,2021-09-11 13:52:00,74.0,74.0,50.0,29.53,10.0,SSW,15.0,0.0,Mostly Cloudy,False,False,False,False,False,False,False,False,False,False,False,False,False,Day,Day,Day,Day
C-6127262,4,2019-10-07 21:08:21.000000000,2019-10-08 02:07:43.000000000,33.87275,-84.01429,33.89077,-84.04026,1.94145776964,Closed between GA-124/Scenic Hwy SW and Webb Gin House Rd - Closed due to roadwork.,2298.0,Pinehurst Rd,L,Snellville,Gwinnett,GA,30078-2574,US,US/Eastern,KLZU,2019-10-07 20:56:00,74.0,74.0,73.0,28.91,10.0,CALM,0.0,0.0,Cloudy,False,False,False,False,True,False,False,False,False,False,False,True,False,Night,Night,Night,Night
C-6127263,2,2020-05-10 19:06:50.000000000,2020-05-14 23:59:00.000000000,43.16659,-73.71409,43.16659,-73.71409,0.0,At Ballard Rd/Exit 16 - Construction work.,,Adirondack Northway N,R,Gansevoort,Saratoga,NY,12831,US,US/Eastern,KGFL,2020-05-10 18:53:00,49.0,47.0,54.0,29.56,10.0,NW,6.0,0.0,Cloudy,False,False,False,False,True,False,False,False,False,False,False,False,False,Day,Day,Day,Day
C-6127264,2,2020-11-23 16:30:00.000000000,2020-12-02 00:15:00.000000000,33.407469,-111.930591,33.407474,-111.930109,0.0278027175032,Construction on BROADWAY RD near VENTURA DR Construction. Expect long delays.,451.0,E Broadway Rd,R,Tempe,Maricopa,AZ,85282-1429,US,US/Mountain,KPHX,2020-11-23 16:51:00,78.0,78.0,16.0,28.52,10.0,W,16.0,0.0,Fair,False,False,True,False,False,False,False,False,False,False,False,False,False,Day,Day,Day,Day
C-6127265,4,2021-02-16 14:32:33.000000000,2021-02-16 16:36:59.000000000,28.255862,-81.48639,28.257324,-81.49318000000002,0.425406499297,US-92 E - US-17 N - US-92 W - US-17 S is closed from CR-535/Broad St/Ham Brown Rd (US-92/US-17) to CR-532/Osceola Polk Line Rd (US-92/US-17) due to roadwork.,,S Orange Blossom Trl,R,Kissimmee,Osceola,FL,34758,US,US/Eastern,KISM,2021-02-16 14:56:00,73.0,73.0,51.0,29.92,10.0,WNW,13.0,0.0,Mostly Cloudy,False,False,True,False,False,False,False,False,False,False,False,True,False,Day,Day,Day,Day
C-6127266,2,2021-11-19 17:52:00.000000000,2021-11-19 18:20:00.000000000,33.465941,-111.944745,33.464163,-111.944617,0.1230694437879999,Roadwork from Bushmaster Blvd to E Moreland St.,6361.0,E McDowell Rd,R,Phoenix,Maricopa,AZ,85008,US,US/Mountain,KPHX,2021-11-19 17:51:00,77.0,77.0,15.0,28.77,10.0,CALM,0.0,0.0,Mostly Cloudy,False,False,False,False,False,False,False,False,False,False,False,False,False,Night,Night,Day,Day
C-6127267,2,2021-11-23 15:19:28.000000000,2021-11-23 16:50:27.000000000,25.92675,-80.153746,25.926209,-80.154884,0.0799863553641,Roadwork on US-1 from W Dixie Hwy to FL-826 - US-1 S - FL-5.,16318.0,Biscayne Blvd,L,North Miami Beach,Miami-Dade,FL,33160,US,US/Eastern,KHWO,2021-11-23 14:53:00,71.0,71.0,27.0,29.99,10.0,N,14.0,0.0,Fair,False,False,False,False,False,False,False,False,True,False,False,False,False,Day,Day,Day,Day
C-6127268,2,2021-06-02 01:19:00.000000000,2021-06-02 01:57:30.000000000,42.745131,-123.371905,42.715121,-123.369065,2.07849738718,Slow traffic on OR-99 S - Pacific Highway 1 S - I-5 S from Junction Rd/Exit 80 (I-5) to Speaker Rd/Exit 78 (I-5) due to roadwork.,,I-5 S,R,Glendale,Douglas,OR,97442,US,US/Pacific,KSXT,2021-06-02 00:56:00,64.0,64.0,54.0,26.11,10.0,N,10.0,0.0,Fair,False,False,False,False,True,False,False,False,False,False,False,False,False,Night,Night,Night,Night
C-6127269,2,2020-09-10 16:00:00.000000000,2020-09-10 23:45:00.000000000,34.471369,-85.393697,34.477144,-85.407042,0.8584854621520001,Construction on GA-48 WB near FISH HATCHERY RD Right lane closed. Expect delays.,2853.0,Highway 48,L,Summerville,Chattooga,GA,30747-5650,US,US/Eastern,KRMG,2020-09-10 15:53:00,88.0,88.0,55.0,29.44,10.0,ENE,3.0,0.0,Mostly Cloudy,False,False,False,False,False,False,False,False,False,False,False,False,False,Day,Day,Day,Day
C-6127270,2,2019-01-18 05:29:26.000000000,2019-01-31 23:59:00.000000000,42.293709,-71.163063,,,0.0,Intermittent lane closures due to construction work on Brook Farm Rd Eastbound between Lagrange St and Corey St.,337.0,Corey St,R,West Roxbury,Suffolk,MA,02132-1734,US,US/Eastern,KMQE,2019-01-18 05:56:00,23.0,13.1,78.0,30.17,,ESE,9.2,,,False,False,True,False,False,False,False,False,False,False,False,False,False,Night,Night,Night,Night
C-6127271,2,2021-02-01 14:01:30.000000000,2021-02-02 00:34:57.000000000,28.022462,-81.67094499999997,28.022507,-81.677479,0.398541268576,Stationary traffic on FL-542 from Country Club Rd (Dundee Rd/FL-542) to Buckeye Loop Rd (Dundee Rd/FL-542) due to roadwork.,3798.0,Dundee Rd,R,Winter Haven,Polk,FL,33884-1115,US,US/Eastern,KGIF,2021-02-01 13:53:00,55.0,55.0,62.0,29.71,10.0,WNW,23.0,0.0,Cloudy / Windy,False,False,True,False,False,False,False,False,False,False,False,True,False,Day,Day,Day,Day
C-6127272,2,2021-02-23 04:51:00.000000000,2021-02-23 08:59:41.000000000,28.256342,-81.488739,28.256723,-81.485961,0.171106285274,Slow traffic on US-92 E - US-17 N from Kissimmee to Old Tampa Hwy due to roadwork.,5107.0,S Orange Blossom Trl,R,Kissimmee,Osceola,FL,34758-2031,US,US/Eastern,KISM,2021-02-23 04:56:00,67.0,67.0,97.0,29.97,,WNW,8.0,0.0,Cloudy,False,False,False,False,False,False,False,False,False,False,False,False,False,Night,Night,Night,Night
C-6127273,2,2021-11-11 17:25:30.000000000,2021-11-11 18:11:30.000000000,39.784402,-105.081334,39.791257,-105.081968,0.4748300037039999,Stationary traffic on CO-121 from W 48th Ave to Yarrow St due to roadwork.,,Wadsworth Blvd,R,Wheat Ridge,Jefferson,CO,80033,US,US/Mountain,KBJC,2021-11-11 17:50:00,48.0,42.0,40.0,24.39,10.0,W,15.0,0.0,Partly Cloudy,False,False,False,False,False,False,False,False,False,False,False,False,False,Night,Night,Day,Day
C-6127274,2,2019-10-29 15:20:48.000000000,2019-10-29 16:00:00.000000000,38.305489,-77.45485699999998,,,0.360000014305,Right lane closed due to bridge maintenance work on VA-3-BR Kings Hwy Eastbound from Sophia St to River Rd.,1.0,River Rd,L,Fredericksburg,Stafford,VA,22405-2534,US,US/Eastern,KEZF,2019-10-29 15:15:00,69.0,69.0,69.0,30.12,10.0,S,5.0,0.0,Mostly Cloudy,False,False,False,False,False,False,False,False,False,False,False,False,False,Day,Day,Day,Day
C-6127276,4,2019-12-11 17:43:00.000000000,2021-02-27 02:45:00.000000000,42.304018,-83.114207,42.300892,-83.12131099999998,0.4224191340829999,Construction on I-75 SERVICE DR SB near GREEN ST Road closed. Take alternate route.,7350.0,Fisher Fwy W,R,Detroit,Wayne,MI,48209,US,US/Eastern,KDET,2019-12-11 17:53:00,22.0,12.0,53.0,29.8,10.0,W,9.0,0.0,Fair,False,False,True,False,False,False,False,False,False,False,False,False,False,Night,Night,Day,Day
C-6127277,2,2021-07-30 22:10:30.000000000,2021-07-30 22:49:30.000000000,45.52538,-122.662063,45.52239,-122.665743,0.272787625628,Stationary traffic from US-30 W / I-84 W to US-30 E due to roadwork.,,I-84 W,R,Portland,Multnomah,OR,97232,US,US/Pacific,KPDX,2021-07-30 21:53:00,86.0,86.0,40.0,29.88,10.0,N,5.0,0.0,Mostly Cloudy,False,False,False,False,True,False,False,False,False,False,False,False,False,Night,Night,Night,Day
C-6127278,2,2021-06-27 14:11:30.000000000,2021-06-27 14:34:30.000000000,37.209923,-107.260777,37.210482,-107.264169,0.190607571333,Stationary traffic on US-160 W - US-160 E from US-84 (US-160) to US-160 Bus (Bayfield) (East) (US-160) due to roadwork.,,W Highway 160,R,Pagosa Springs,Archuleta,CO,81147,US,US/Mountain,KPSO,2021-06-27 14:15:00,69.0,69.0,36.0,22.71,10.0,E,12.0,0.0,Thunder in the Vicinity,False,False,False,False,False,False,False,False,False,False,False,False,False,Day,Day,Day,Day
C-6127279,2,2021-12-25 00:17:00.000000000,2021-12-25 00:37:30.000000000,39.102011,-119.905759,39.10647700000001,-119.884409,1.1855720201,Slow traffic on US-50 E from NV-28 (US-50) to US-395/Carson St (US-50) due to roadwork.,3041.0,US Highway 50,L,Glenbrook,Douglas,NV,89413,US,US/Pacific,KCXP,2021-12-25 00:15:00,37.0,30.0,45.0,25.03,10.0,SSW,12.0,0.0,Cloudy,False,False,False,False,False,False,False,False,False,False,False,False,False,Night,Night,Night,Night
C-6127280,3,2019-07-16 20:57:44.000000000,2019-07-17 06:00:00.000000000,40.54477,-74.27713,40.544003,-74.276881,0.0545834341361,At Amboy Ave - Construction work. Two lanes blocked.,,Convery Blvd,R,Woodbridge,Middlesex,NJ,07095,US,US/Eastern,KLDJ,2019-07-16 20:55:00,87.0,87.0,49.0,29.99,10.0,CALM,0.0,0.0,Fair,False,False,False,False,False,False,False,False,False,False,False,False,False,Night,Day,Day,Day
C-6127281,2,2017-08-21 08:00:00.000000000,2017-08-25 17:01:00.000000000,39.478485,-104.774841,,,4.32999992371,Intermittent lane closures due to paving repairs and maintenance work on Crowfoot Valley Rd Northbound between Pradera Pkwy and Stroh Rd.,6001.0,E Stroh Rd,L,Parker,Douglas,CO,80134,US,US/Mountain,KAPA,2017-08-21 07:53:00,69.1,,40.0,29.94,10.0,WSW,6.9,,Scattered Clouds,False,False,True,False,False,False,False,False,False,False,False,True,False,Day,Day,Day,Day
C-6127282,2,2021-11-13 07:59:00.000000000,2021-11-14 00:44:00.000000000,47.658943,-122.36473,47.658948,-122.365064,0.0155473107803,Construction on NW 43RD ST WB near LEARY WAY Allow extra time.,619.0,NW 43rd St,L,Seattle,King,WA,98107-5040,US,US/Pacific,KBFI,2021-11-13 08:01:00,46.0,46.0,100.0,30.32,3.0,CALM,0.0,0.0,Cloudy,True,False,False,False,False,False,False,False,True,True,False,True,False,Day,Day,Day,Day
C-6127283,2,2020-06-22 06:00:57.000000000,2020-06-23 06:00:57.000000000,35.61337,-82.63261,35.61337,-82.63261,0.0,At US-19/US-23/US-74-ALT/Patton Ave - Construction work.,589.0,New Leicester Hwy,L,Asheville,Buncombe,NC,28806-2122,US,US/Eastern,KAVL,2020-06-22 05:54:00,64.0,64.0,100.0,27.81,2.0,NW,5.0,0.0,Fog,False,False,False,False,False,False,False,False,False,False,False,True,False,Night,Day,Day,Day
C-6127284,2,2020-01-23 20:46:00.000000000,2020-01-24 05:14:00.000000000,34.20113,-118.40369,34.1566,-118.37911,3.38234859184,Between Roscoe Blvd and US-101/CA-134 - Maintenance work. Lane closed.,,Sherman Way,R,North Hollywood,Los Angeles,CA,91605,US,US/Pacific,KBUR,2020-01-23 20:53:00,58.0,58.0,58.0,29.22,10.0,CALM,0.0,0.0,Fair,False,False,False,False,True,False,False,False,False,False,False,False,False,Night,Night,Night,Night
C-6127285,2,2021-03-03 05:29:00.000000000,2021-03-03 18:44:18.000000000,25.883604,-80.21217299999998,25.884376,-80.210541,0.114616437268,Stationary traffic on FL-924 - US-441 N from NW 8th Ave to NW 121st St due to roadwork.,776.0,NW 119th St,L,Miami,Miami-Dade,FL,33168-2335,US,US/Eastern,KOPF,2021-03-03 05:53:00,70.0,70.0,87.0,29.95,10.0,WSW,6.0,0.0,Partly Cloudy,False,False,False,False,False,False,False,False,True,False,False,False,False,Night,Night,Night,Day
C-6127286,2,2021-12-29 15:01:00.000000000,2021-12-29 15:22:00.000000000,27.84351400000001,-82.686908,27.839731,-82.684213,0.308917371013,Stationary traffic on US-19 S from CR-611/49th St (US-19) to FL-694/Gandy Blvd/Park Blvd (US-19) due to roadwork.,7848.0,US Highway 19 N,L,Pinellas Park,Pinellas,FL,33781-1708,US,US/Eastern,KPIE,2021-12-29 14:53:00,81.0,81.0,60.0,30.01,10.0,S,16.0,0.0,Fair,False,False,True,False,False,False,False,False,False,False,False,True,False,Day,Day,Day,Day
C-6127287,2,2018-11-15 00:17:30.000000000,2018-11-20 01:46:04.000000000,38.738972,-90.628098,38.73605300000001,-90.636861,0.513537515734,At Mid Rivers Mall Dr - Construction work. Lane blocked.,,MO-364 W,R,Saint Charles,St. Charles,MO,63304,US,US/Central,KSUS,2018-11-15 00:22:00,28.9,23.9,92.0,30.24,0.8,North,4.6,0.01,Light Snow,False,False,False,False,False,False,False,False,False,False,False,False,False,Night,Night,Night,Night
C-6127288,3,2018-10-19 21:30:00.000000000,2018-10-20 07:00:00.000000000,28.593122,-81.38203399999998,,,4.86000013351,Intermittent lane closures due to maintenance work on I-4 Eastbound from Garland Ave to Exit 87 FL-426 Fairbanks Ave.,,W Fairbanks Ave,R,Winter Park,Orange,FL,32789,US,US/Eastern,KORL,2018-10-19 21:53:00,78.1,,90.0,30.13,10.0,NE,3.5,,Clear,False,False,False,False,False,False,False,False,False,False,False,False,False,Night,Night,Night,Night
C-6127289,2,2020-12-03 17:25:30.000000000,2020-12-03 23:37:30.000000000,40.055782,-75.59718199999998,40.055811,-75.591126,0.320279976221,Stationary traffic on PA-401 from PA-113/Uwchlan Ave (Conestoga Rd/PA-401) to US-202 (Conestoga Rd/PA-401) due to roadwork.,2001.0,Conestoga Rd,R,Malvern,Chester,PA,19355-2233,US,US/Eastern,KOQN,2020-12-03 17:15:00,45.0,45.0,46.0,29.48,10.0,CALM,0.0,0.0,Fair,False,False,False,False,False,False,False,False,False,False,False,False,False,Night,Night,Day,Day
C-6127290,2,2020-10-01 12:34:30.000000000,2020-10-01 19:49:00.000000000,40.761895,-73.967389,40.760611,-73.963262,0.233492483595,Slow traffic on NY-25 from Park Ave to FDR Dr N due to resurfacing work.,173.0,E 59th St,L,New York,New York,NY,10022-1267,US,US/Eastern,KNYC,2020-10-01 12:51:00,70.0,70.0,47.0,29.8,10.0,VAR,6.0,0.0,Fair,False,False,False,False,True,False,False,False,False,False,False,False,False,Day,Day,Day,Day
C-6127291,2,2020-11-23 14:50:30.000000000,2020-11-23 15:36:00.000000000,31.822639,-104.033285,31.82271,-104.040304,0.4120976969259999,Stationary traffic on RM-652 from Pecos to Carlsbad Rd due to roadwork.,790.0,RM 652,R,Pecos,Reeves,TX,79772,US,US/Central,KPEQ,2020-11-23 14:55:00,78.0,78.0,35.0,27.16,10.0,SSW,8.0,0.0,Fair,False,False,False,False,False,False,False,False,False,False,False,False,False,Day,Day,Day,Day
C-6127292,2,2020-09-15 02:00:00.000000000,2020-09-15 11:45:00.000000000,35.92927299999999,-84.91834,35.949763,-84.94551,2.0771106302,Construction on I-40 WB near MM 323 Construction. Drive with caution.,,I-40 W,R,Crossville,Cumberland,TN,38571,US,US/Central,KCSV,2020-09-15 01:53:00,61.0,61.0,93.0,28.22,10.0,ENE,6.0,0.0,Fair,False,False,False,False,False,False,False,False,False,False,False,False,False,Night,Night,Night,Night
C-6127293,2,2020-07-29 07:00:00.000000000,2020-08-07 06:18:10.000000000,38.546764,-121.455868,38.544542,-121.455828,0.1535407941819999,Construction on 44TH ST near BROADWAY Drive with caution.,4348.0,Broadway,R,Sacramento,Sacramento,CA,95817,US,US/Pacific,KSAC,2020-07-29 06:53:00,60.0,60.0,78.0,29.82,10.0,S,7.0,0.0,Fair,False,False,False,False,False,False,False,False,False,False,False,False,False,Day,Day,Day,Day
C-6127294,2,2021-09-09 05:21:00.000000000,2021-09-10 01:58:43.000000000,39.711633,-97.049835,39.71174,-97.000675,2.61293536888,Roadwork on KS-9/KS-15E/Quivira Rd (10th Rd/KS-148) from KS-119/Upland Rd (KS-9/10th Rd/KS-148) to KS-148 - KS-9 - KS-15E.,999.0,Quivira Rd,R,Linn,Washington,KS,66953-9209,US,US/Central,KCNK,2021-09-09 04:55:00,58.0,58.0,81.0,28.5,10.0,SE,5.0,0.0,Fair,False,False,False,False,False,False,False,False,False,False,False,False,False,Night,Night,Night,Night
C-6127295,2,2020-12-31 03:01:00.000000000,2020-12-31 13:46:00.000000000,34.068692,-117.842752,34.063559000000005,-117.819667,1.3680722640399998,Lane closure due to Paving Operation between Grand Ave and Orange Freeway Route 57,,I-10 E,R,Covina,Los Angeles,CA,91724,US,US/Pacific,KPOC,2020-12-31 06:47:00,39.0,39.0,61.0,28.92,10.0,CALM,0.0,,Fair,False,False,False,False,True,False,False,False,False,False,False,False,False,Night,Night,Night,Night
C-6127296,1,2020-04-16 18:00:44.000000000,2020-04-17 06:30:00.000000000,28.45252,-80.97406,28.40081,-80.74878000000002,14.1471858618,Between Dallas Blvd/Exit 24 and US-1/Exit 46 - Resurfacing work during the night.,,Beachline Expy,R,Christmas,Orange,FL,32709,US,US/Eastern,KTIX,2020-04-16 17:48:00,70.0,70.0,78.0,30.12,5.0,NE,16.0,,Cloudy,False,False,False,False,True,False,False,False,False,False,False,False,False,Day,Day,Day,Day
C-6127297,2,2021-12-30 22:01:00.000000000,2021-12-31 05:44:00.000000000,33.832536,-117.934866,33.832607,-117.935325,0.0267965702244,Construction on LINCOLN AVE WB near I-5 Drive with caution.,,W Lincoln Ave,R,Anaheim,Orange,CA,92801,US,US/Pacific,KFUL,2021-12-30 21:53:00,53.0,53.0,86.0,29.7,10.0,CALM,0.0,0.0,Fair,False,False,False,False,False,False,False,False,False,False,False,True,False,Night,Night,Night,Night
C-6127298,2,2021-04-23 22:01:00.000000000,2021-04-24 10:46:00.000000000,34.05057,-118.214095,34.032739,-118.220896,1.29207211733,Construction on I-10 WB near STATE ST Expect delays.,,Golden State Fwy S,R,Los Angeles,Los Angeles,CA,90033,US,US/Pacific,KCQT,2021-04-23 21:52:00,59.0,59.0,72.0,29.84,10.0,CALM,0.0,0.0,Cloudy,False,False,False,False,False,False,False,False,False,False,False,False,False,Night,Night,Night,Night
C-6127299,2,2016-06-30 21:01:21.000000000,2016-07-01 03:01:21.000000000,28.32517,-82.32545999999998,28.3253,-82.32385,0.0983325153543999,At I-75/SR-93 - Construction work.,29634.0,State Road 52,R,San Antonio,Pasco,FL,33576-7964,US,US/Eastern,KZPH,2016-06-30 20:55:00,77.4,,75.0,30.04,10.0,North,4.6,,Scattered Clouds,False,False,False,True,False,False,False,False,False,False,False,True,False,Night,Night,Day,Day
C-6127300,2,2021-10-14 15:24:30.000000000,2021-10-14 16:23:00.000000000,33.463243,-112.012923,33.466192,-112.01292,0.203756567625,Stationary traffic from AZ-202/Red Mountain Fwy (N 32nd St) to E Thomas Rd (N 32nd St) due to roadwork.,1326.0,N 32nd St,L,Phoenix,Maricopa,AZ,85008-4803,US,US/Mountain,KPHX,2021-10-14 15:51:00,78.0,78.0,15.0,28.76,10.0,W,8.0,0.0,Fair,True,False,True,False,False,False,False,False,True,False,False,False,False,Day,Day,Day,Day
C-6127302,2,2021-11-09 17:24:13.000000000,2021-11-09 19:32:45.000000000,34.749697,-82.046136,34.751358,-82.046708,0.11926975857,Stationary traffic on SC-146 - SC-101 - US-221 N - US-221 S from US-221/SC-146/S Main St (SC-101) to SC-418/Fountain Inn Rd (SC-146/SC-101) due to roadwork.,7.0,Wenoka Dr,L,Woodruff,Spartanburg,SC,29388-8717,US,US/Eastern,KSPA,2021-11-09 17:15:00,68.0,68.0,37.0,29.32,10.0,CALM,0.0,0.0,Fair,False,False,False,False,False,False,False,False,False,False,False,False,False,Day,Day,Day,Day
C-6127303,2,2020-09-18 20:59:30.000000000,2020-09-18 23:59:29.000000000,41.557404,-87.310855,41.524144,-87.316743,2.3181330301700003,Slow traffic on I-65 from I-94/I-80/US-6/Exit 259 (I-65) to 61st Ave/Exit 255 (I-65) due to roadwork.,,I-65 S,R,Lake Station,Lake,IN,46405,US,US/Central,KGYY,2020-09-18 20:45:00,54.0,54.0,58.0,29.72,10.0,NNE,6.0,0.0,Fair,False,False,False,False,False,False,False,False,False,False,False,False,False,Night,Night,Night,Night
C-6127304,2,2021-11-14 12:31:00.000000000,2021-11-14 13:00:30.000000000,34.622507,-92.503354,34.626526,-92.49794,0.41456439075,Slow traffic on AR-5 from Springhill Rd (Stagecoach Rd/AR-5) to Hilldale Rd (Stagecoach Rd/AR-5) due to roadwork.,5298.0,Highway 5 N,R,Bryant,Saline,AR,72022,US,US/Central,KLIT,2021-11-14 12:53:00,64.0,64.0,38.0,29.81,10.0,NNW,12.0,0.0,Mostly Cloudy,False,False,False,False,False,False,False,False,False,False,False,False,False,Day,Day,Day,Day
C-6127305,2,2021-12-11 20:33:00.000000000,2021-12-13 22:33:06.000000000,25.928151,-80.200342,25.927882,-80.204369,0.250922075293,Stationary traffic on FL-826 from FL-915/6th Ave (FL-826) to 2nd Ave (FL-826) due to roadwork.,16700.0,N Miami Ave,L,North Miami Beach,Miami-Dade,FL,33169-6033,US,US/Eastern,KHWO,2021-12-13 20:53:00,75.0,75.0,76.0,30.25,10.0,NE,5.0,0.0,Fair,False,False,False,False,False,False,False,False,True,False,False,True,False,Night,Night,Night,Night
C-6127306,3,2018-07-30 20:00:00.000000000,2018-07-31 06:01:00.000000000,43.670734,-116.678078,,,5.15999984741,Intermittent lane closures and shoulder closed due to construction during the night on I-84 both ways from Exit 26 US-20 to Exit 28 Illinois Ave.,,N Illinois Ave,R,Caldwell,Canyon,ID,83605,US,US/Mountain,KEUL,2018-07-30 19:56:00,93.0,,24.0,29.88,10.0,Calm,,,Clear,False,False,False,False,False,False,False,False,False,False,False,False,False,Day,Day,Day,Day
C-6127307,2,2019-07-02 04:19:15.000000000,2019-07-04 23:59:00.000000000,41.256561,-95.940903,,,0.0,Restrictions due to utility work on Harney St both ways from 24th St to 19th St.,375.0,S 19th St,L,Omaha,Douglas,NE,68102,US,US/Central,KOMA,2019-07-02 03:52:00,76.0,76.0,79.0,28.86,10.0,NNE,6.0,0.0,Cloudy,True,False,True,False,False,False,False,False,True,False,False,True,False,Night,Night,Night,Day
C-6127308,2,2021-10-05 08:41:30.000000000,2021-10-05 09:09:30.000000000,41.812461,-87.723653,41.822957,-87.72393100000002,0.7253458040080001,Slow traffic from W 47th St (S Pulaski Rd) to I-55/Adlai E Stevenson Expy (S Pulaski Rd) due to roadwork.,4437.0,S Pulaski Rd,L,Chicago,Cook,IL,60632-4010,US,US/Central,KMDW,2021-10-05 08:53:00,66.0,66.0,75.0,29.52,10.0,NE,10.0,0.0,Cloudy,False,False,False,False,False,False,False,False,False,False,False,True,False,Day,Day,Day,Day
C-6127309,2,2021-07-03 12:40:10.000000000,2021-07-03 15:28:49.000000000,44.959605,-93.205529,44.958485,-93.198899,0.333258630432,Construction on I-94 near MN-280 Allow extra time.,,I-94 E,R,Saint Paul,Ramsey,MN,55104,US,US/Central,KSTP,2021-07-03 12:53:00,85.0,85.0,38.0,29.25,10.0,SSW,8.0,0.0,Fair,False,False,False,False,True,False,False,False,False,False,False,False,False,Day,Day,Day,Day
C-6127310,2,2020-03-03 20:21:00.000000000,2020-03-04 05:19:00.000000000,33.96811,-118.16769,34.01658,-118.17267,3.36108727568,Between CA-42/Firestone Blvd and I-5/Santa Ana Fwy - Bridge maintenance work. Lane closed.,,Florence Ave,R,Bell Gardens,Los Angeles,CA,90201,US,US/Pacific,KCQT,2020-03-03 19:52:00,64.0,64.0,58.0,29.76,10.0,CALM,0.0,0.0,Fair,False,False,False,False,True,False,False,False,False,False,False,False,False,Night,Night,Night,Night
C-6127311,2,2020-05-15 18:59:11.000000000,2020-05-16 06:00:00.000000000,40.849,-74.82408000000002,40.85139,-74.82665,0.2128622023759999,At CR-517/High St - Construction work.,3.0,Mill St,R,Hackettstown,Warren,NJ,07840-2305,US,US/Eastern,K12N,2020-05-15 18:53:00,82.0,82.0,41.0,29.35,10.0,SW,13.0,0.0,Fair,False,False,True,False,False,False,False,False,False,False,False,True,False,Day,Day,Day,Day
C-6127312,2,2019-09-10 20:01:07.000000000,2019-09-14 20:00:53.000000000,47.95167,-122.0962,47.9521,-122.10673,0.4881872155969999,At WA-9 - Construction work. Single alternate lane traffic.,,State Route 2,R,Snohomish,Snohomish,WA,98290,US,US/Pacific,KPAE,2019-09-10 19:53:00,62.0,62.0,78.0,29.34,10.0,N,3.0,0.0,Partly Cloudy,False,False,False,False,False,False,False,False,False,False,False,False,False,Night,Day,Day,Day
C-6127313,2,2020-05-20 11:17:50.000000000,2020-05-21 15:30:40.000000000,32.556290000000004,-85.51221,32.556940000000004,-85.51061,0.10343628152,At US-29/Exit 51 - Long-term roadwork.,,I-85 N,R,Auburn,Lee,AL,36832,US,US/Central,KAUO,2020-05-20 10:56:00,68.0,68.0,78.0,29.09,10.0,N,8.0,0.0,Cloudy,False,False,False,False,False,False,False,False,False,False,False,False,False,Day,Day,Day,Day
C-6127314,2,2020-07-17 03:30:00.000000000,2020-07-24 14:45:00.000000000,30.366522,-91.633907,30.310456,-91.859228,13.983509993,Construction on I-10 WB near LA-975 Allow extra time.,,I-10 W,R,Grosse Tete,Iberville,LA,70740,US,US/Central,KBTR,2020-07-17 03:41:00,73.0,73.0,100.0,29.99,0.25,NE,3.0,0.0,Fog,False,False,False,False,False,False,False,False,False,False,False,False,False,Night,Night,Night,Night
C-6127315,2,2021-10-15 18:01:30.000000000,2021-10-15 20:23:16.000000000,42.154304,-87.957026,42.153503,-87.955437,0.098425451765,Stationary traffic on County Hwy-W17 - County Hwy-73 at S McHenry Rd due to roadwork.,109.0,E Lake Cook Rd,L,Buffalo Grove,Lake,IL,60089-2261,US,US/Central,KPWK,2021-10-15 17:52:00,58.0,58.0,58.0,29.22,10.0,WNW,8.0,0.0,Fair,False,False,False,False,False,False,False,False,False,False,False,False,False,Day,Day,Day,Day
C-6127316,2,2021-04-05 01:00:00.000000000,2021-11-30 07:45:00.000000000,40.459577,-88.97538,40.47964,-88.952562,1.8330628015,Construction on S VETERANS PKY NB near COMMERCE PKY Allow extra time.,,S Veterans Pkwy,R,Bloomington,McLean,IL,61701,US,US/Central,KBMI,2021-04-05 00:56:00,57.0,57.0,62.0,29.1,10.0,SSW,13.0,0.0,Fair,False,False,True,False,False,False,False,False,False,False,False,True,False,Night,Night,Night,Night
C-6127317,2,2021-07-21 08:00:00.000000000,2021-08-05 15:00:00.000000000,43.133732,-93.35628,43.111895,-93.351064,1.53155135215,Lane closed on I-35 S - IA-27 S - US-18 E from US-18/Exit 194 (I-35) to US-18/IA-27/Exit 190 (I-35) due to roadwork.,,4th Ave S,R,Clear Lake,Cerro Gordo,IA,50428,US,US/Central,KMCW,2021-07-21 07:53:00,71.0,71.0,87.0,28.84,5.0,CALM,0.0,0.0,Fair,False,False,False,False,False,False,False,False,False,False,False,False,False,Day,Day,Day,Day
C-6127318,2,2021-03-13 06:19:29.000000000,2021-12-30 23:49:49.000000000,33.495038,-112.115727,33.494349,-112.11706399999998,0.0905595016225,Stationary traffic from I-17 S to W Weldon Ave due to roadwork.,2626.0,W Indian School Rd,L,Phoenix,Maricopa,AZ,85017-4303,US,US/Mountain,KPHX,2021-08-10 15:51:00,93.0,93.0,42.0,28.72,10.0,S,13.0,0.0,Partly Cloudy,True,False,False,False,False,False,False,False,True,False,False,False,False,Night,Day,Day,Day
C-6127319,2,2021-08-20 12:11:26.000000000,2021-08-20 17:00:00.000000000,43.15815,-77.682281,,,0.0,Two lanes closed and right hand shoulder closed due to construction work on NY-390 Southbound before I-490 Exits 9A.,,NY-390 S,R,Rochester,Monroe,NY,14606,US,US/Eastern,KROC,2021-08-20 11:54:00,81.0,81.0,67.0,29.38,10.0,NW,5.0,0.0,Mostly Cloudy,False,False,False,False,False,False,False,False,False,False,False,False,False,Day,Day,Day,Day
C-6127320,2,2020-06-08 18:14:55.000000000,2020-08-13 09:28:59.000000000,40.771977,-97.04468,40.77726,-97.044709,0.365023689309,Construction on US-6 EB near FAIRWAY DR Construction. Expect long delays.,301.0,N Highway 6,L,Milford,Seward,NE,68405,US,US/Central,KLNK,2020-06-08 17:54:00,89.0,89.0,43.0,28.39,10.0,SSE,18.0,0.0,Fair,False,False,False,False,False,False,False,False,False,False,False,False,False,Day,Day,Day,Day
C-6127321,2,2020-11-13 05:03:00.000000000,2020-11-13 07:41:30.000000000,33.998769,-96.587301,33.998339,-96.635801,2.7783366024,Stationary traffic on US-70 W - US-70 E from N3620 Rd/Willow Springs Rd (US-70) to OK-32/5th St (US-70) due to roadwork.,,N3610 Rd,R,Mead,Bryan,OK,73449,US,US/Central,KDUA,2020-11-13 04:55:00,52.0,52.0,71.0,29.42,10.0,NNE,15.0,0.0,Fair,False,False,False,False,False,False,False,False,False,False,False,False,False,Night,Night,Night,Night
C-6127322,2,2021-07-10 12:08:01.000000000,2021-07-10 12:30:41.000000000,36.689239,-96.724054,36.688122,-96.707989,0.893430258057,Stationary traffic on US-60 W - US-60 E from 7th St (US-60) to OK-18/OK-11 (US-60) due to roadwork.,46430.0,US Highway 60,R,Burbank,Osage,OK,74633,US,US/Central,KPNC,2021-07-10 11:53:00,85.0,85.0,69.0,28.83,10.0,SW,14.0,0.0,Fair,False,False,False,False,False,False,False,False,False,False,False,False,False,Day,Day,Day,Day
C-6127323,2,2019-12-19 01:51:00.000000000,2019-12-19 05:57:46.000000000,32.893159999999995,-117.115478,32.893159999999995,-117.115478,0.0,At I-15 - Lane control signs not working.,,Escondido Fwy S,R,San Diego,San Diego,CA,92126,US,US/Pacific,KNKX,2019-12-19 01:55:00,45.0,41.0,56.0,29.54,,ENE,8.0,0.0,Fair,False,False,False,False,False,False,False,False,False,False,False,False,False,Night,Night,Night,Night
C-6127324,2,2021-06-16 16:37:00.000000000,2021-06-16 18:14:00.000000000,40.450319,-104.992185,40.411249,-104.993065,2.69987662059,Slow traffic on I-25 S - US-87 S from CO-392/Exit 262 (I-25) to US-34/Eisenhower Blvd (I-25) due to roadwork.,,I-25 S,R,Loveland,Larimer,CO,80538,US,US/Mountain,KFNL,2021-06-16 16:56:00,97.0,97.0,14.0,25.03,10.0,E,10.0,0.0,Fair,False,False,False,False,False,False,False,False,False,False,False,False,False,Day,Day,Day,Day
C-6127325,2,2019-09-05 19:01:41.000000000,2019-09-22 00:01:35.000000000,30.53932,-91.19027,30.538655,-91.189972,0.0492506039552,At Scenic Hwy - Construction work.,10025.0,Scenic Hwy,L,Baton Rouge,East Baton Rouge,LA,70807-3769,US,US/Central,KBTR,2019-09-13 00:53:00,77.0,77.0,79.0,30.0,10.0,CALM,0.0,0.0,Fair,False,False,False,False,False,False,False,False,False,False,False,False,False,Day,Day,Day,Day
C-6127326,2,2020-10-09 15:39:30.000000000,2020-10-09 20:18:17.000000000,33.320856,-111.91121499999998,33.318779,-111.911219,0.1435072182289999,Queuing traffic from E Warner Rd (S McClintock Dr) to W Chandler Blvd (N McClintock Dr) due to maintenance work.,,N McClintock Dr,R,Chandler,Maricopa,AZ,85226,US,US/Mountain,KCHD,2020-10-09 15:47:00,97.0,97.0,9.0,28.49,10.0,SSE,7.0,,Fair,False,False,False,False,False,False,False,False,False,False,False,False,False,Day,Day,Day,Day
C-6127327,2,2021-06-27 23:22:30.000000000,2021-06-27 23:55:30.000000000,40.249239,-77.07659100000002,40.265829,-77.050351,1.79673227083,Slow traffic on I-81 N from US-11/Exit 52 (I-81) to PA-114/Exit 18 (I-81) due to roadwork.,,I-81 N,R,Mechanicsburg,Cumberland,PA,17050,US,US/Eastern,KCXY,2021-06-27 22:56:00,83.0,83.0,65.0,29.78,9.0,S,7.0,0.0,Fair,False,False,False,False,False,False,False,False,False,False,False,False,False,Night,Night,Night,Night
C-6127328,2,2021-12-01 08:17:00.000000000,2021-12-01 08:37:30.000000000,34.006423,-118.408439,34.004234000000004,-118.410409,0.18869894463,Slow traffic from Overland Ave (Culver Blvd) to I-405/Sawtelle Blvd/San Diego Fwy (Culver Blvd) due to roadwork.,11124.0,Culver Blvd,L,Culver City,Los Angeles,CA,90230-4030,US,US/Pacific,KSMO,2021-12-01 08:13:00,51.0,51.0,100.0,29.91,5.0,NE,5.0,0.0,Fair,False,False,True,False,False,False,False,False,True,True,False,False,False,Day,Day,Day,Day
C-6127329,2,2020-04-17 08:10:54.000000000,2020-04-17 17:00:00.000000000,42.70819,-73.85815,42.74286,-73.91441,3.72728048415,At Guilderland Service Area - Roadwork. Left lane closed.,,New York Trwy W,R,Albany,Albany,NY,12205,US,US/Eastern,KALB,2020-04-17 07:51:00,35.0,35.0,67.0,29.92,10.0,CALM,0.0,0.0,Fair,False,False,False,False,False,False,False,False,False,False,False,False,False,Day,Day,Day,Day
C-6127330,2,2020-09-25 16:01:00.000000000,2020-09-25 22:46:00.000000000,38.307048,-122.478093,38.309109,-122.478983,0.150354744346,Construction on CA-12 WB near SIESTA WAY Expect delays.,18787.0,Highway 12,R,Sonoma,Sonoma,CA,95476-4419,US,US/Pacific,KO69,2020-09-25 15:55:00,77.0,77.0,41.0,29.89,10.0,WSW,13.0,0.0,Fair,False,False,True,False,False,False,False,False,False,False,False,False,False,Day,Day,Day,Day
C-6127331,2,2021-06-29 11:09:00.000000000,2021-11-10 19:15:56.000000000,33.407415,-111.89397,33.406547,-111.891998,0.128583540154,Stationary traffic from S River Dr to E Palmcroft Dr due to roadwork.,2137.0,E Broadway Rd,R,Tempe,Maricopa,AZ,85282-1705,US,US/Mountain,KPHX,2021-11-10 16:51:00,82.0,82.0,18.0,28.75,10.0,WSW,9.0,0.0,Fair,False,False,False,False,False,False,False,False,False,False,False,False,False,Day,Day,Day,Day
C-6127332,2,2020-09-03 13:16:00.000000000,2020-09-04 00:36:23.000000000,26.51455300000001,-80.060439,26.515408,-80.058901,0.111944834271,Queuing traffic on FL-805 - US-1 N - FL-5 from To Be Determined to Riviera Dr due to resurfacing work.,552.0,E Woolbright Rd,R,Boynton Beach,Palm Beach,FL,33435-6033,US,US/Eastern,KPBI,2020-09-03 12:53:00,91.0,91.0,63.0,29.99,10.0,ESE,12.0,0.0,Partly Cloudy,False,False,False,False,False,False,False,False,False,False,False,True,False,Day,Day,Day,Day
C-6127333,4,2018-09-04 17:44:41.000000000,2018-09-04 22:44:30.000000000,32.8434,-96.90906,32.84673,-96.91188,0.282371438381,Closed at TX-12-LOOP/N Walton Walker Blvd - Closed. Construction work.,1627.0,Frontage Rd,L,Irving,Dallas,TX,75062,US,US/Central,KDFW,2018-09-04 17:53:00,89.1,,52.0,29.9,10.0,ESE,10.4,,Mostly Cloudy,False,False,False,False,False,False,False,False,False,False,False,True,False,Day,Day,Day,Day
C-6127334,2,2020-09-14 09:00:00.000000000,2020-09-14 15:00:00.000000000,42.40802,-71.10379,,,0.0,Construction work on MA-38 Mystic Ave both ways at Bowen Ave.,207.0,Mystic Ave,R,Medford,Middlesex,MA,02155-4643,US,US/Eastern,KBOS,2020-09-14 08:54:00,70.0,70.0,63.0,30.01,10.0,NW,12.0,0.0,Cloudy,False,False,False,False,False,False,False,False,False,False,False,False,False,Day,Day,Day,Day
C-6127335,2,2021-12-04 19:06:30.000000000,2021-12-04 21:10:06.000000000,25.846986,-80.211189,25.846322,-80.20918499999998,0.1327890196599999,Slow traffic on FL-934 - US-441 S from NW 8th Ave to NW 78th St due to roadwork.,7899.0,NW 8th Ave,R,Miami,Miami-Dade,FL,33150-3220,US,US/Eastern,KOPF,2021-12-04 18:53:00,70.0,70.0,63.0,30.11,10.0,E,5.0,0.0,Fair,False,False,True,False,False,False,False,False,True,True,False,False,False,Night,Night,Night,Night
C-6127336,3,2019-06-14 21:00:00.000000000,2019-06-15 05:00:00.000000000,33.179573,-96.639801,,,2.73000001907,Road closed due to construction during the night on US-75 Sam Johnson Hwy Northbound between TX-121-TOLL Sam Rayburn Tlwy and Park Central Dr.,,TX-121 N,R,McKinney,Collin,TX,75072,US,,,,,,,,,,,,,False,False,False,False,False,False,False,False,False,False,False,False,False,Night,Day,Day,Day
C-6127337,2,2020-10-16 23:57:29.000000000,2020-10-17 01:00:41.000000000,40.622338,-89.32758299999998,40.621188,-89.270628,2.9879800403,Stationary traffic on I-74 from Morton Ave/Exit 102 (I-74) to IL-117/Exit 112 (I-74) due to roadwork.,,I-74 E,R,Deer Creek,Tazewell,IL,61733,US,US/Central,KPIA,2020-10-16 23:54:00,39.0,39.0,67.0,29.48,10.0,SSW,3.0,0.0,Fair,False,False,False,False,False,False,False,False,False,False,False,False,False,Night,Night,Night,Night
C-6127338,2,2021-04-13 06:15:00.000000000,2021-04-13 09:34:30.000000000,32.794464000000005,-96.712286,32.794631,-96.722681,0.6038641421750001,Slow traffic on R L Thornton Fwy W - US-67 S - I-30 W from Galloway Ave exit [57] to Ervay St exit [45] due to roadwork.,,I-30 W,R,Dallas,Dallas,TX,75228,US,US/Central,KDAL,2021-04-13 05:53:00,58.0,58.0,78.0,29.45,10.0,NNW,12.0,0.02,Light Rain,False,False,False,False,False,False,False,False,False,False,False,False,False,Night,Night,Day,Day
C-6127339,4,2021-12-29 21:56:37.000000000,2021-12-30 22:48:40.000000000,48.49598,-112.885004,48.48827,-112.856244,1.42057881114,Construction on US-89 SB near MP 101 Expect delays.,10631.0,US Highway 89,L,Browning,Glacier,MT,59417-5356,US,US/Mountain,K8S0,2021-12-29 22:00:00,14.0,-2.0,52.0,25.0,,W,16.0,0.0,Fair,False,False,False,False,False,False,False,False,False,False,False,False,False,Night,Night,Night,Night
C-6127340,2,2021-01-21 05:00:00.000000000,2021-01-21 06:40:30.000000000,39.844278,-75.39471999999998,39.839141,-75.410156,0.892507670517,Slow traffic on US-322 W - Vietnam Veterans Memorial Hwy - I-95 S from US-322/Exit 4 (I-95) to US-322/Exit 2/Exit 3 (I-95) due to roadwork.,,I-95 S,R,Chester,Delaware,PA,19013,US,US/Eastern,KPHL,2021-01-21 04:54:00,25.0,18.0,63.0,29.95,10.0,S,6.0,0.0,Fair,False,False,False,False,False,False,False,False,False,False,False,False,False,Night,Night,Night,Night
C-6127341,1,2020-05-25 07:00:00.000000000,2020-05-25 19:00:00.000000000,35.975494,-83.894302,,,0.0,Road closed due to sewer works and paving repairs on Mcconnell St both ways between Bethel Ave and Harold Ave.,2098.0,Harold Ave,R,Knoxville,Knox,TN,37915-1918,US,US/Eastern,KTYS,2020-05-25 06:53:00,64.0,64.0,93.0,29.01,10.0,CALM,0.0,0.0,Partly Cloudy,False,False,False,False,False,False,False,False,False,False,False,False,False,Day,Day,Day,Day
C-6127342,2,2021-05-08 06:48:30.000000000,2021-05-08 13:18:17.000000000,33.493752,-112.277247,33.493821000000004,-112.270932,0.363902529418,Slow traffic from N 107th Ave (W Indian School Rd) to AZ-101/Agua Fria Fwy (W Indian School Rd) due to roadwork.,10000.0,W Indian School Rd,R,Phoenix,Maricopa,AZ,85037-5900,US,US/Mountain,KGEU,2021-05-08 06:58:00,65.0,65.0,32.0,28.66,10.0,CALM,0.0,0.0,Fair,False,False,True,False,False,False,False,False,False,True,False,False,False,Day,Day,Day,Day
C-6127343,4,2021-08-05 08:30:00.000000000,2021-08-05 15:15:00.000000000,34.22144,-118.366732,34.221758,-118.363349,0.1945196604919999,Construction on I-5 SB near SUNLAND BLVD Take alternate route.,10899.0,Roscoe Blvd,R,Sun Valley,Los Angeles,CA,91352,US,US/Pacific,KBUR,2021-08-05 08:53:00,74.0,74.0,53.0,29.09,10.0,CALM,0.0,0.0,Fair,False,False,False,False,False,False,False,False,False,False,False,False,False,Day,Day,Day,Day
C-6127345,2,2021-07-07 06:00:00.000000000,2021-07-07 18:00:00.000000000,32.758342,-83.661606,32.762811,-83.661374,0.3090725917199999,Lane closed on GA-247 - GA-11 - US-129 N - US-41 N - GA-49 from Houston Rd (US-129) to US-41/GA-247/Pio Nono Ave/Houston Rd (US-129) due to roadwork.,,Houston Rd,R,Macon,Bibb,GA,31216,US,US/Eastern,KMCN,2021-07-07 05:57:00,70.0,70.0,93.0,29.68,1.0,E,3.0,0.0,Fog,False,False,False,False,False,False,False,False,False,False,False,False,False,Night,Night,Day,Day
C-6127346,3,2017-06-26 10:00:00.000000000,2017-06-26 15:00:00.000000000,40.806744,-73.23449699999998,,,2.40000009537,One lane blocked due to construction work on I-495 Long Island Expy both ways from Exit 53 Wicks Rd to Exit 55 County Hwy-67 Motor Pkwy.,,Motor Pkwy,R,Brentwood,Suffolk,NY,11717,US,US/Eastern,KISP,2017-06-26 09:56:00,73.9,,46.0,30.03,10.0,NW,6.9,,Partly Cloudy,False,False,False,False,False,False,False,False,False,False,False,False,False,Day,Day,Day,Day
C-6127347,2,2021-09-15 17:25:55.000000000,2021-09-15 20:14:04.000000000,40.615008,-73.980223,40.613329,-73.980576,0.117476019353,Slow traffic from 63rd St to W 6th St due to roadwork.,6298.0,Bay Pkwy,R,Brooklyn,Kings,NY,11204-3103,US,US/Eastern,KJRB,2021-09-15 17:51:00,81.0,,67.0,29.83,10.0,,,0.0,Fair,True,False,False,False,False,False,False,False,False,False,False,True,False,Day,Day,Day,Day
C-6127348,2,2021-09-01 07:28:00.000000000,2021-09-01 07:48:00.000000000,37.881914,-83.954856,37.877422,-83.953289,0.321917712166,Stationary traffic on KY-15 from KY-974 (KY-15) to KY-82/Bert T Combs Mountain Pkwy (KY-15) due to roadwork.,2.0,Curtis Ln,L,Clay City,Powell,KY,40312-9590,US,US/Eastern,KIOB,2021-09-01 07:35:00,68.0,68.0,94.0,28.61,10.0,N,10.0,0.0,Cloudy,False,False,False,False,False,False,False,False,False,False,False,False,False,Day,Day,Day,Day
C-6127349,2,2021-11-06 03:22:00.000000000,2021-11-06 19:00:00.000000000,47.666788,-96.0031,47.667923,-96.006313,0.168820097282,Lane closed on US-2 W from US-59 (US-2) to CR-34/Vance Ave (US-2) due to roadwork.,,Highway 2,R,Erskine,Polk,MN,56535,US,US/Central,KFSE,2021-11-06 03:15:00,43.0,37.0,87.0,28.43,10.0,SW,9.0,0.0,Fair,False,False,True,False,False,False,True,False,False,False,False,False,False,Night,Night,Night,Night
C-6127350,2,2020-10-15 12:53:00.000000000,2020-10-16 00:18:11.000000000,33.538446,-112.154739,33.538395,-112.150494,0.244496802977,Queuing traffic from N 51st Ave (W Glendale Ave) to N 43rd Ave (W Glendale Ave) due to roadwork.,4409.0,W Glendale Ave,L,Glendale,Maricopa,AZ,85301-2901,US,US/Mountain,KGEU,2020-10-15 12:58:00,89.0,89.0,19.0,28.78,10.0,SW,5.0,0.0,Fair,False,False,False,False,False,False,False,False,False,False,False,False,False,Day,Day,Day,Day
C-6127351,2,2020-11-16 15:16:00.000000000,2020-11-16 23:44:40.000000000,28.009319,-82.792012,28.013312,-82.78978599999998,0.307494418672,Stationary traffic on FL-580 - US-19 Alt S - US-19 Alt N from CR-576/Sunset Point Rd (US-19 Alt) to Skinner Blvd (US-19 Alt) due to roadwork.,620.0,Edgewater Dr,L,Dunedin,Pinellas,FL,34698-6915,US,US/Eastern,KPIE,2020-11-16 14:53:00,82.0,82.0,60.0,30.07,10.0,NE,6.0,0.0,Fair,False,False,True,False,False,False,False,False,False,False,False,False,False,Day,Day,Day,Day
C-6127352,2,2021-11-30 07:40:30.000000000,2021-11-30 10:21:59.000000000,33.480397,-112.087,33.480327,-112.081833,0.297808786031,Stationary traffic from N 19th Ave (W Thomas Rd) to N Central Ave (Thomas Rd) due to roadwork.,898.0,W Thomas Rd,R,Phoenix,Maricopa,AZ,85013,US,US/Mountain,KPHX,2021-11-30 07:51:00,59.0,59.0,32.0,28.84,10.0,ESE,6.0,0.0,Partly Cloudy,False,False,True,False,False,False,False,False,False,True,False,True,False,Day,Day,Day,Day
C-6127353,2,2020-12-07 13:21:30.000000000,2020-12-08 03:27:37.000000000,33.496192,-112.134237,33.494244,-112.134255,0.1345979772079999,Slow traffic from W Camelback Rd (N 35th Ave) to US-60/W Grand Ave (N 35th Ave) due to roadwork.,4100.0,N 35th Ave,L,Phoenix,Maricopa,AZ,85017-3858,US,US/Mountain,KPHX,2020-12-07 12:51:00,77.0,77.0,8.0,28.85,10.0,ENE,10.0,0.0,Mostly Cloudy,False,False,True,True,False,False,True,False,True,False,False,False,False,Day,Day,Day,Day
C-6127354,2,2020-11-03 14:27:00.000000000,2020-11-04 15:27:35.000000000,40.352143,-80.050522,40.35515,-80.050237,0.208305138709,Construction on US-19 NB near ABBEYVILLE RD Allow extra time.,108.0,Abbeyville Rd,R,Pittsburgh,Allegheny,PA,15228-1718,US,US/Eastern,KAGC,2020-11-03 14:53:00,55.0,55.0,38.0,28.82,10.0,W,9.0,0.0,Fair,True,False,True,True,False,False,False,False,False,False,False,True,False,Day,Day,Day,Day
C-6127355,2,2020-10-20 11:58:12.000000000,2020-10-21 21:12:37.000000000,40.83120200000001,-88.68411800000001,40.905908,-88.667815,5.231507694709999,Roadwork on I-55 from US-24/Exit 187 (I-55) to IL-23/Exit 201 (I-55).,,I-55 N,R,Pontiac,Livingston,IL,61764,US,US/Central,KPNT,2020-10-20 11:55:00,52.0,52.0,62.0,29.49,10.0,E,16.0,0.0,Cloudy,False,False,False,False,False,False,False,False,False,False,False,False,False,Day,Day,Day,Day
C-6127356,4,2021-09-26 00:23:00.000000000,2021-09-27 01:14:02.000000000,40.595818,-76.938325,40.54613300000001,-76.96266899999998,3.66295686314,Construction on PA-147 SB near PAXTON DR Expect delays.,101.0,River Dr,L,Dalmatia,Dauphin,PA,17017-9552,US,US/Eastern,KSEG,2021-09-26 00:53:00,61.0,61.0,81.0,29.48,10.0,VAR,7.0,0.0,Cloudy,False,False,False,False,False,False,False,False,False,False,False,False,False,Night,Night,Night,Night
C-6127357,2,2020-04-23 21:56:08.000000000,2020-04-27 21:55:27.000000000,34.41684,-119.58563,34.40098,-119.51635,4.09844014352,Between Padaro Ln/Exit 90 and Linden Ave/Exit 86B - Roadwork.,,US-101 S,R,Summerland,Santa Barbara,CA,93067,US,US/Pacific,KSBA,2020-04-23 21:53:00,81.0,81.0,28.0,29.86,10.0,N,15.0,0.0,Fair,False,False,False,False,False,False,False,False,False,False,False,True,False,Night,Night,Night,Night
C-6127358,2,2020-12-09 15:20:06.000000000,2020-12-09 20:45:00.000000000,34.342532,-79.534286,34.317349,-79.59563100000003,3.90882568813,Construction on I-95 SB near EXIT 181A Construction. Right lane closed.,,I-95 S,R,Latta,Dillon,SC,29565,US,US/Eastern,KMAO,2020-12-09 15:15:00,54.0,54.0,44.0,29.85,10.0,SSW,9.0,0.0,Fair,False,False,False,False,True,False,False,False,False,False,False,False,False,Day,Day,Day,Day
C-6127359,2,2021-09-21 13:14:34.000000000,2021-09-21 14:02:00.000000000,40.68946,-74.01053,40.706536,-74.016239,1.21715098281,Slow traffic on I-478 E - NY-9A from I-478 W to exit [1] due to roadwork.,,Brooklyn Battery Tunl,R,Manhattan,New York,NY,10004,US,US/Eastern,KJRB,2021-09-21 12:51:00,73.0,,61.0,30.25,10.0,,,0.0,Mostly Cloudy,False,False,True,False,False,False,False,False,False,False,False,True,False,Day,Day,Day,Day
C-6127360,2,2021-09-10 08:00:00.000000000,2021-09-10 18:00:00.000000000,37.361133,-77.226428,37.36582,-77.225055,0.332502511774,On VA-5 (John Tyler Memorial Hwy) in the County of Charles City from Wayside Rd; Rt. 607E/W (Charles City County) to Roxbury Rd; VA-106N/S; VA-106N/S VA-156N/S motorists can expect potential delays in this area from 09/10/21 at 8:00 AM until 09/10/21 at 6:00 PM due to paving operations. The east through lanes are alternating closures. The west through lanes are alternating closures.,1699.0,John Tyler Memorial Hwy,L,Charles City,Charles City,VA,23030-2910,US,US/Eastern,KRIC,2021-09-10 07:54:00,63.0,63.0,78.0,29.82,10.0,NW,7.0,0.0,Fair,False,False,True,False,False,False,False,False,False,False,False,False,False,Day,Day,Day,Day
C-6127361,4,2019-06-19 04:02:10.000000000,2019-06-19 09:01:14.000000000,32.87035,-117.21416,32.866906,-117.213675,0.2396165171339999,Closed at Genesee Ave - Closed due to roadwork.,8760.0,Genesee Ave,L,San Diego,San Diego,CA,92122-1125,US,US/Pacific,KNKX,2019-06-19 03:55:00,59.0,59.0,78.0,29.44,10.0,E,3.0,0.0,Cloudy,False,False,True,False,False,False,True,False,False,False,False,True,False,Night,Night,Night,Day
C-6127362,2,2020-12-07 17:30:00.000000000,2020-12-12 07:59:00.000000000,42.791554,-73.761517,42.791001,-73.760926,0.0485575243639,Milling on I-87 Northway both directions between Twin Bridges; Town of Halfmoon; Town of Colonie Line (Colonie) and Exit 12; NY 67 (Malta) Monday December 7th 2020 thru Friday December 11th 2020 Monday thru Friday 09:30 AM thru 05:00 PM various lane closure,,Adirondack Northway S,R,Clifton Park,Saratoga,NY,12065,US,US/Eastern,KSCH,2020-12-07 17:52:00,28.0,20.0,74.0,29.37,15.0,WNW,8.0,0.0,Cloudy,False,False,False,False,False,False,False,False,False,False,False,False,False,Night,Night,Night,Day
C-6127363,2,2021-03-24 06:01:00.000000000,2021-03-24 20:15:00.000000000,39.510721,-123.385913,39.436396,-123.35723,5.35838333566,Construction on US-101 SB near WITRA'S HIDDEN Expect long delays.,31400.0,Big Trails Dr,R,Willits,Mendocino,CA,95490,US,US/Pacific,KUKI,2021-03-24 05:56:00,36.0,36.0,82.0,29.45,10.0,CALM,0.0,0.0,Fair,False,False,False,False,False,False,False,False,False,False,False,False,False,Night,Night,Night,Day
C-6127364,3,2020-04-25 21:32:09.000000000,2020-04-29 21:31:34.000000000,26.08146,-80.15725,26.0856,-80.20328,2.8707487835500003,Between US-1/Exit 12 and SR-84 - Construction work. Right lane closed.,,I-595 W,R,Fort Lauderdale,Broward,FL,33315,US,US/Eastern,KFLL,2020-04-25 21:53:00,83.0,83.0,69.0,29.97,10.0,W,3.0,0.0,Partly Cloudy,False,False,False,False,True,False,False,False,False,False,False,False,False,Night,Night,Night,Night
C-6127365,4,2020-05-05 12:50:37.000000000,2020-05-10 12:49:24.000000000,34.18621,-118.31618,34.18519000000001,-118.31891,0.1712120026709999,Closed at I-5 - Closed due to roadwork.,179.0,E Burbank Blvd,L,Burbank,Los Angeles,CA,91502,US,US/Pacific,KBUR,2020-05-05 12:53:00,92.0,92.0,11.0,29.11,10.0,VAR,3.0,0.0,Fair,True,False,False,False,False,False,False,False,False,False,False,True,False,Day,Day,Day,Day
C-6127366,2,2020-12-01 00:20:30.000000000,2020-12-01 02:35:30.000000000,27.799263,-97.399424,27.798098,-97.406337,0.43011795427,Slow traffic on I-37 N from N Shoreline Blvd (I-37) to TX-286/Crosstown Expy/Exit 1 (I-37) due to roadwork.,,I-37 N,R,Corpus Christi,Nueces,TX,78401,US,US/Central,KCRP,2020-12-01 00:51:00,36.0,36.0,89.0,30.27,10.0,CALM,0.0,0.0,Fair,False,False,False,False,False,False,False,False,False,False,False,False,False,Night,Night,Night,Night
C-6127367,2,2019-05-09 21:04:15.000000000,2019-07-31 05:00:00.000000000,25.84094,-80.279714,25.84067000000001,-80.28929000000002,0.595772547417,At Red Rd - Construction work. Lane blocked.,,E 21st St,R,Hialeah,Miami-Dade,FL,33010,US,US/Eastern,KMIA,2019-06-25 20:53:00,86.0,86.0,67.0,30.03,10.0,SSE,7.0,0.0,Mostly Cloudy,False,False,False,False,False,False,False,False,True,False,False,False,False,Night,Night,Night,Day
C-6127368,2,2021-02-21 18:03:00.000000000,2021-02-22 01:57:11.000000000,32.814574,-96.644929,32.829640999999995,-96.618339,1.86208786775,Roadwork on Motley Dr/Exit 55 (I-30) from Northwest Dr/Exit 58 (I-30) to I-30 E - R L Thornton Fwy E - US-67 N.,,I-30 E,R,Mesquite,Dallas,TX,75150,US,US/Central,KHQZ,2021-02-21 17:50:00,66.0,66.0,43.0,29.52,10.0,WNW,14.0,0.0,Partly Cloudy,False,False,False,False,True,False,False,False,False,False,False,False,False,Day,Day,Day,Day
C-6127369,2,2019-07-18 08:12:53.000000000,2019-07-22 08:13:34.000000000,40.628232,-75.46978,40.63043,-75.47,0.152304870238,At US-22 - Roadwork. Open.,519.0,Fullerton Ave,R,Whitehall,Lehigh,PA,18052-6707,US,US/Eastern,KABE,2019-07-18 08:10:00,75.0,75.0,90.0,29.49,2.0,NNE,5.0,0.07,Heavy Rain,False,False,True,True,False,False,False,False,False,False,False,True,False,Day,Day,Day,Day
C-6127370,2,2021-02-16 05:41:49.000000000,2021-02-16 19:08:42.000000000,28.664907,-97.417026,28.629247,-97.460326,3.60056049855,Roadwork on TX-239/W Fannin St (US-59) from FM-1351 (US-59) to US-59 S - US-59 N.,1796.0,W Fannin St,R,Goliad,Goliad,TX,77963-4130,US,US/Central,KVCT,2021-02-16 07:51:00,,,,30.19,10.0,NW,12.0,0.0,Fair,False,False,False,False,False,False,False,False,False,True,False,False,False,Night,Night,Night,Night
C-6127371,2,2020-11-20 15:45:48.000000000,2020-11-20 19:50:08.000000000,33.427746,-95.223974,33.475855,-95.218956,3.33657903437,Slow traffic on TX-37 from FM-196 (TX-37) to US-271 Bus/7th St (TX-37) due to roadwork.,,Texas Highway 37 N,R,Bogata,Red River,TX,75417,US,US/Central,KLBR,2020-11-20 15:56:00,74.0,74.0,59.0,29.67,10.0,S,13.0,0.0,Fair,False,False,False,False,False,False,False,False,False,False,False,False,False,Day,Day,Day,Day
C-6127372,3,2018-10-15 12:49:01.000000000,2018-10-28 08:30:57.000000000,42.41824,-71.1097,42.41662,-71.11053000000003,0.119670514297,Between RT-38/RT-60/Riverside Ave/High St and RT-16/Mystic Valley Pky - Bridge maintenance work.,1.0,Salem St,R,Medford,Middlesex,MA,02155-3205,US,US/Eastern,KBOS,2018-10-15 12:54:00,60.1,,80.0,30.04,10.0,South,11.5,0.0,Overcast,False,False,False,False,False,False,False,False,True,False,False,True,False,Day,Day,Day,Day
C-6127373,3,2020-08-04 21:00:00.000000000,2020-08-05 05:00:00.000000000,34.08847,-117.649727,,,0.3799999952319999,Entry ramp to I-10 Westbound from S Euclid Ave Northbound closed due to construction work.,40.0,E 7th St,R,Upland,San Bernardino,CA,91786,US,US/Pacific,KONT,2020-08-04 20:53:00,73.0,73.0,64.0,28.9,10.0,WSW,10.0,0.0,Fair,False,False,False,False,False,False,False,False,False,False,False,False,False,Night,Night,Night,Day
C-6127374,2,2019-08-31 20:12:12.000000000,2021-03-05 08:53:33.000000000,41.10902,-80.68885999999998,41.11619,-80.69288,0.53778558715,Between I-680 northbound between Bella Vista Ave. and Sr 711 - Roadwork.,,I-680 N,R,Youngstown,Mahoning,OH,44509,US,US/Eastern,KYNG,2019-09-05 12:51:00,70.0,70.0,49.0,28.85,10.0,CALM,0.0,0.0,Partly Cloudy,False,False,False,False,False,False,False,False,False,False,False,False,False,Night,Day,Day,Day
C-6127375,2,2021-06-13 18:57:23.000000000,2021-06-14 19:42:23.000000000,26.094342,-80.168877,26.083812,-80.168707,0.7276301818500001,Construction on I-95 SB near EXIT 25 Construction. Left lane closed.,,I-95 S,R,Fort Lauderdale,Broward,FL,33315,US,US/Eastern,KFLL,2021-06-13 18:53:00,82.0,82.0,82.0,29.84,10.0,ESE,9.0,0.07,Mostly Cloudy,False,False,False,False,True,False,False,False,False,False,False,False,False,Day,Day,Day,Day
C-6127376,2,2021-02-23 23:15:00.000000000,2021-02-24 01:30:00.000000000,29.822804,-97.99119,29.807701,-98.007949,1.44854399802,Stationary traffic on Trooper Randall Wade Vetter Memorial Hwy - I-35 S from Center Point Rd/Exit 200 (I-35) to FM-1102/York Creek Rd/Exit 196 (I-35) due to roadwork.,,I-35 S,R,San Marcos,Hays,TX,78666,US,US/Central,KHYI,2021-02-23 22:56:00,63.0,63.0,93.0,29.35,10.0,SSW,14.0,0.0,Cloudy,False,False,False,False,False,False,False,False,False,False,False,False,False,Night,Night,Night,Night
C-6127377,2,2020-11-10 00:06:21.000000000,2020-11-10 00:43:09.000000000,40.729935,-74.039692,40.729776,-74.037589,0.110656835463,Slow traffic from 14th St/Boyle Plz (Holland Tunnel (Westbound)) to Broome St (Holland Tunnel (Westbound)) due to roadwork.,550.0,Luis Munoz Marin Blvd,R,Jersey City,Hudson,NJ,07310-1414,US,US/Eastern,KJRB,2020-11-10 00:51:00,63.0,63.0,78.0,30.14,8.0,SW,6.0,0.0,Fair,False,False,True,False,False,False,False,False,False,False,False,True,False,Night,Night,Night,Night
C-6127378,2,2021-10-19 13:45:30.000000000,2021-10-19 14:05:30.000000000,35.423043,-97.613965,35.422813,-97.605195,0.494041254989,Slow traffic on OK-152 E from MacArthur Blvd (Airport Rd) to Meridian Ave (Airport Rd) due to roadwork.,,Airport Rd E,R,Oklahoma City,Oklahoma,OK,73179,US,US/Central,KOKC,2021-10-19 13:52:00,77.0,77.0,48.0,28.54,10.0,S,24.0,0.0,Fair / Windy,False,False,False,False,False,False,False,False,False,False,False,False,False,Day,Day,Day,Day
C-6127379,4,2021-08-03 11:32:30.000000000,2021-08-03 14:11:36.000000000,30.226618,-97.768675,30.225988,-97.769345,0.059115710426,Bridge closure at W Ben White Blvd.,522.0,W Ben White Blvd,L,Austin,Travis,TX,78704-7030,US,US/Central,KATT,2021-08-03 11:30:00,83.0,83.0,69.0,29.31,10.0,NNW,3.0,0.0,Cloudy,False,False,True,False,False,False,False,False,False,False,False,False,False,Day,Day,Day,Day
C-6127380,2,2020-06-10 07:00:00.000000000,2020-08-28 19:00:00.000000000,40.21947,-85.66535999999998,40.1132,-85.65284,7.37225470565,Between IN-128/Clyde St/E 800 North and IN-32/E 3rd St/University Blvd - Roadwork.,8001.0,N State Road 9,R,Alexandria,Madison,IN,46001-8292,US,US/Eastern,KAID,2020-06-10 06:55:00,76.0,76.0,86.0,28.69,10.0,SSW,9.0,0.0,Partly Cloudy,False,False,False,False,False,False,False,False,False,False,False,True,False,Day,Day,Day,Day
C-6127381,2,2020-09-29 19:17:00.000000000,2020-09-29 19:29:00.000000000,45.985647,-112.512456,45.992597,-112.534136,1.14620362142,Slow traffic on I-15 from I-90 Bus/I-15 Bus/Harrison Ave/Exit 127 (I-15) to Montana St/Exit 126 (I-90/I-15) due to roadwork.,,I-15 S,R,Butte,Silver Bow,MT,59701,US,US/Mountain,KBTM,2020-09-29 18:53:00,70.0,70.0,20.0,24.67,10.0,NNW,7.0,0.0,Fair,False,False,False,False,True,False,False,False,False,False,False,False,False,Night,Day,Day,Day
C-6127382,2,2018-11-23 04:26:07.000000000,2018-11-25 19:00:00.000000000,39.75724,-79.99945799999998,,,0.0,Intermittent lane closures due to construction work on Old Water Works Rd both ways at SR 2019 Bald Hill Church Rd.,,Bald Hill Church Rd,R,Dilliner,Greene,PA,15327,US,US/Eastern,KMGW,2018-11-23 04:53:00,30.9,25.2,54.0,30.38,10.0,East,5.8,,Overcast,False,False,False,False,False,False,False,False,False,False,False,False,False,Night,Night,Night,Night
C-6127383,4,2021-11-13 10:24:32.000000000,2021-11-16 23:59:00.000000000,38.892105,-77.039479,38.891753,-77.03947600000002,0.0243214187765,Closed road from US-50/Constitution Ave (17th St) to Independence Ave (17th St) due to roadwork.,1686.0,Constitution Ave NW,L,Washington,District of Columbia,DC,20006,US,US/Eastern,KDCA,2021-11-13 10:52:00,53.0,53.0,57.0,29.8,10.0,NNW,7.0,0.0,Cloudy,True,False,True,False,False,False,False,False,True,False,False,True,False,Day,Day,Day,Day
C-6127384,2,2021-09-02 13:33:27.000000000,2021-09-02 13:57:05.000000000,34.631646999999994,-93.059047,34.622568,-93.047993,0.8879648780220001,Slow traffic on AR-7 - AR-298 from Strawberry Rd (AR-7) to AR-5/Park Ave (AR-7) due to roadwork.,3607.0,N Highway 7,L,Hot Springs Village,Garland,AR,71909-9607,US,US/Central,KHOT,2021-09-02 13:53:00,88.0,88.0,51.0,29.39,10.0,SSE,8.0,0.0,Fair,False,False,False,False,False,False,False,False,False,False,False,False,False,Day,Day,Day,Day
C-6127385,2,2021-08-16 06:18:30.000000000,2021-08-16 06:46:30.000000000,37.595845,-122.059029,37.583834,-122.050546,0.951003104883,Slow traffic on Nimitz Fwy S - I-880 S from Alvarado Niles Rd (I-880) to Alvarado Blvd/Fremont Blvd (I-880) due to roadwork.,,I-880 S,R,Union City,Alameda,CA,94587,US,US/Pacific,KHWD,2021-08-16 06:04:00,61.0,61.0,87.0,29.79,9.0,WNW,3.0,0.0,Haze,False,False,False,False,False,False,False,False,False,False,False,False,False,Night,Day,Day,Day
C-6127386,2,2021-12-25 20:26:00.000000000,2021-12-25 22:10:30.000000000,37.473487,-118.580659,37.573889,-118.742904,11.2768962123,Slow traffic on US-395 N from Wye Rd (US-395) to South Landing Rd (US-395) due to roadwork.,,US-395 N,R,Bishop,Mono,CA,93514,US,US/Pacific,KBIH,2021-12-25 20:56:00,37.0,27.0,76.0,25.44,6.0,S,18.0,0.0,Light Snow,False,False,False,False,False,False,False,False,False,False,False,False,False,Night,Night,Night,Night
C-6127387,2,2021-10-09 22:11:30.000000000,2021-10-09 22:38:00.000000000,33.449857,-112.07383,33.452333,-112.073794,0.171087894566,Stationary traffic from Washington St (Central Ave) to Roosevelt St (N Central Ave) due to roadwork.,149.0,N Central Ave,R,Phoenix,Maricopa,AZ,85004-2308,US,US/Mountain,KPHX,2021-10-09 21:51:00,73.0,73.0,23.0,28.64,10.0,SW,7.0,0.0,Fair,True,False,True,False,False,False,True,False,True,False,False,True,False,Night,Night,Night,Night
C-6127388,2,2021-12-10 15:43:26.000000000,2021-12-10 17:48:31.000000000,28.466098,-81.36764000000002,28.474283000000003,-81.367861,0.565688916214,Stationary traffic on FL-527 from FL-482/Sand Lake Rd/McCoy Rd (FL-527) to W Holden Ave (FL-527) due to roadwork.,6550.0,S Orange Ave,R,Orlando,Orange,FL,32809-5114,US,US/Eastern,KMCO,2021-12-10 15:53:00,82.0,82.0,56.0,29.98,10.0,ESE,6.0,0.0,Fair,False,False,True,False,False,False,False,False,False,False,False,False,False,Day,Day,Day,Day
C-6127389,2,2019-07-08 07:11:36.000000000,2019-07-08 17:02:19.000000000,44.24765,-120.997819,44.264067,-120.923528,3.8474347336300014,Between Powell Butte Hwy/Bozarth Rd and SW George Millican Rd - Maintenance work.,5699.0,SW Minson Rd,L,Powell Butte,Crook,OR,97753-1546,US,US/Pacific,KRDM,2019-07-08 06:56:00,49.0,47.0,69.0,26.82,10.0,SSE,5.0,0.0,Fair,False,False,False,False,False,False,False,False,False,False,False,False,False,Day,Day,Day,Day
C-6127390,2,2020-09-16 12:08:30.000000000,2020-09-17 02:50:48.000000000,40.992362,-73.661836,40.988988,-73.670591,0.512666899248,Stationary traffic on I-95 S - I-287 W from Delavan Ave exit [2] to exit [21] due to roadwork.,,New England Trwy S,R,Port Chester,Westchester,NY,10573,US,US/Eastern,KHPN,2020-09-16 11:56:00,66.0,66.0,59.0,29.75,10.0,S,9.0,0.0,Fair,False,False,False,False,False,False,False,False,False,False,False,False,False,Day,Day,Day,Day
C-6127391,2,2021-12-09 15:13:13.000000000,2021-12-09 15:38:41.000000000,28.834479,-81.889663,28.828591,-81.887466,0.428004994105,Stationary traffic on US-27 S - FL-25 - US-27 N - US-441 N - US-441 S from FL-25/Eva Ln/S Dixie Ave (US-27) to US-441/W North Blvd (US-27) due to roadwork.,1706.0,Citrus Blvd,R,Leesburg,Lake,FL,34748-3424,US,US/Eastern,KLEE,2021-12-09 14:53:00,77.0,77.0,69.0,30.01,10.0,CALM,0.0,0.0,Fair,False,False,False,False,False,False,False,False,False,False,False,True,False,Day,Day,Day,Day
C-6127392,2,2021-06-05 16:14:07.000000000,2021-06-05 16:47:22.000000000,40.882719,-73.869724,40.878852,-73.873488,0.331739094458,Slow traffic from E 233rd St to Hull Ave due to roadwork.,3672.0,Webster Ave,R,Bronx,Bronx,NY,10467-4915,US,US/Eastern,KLGA,2021-06-05 15:51:00,93.0,93.0,31.0,29.84,10.0,WSW,12.0,0.0,Mostly Cloudy,False,False,False,False,False,False,False,False,False,False,False,True,False,Day,Day,Day,Day
C-6127393,2,2021-04-14 09:45:00.000000000,2021-07-06 03:02:12.000000000,40.460255,-78.566231,40.465318,-78.649875,4.41090648045,Roadwork on US 22 westbound between Exit: SUMMIT and Exit: PA 164 - MUNSTER/PORTAGE. There is a lane restriction.,,US-22 W,R,Cresson,Cambria,PA,16630,US,US/Eastern,KJST,2021-04-14 09:54:00,49.0,47.0,74.0,27.67,10.0,W,5.0,0.0,Light Rain,False,False,False,False,True,False,False,False,False,False,False,False,False,Day,Day,Day,Day
C-6127394,2,2019-08-15 05:20:15.000000000,2019-08-28 00:00:00.000000000,41.09956,-85.165413,,,0.0,Sewer works on Stanford Ave both ways at Trinity Blvd.,1726.0,Trinity Blvd,R,Fort Wayne,Allen,IN,46808-1982,US,US/Eastern,KFWA,2019-08-15 04:54:00,62.0,62.0,96.0,29.08,1.0,CALM,0.0,0.0,Fog,False,False,False,False,False,False,False,False,False,False,False,False,False,Night,Night,Night,Day
C-6127395,2,2021-10-06 17:10:34.000000000,2021-10-06 19:17:18.000000000,28.593131,-81.364094,28.592428,-81.365061,0.076163555205,Stationary traffic on FL-424A - US-92 E - FL-426 - US-17 N - US-92 W - US-17 S from Harper St to Gene St due to roadwork.,592.0,Harper St,R,Winter Park,Orange,FL,32789,US,US/Eastern,KORL,2021-10-06 16:53:00,88.0,88.0,59.0,29.9,10.0,NE,8.0,0.0,Fair,False,False,True,False,False,False,False,False,False,False,False,False,False,Day,Day,Day,Day
C-6127396,2,2021-12-07 21:11:00.000000000,2021-12-08 06:45:00.000000000,41.698984,-72.64379699999998,41.71814000000001,-72.649828,1.35962037069,Construction on I-91 NB near EXIT 24 Drive with caution.,,I-91 N,R,Wethersfield,Hartford,CT,06109,US,US/Eastern,KHFD,2021-12-07 20:53:00,31.0,31.0,72.0,30.16,10.0,CALM,0.0,0.0,Fair,False,False,False,False,False,False,False,False,False,False,False,False,False,Night,Night,Night,Night
C-6127397,2,2021-11-30 08:53:09.000000000,2021-11-30 15:30:00.000000000,41.545876,-73.044655,,,4.0,Right lane closed due to construction work on CT-8 Northbound between Hopkins St and Riverside St.,,Bank St,R,Waterbury,New Haven,CT,06708,US,US/Eastern,KOXC,2021-11-30 08:51:00,27.0,27.0,78.0,29.2,10.0,WSW,3.0,0.0,Mostly Cloudy,False,False,False,False,False,False,False,False,False,False,False,False,False,Day,Day,Day,Day
C-6127398,2,2020-10-13 18:07:00.000000000,2020-10-13 18:46:00.000000000,35.806943,-90.663825,35.80683300000001,-90.642475,1.19635673265,Slow traffic on US-63 from Stadium Blvd (US-63) to US-63 Bus (Jonesboro) (US-63) due to resurfacing work.,,I-555 S,R,Jonesboro,Craighead,AR,72401,US,US/Central,KJBR,2020-10-13 17:53:00,73.0,73.0,31.0,29.82,10.0,CALM,0.0,0.0,Fair,False,False,False,False,True,False,False,False,False,False,False,False,False,Day,Day,Day,Day
C-6127399,2,2021-12-28 18:59:30.000000000,2021-12-28 21:00:53.000000000,25.682222,-80.416428,25.685394,-80.417583,0.2306626307869999,Slow traffic on FL-825 - FL-94 from SW 96th St to SW 137th Ct due to roadwork.,9129.0,SW 137th Ave,L,Miami,Miami-Dade,FL,33186-1429,US,US/Eastern,KTMB,2021-12-28 18:53:00,73.0,73.0,68.0,30.04,10.0,SE,3.0,0.0,Fair,False,False,True,False,False,False,False,False,True,False,False,False,False,Night,Night,Night,Day
C-6127400,2,2020-06-11 03:16:34.000000000,2020-08-13 18:01:00.000000000,44.664884,-117.616249,44.630084,-117.520239,5.29668160939,Road construction is occurring causing no to minimum delays. Use caution.,,I-84 E,R,Baker City,Baker,OR,97814,US,US/Pacific,KBKE,2020-06-11 02:53:00,49.0,49.0,86.0,26.62,10.0,CALM,0.0,0.0,Fair,False,False,False,False,False,False,False,False,False,False,False,False,False,Night,Night,Night,Day
C-6127401,2,2019-08-09 09:02:43.000000000,2019-08-13 09:02:09.000000000,34.062239,-118.345147,34.06212,-118.33849,0.381129235783,At Highland Ave - Construction work.,,S Detroit St,R,Los Angeles,Los Angeles,CA,90036,US,US/Pacific,KCQT,2019-08-09 08:52:00,70.0,70.0,73.0,29.73,4.0,VAR,3.0,0.0,Haze,False,False,True,False,False,False,False,False,False,False,False,True,False,Day,Day,Day,Day
C-6127402,2,2019-06-10 20:00:00.000000000,2019-06-11 04:00:00.000000000,40.935371,-73.898247,,,0.170000001788,Intermittent lane closures due to construction work on US-9 both ways between Main St and Dock St.,38.0,N Broadway,R,Yonkers,Westchester,NY,10701-2793,US,US/Eastern,KLGA,2019-06-10 19:51:00,65.0,65.0,93.0,29.89,0.25,NE,9.0,0.0,Light Rain,False,False,False,False,False,False,False,False,False,False,False,False,False,Day,Day,Day,Day
C-6127403,2,2020-03-16 00:00:30.000000000,2020-03-16 15:59:59.000000000,41.97743,-73.94526,41.97743,-73.94526,0.0,At Kingston-Rhinecliff Brg (East) - Construction work.,,Kingston Rhinecliff Brg,R,Rhinebeck,Dutchess,NY,12572,US,US/Eastern,KPOU,2020-03-16 00:53:00,32.0,24.0,50.0,30.39,10.0,NNE,9.0,0.0,Fair,False,False,False,False,False,False,False,False,False,False,False,False,False,Night,Night,Night,Night
C-6127404,4,2021-02-22 20:01:00.000000000,2021-02-23 07:46:00.000000000,34.121292,-117.20001299999998,34.123362,-117.200563,0.1464423563869999,Construction on CA-210 WB near BASELINE ST Take alternate route.,,Baseline St,R,Highland,San Bernardino,CA,92346,US,US/Pacific,KSBD,2021-02-22 19:51:00,63.0,63.0,18.0,28.87,7.0,ESE,6.0,0.0,Fair,False,False,True,False,False,False,False,False,False,False,False,True,False,Night,Night,Night,Night
C-6127405,2,2020-12-24 22:33:00.000000000,2020-12-26 08:56:22.000000000,44.658505,-111.096622,44.65822100000001,-111.095706,0.0491091856785,Roadwork on US-20/Firehole Ave (US-191) from MT--WY State Border (US-191) to US-20 W - US-20 E - US-191 N - US-287 S - US-191 S - US-287 N.,,US-191 N,R,West Yellowstone,Gallatin,MT,59758,US,US/Mountain,KWEY,2020-12-24 22:56:00,-1.0,-1.0,83.0,22.66,,WNW,3.0,0.0,,False,False,False,False,False,False,False,False,False,False,False,False,False,Night,Night,Night,Night
C-6127406,2,2020-09-15 13:30:07.000000000,2020-09-15 22:55:08.000000000,40.609229,-73.96937700000002,40.609557,-73.966302,0.162878162344,Slow traffic from 65th St (Avenue P) to Coney Island Ave (Avenue P) due to roadwork.,491.0,Avenue P,L,Brooklyn,Kings,NY,11230,US,US/Eastern,KJRB,2020-09-15 13:51:00,64.0,64.0,43.0,30.22,10.0,CALM,0.0,0.0,Fair,False,False,True,False,False,False,False,False,False,False,False,True,False,Day,Day,Day,Day
C-6127407,2,2020-02-13 20:01:00.000000000,2020-02-13 22:59:00.000000000,33.91794,-117.96803,33.917559999999995,-117.96814,0.0270024001395,At Imperial Hwy Rte 90 - Maintenance work. Lane closed.,1199.0,S Beach Blvd,R,La Habra,Orange,CA,90631-6904,US,US/Pacific,KFUL,2020-02-13 19:53:00,58.0,58.0,65.0,29.93,10.0,CALM,0.0,0.0,Partly Cloudy,False,False,True,False,False,False,False,False,False,False,False,True,False,Night,Night,Night,Night
C-6127408,2,2020-09-07 14:26:30.000000000,2020-09-07 20:24:54.000000000,26.52717800000001,-80.14718,26.528395,-80.148059,0.100116427367,Queuing traffic on FL-804 from Jog Rd to Stonehenge Cir due to resurfacing work.,10096.0,S Jog Rd,L,Boynton Beach,Palm Beach,FL,33437-3528,US,US/Eastern,KBCT,2020-09-07 14:28:00,78.0,78.0,93.0,29.86,2.0,ESE,13.0,0.54,Rain,False,False,False,False,False,False,False,False,False,False,False,False,False,Day,Day,Day,Day
C-6127409,3,2019-03-11 09:00:00.000000000,2019-03-11 15:00:00.000000000,26.170919,-80.15786700000002,,,0.519999980927,Exit ramp from I-95 Southbound at Exits 31 31A 31B to W Oakland Park Blvd both ways lane closed due to construction.,,I-95 S,R,Fort Lauderdale,Broward,FL,33309,US,US/Eastern,KFXE,2019-03-11 08:53:00,73.9,,91.0,30.19,10.0,ESE,3.5,,Scattered Clouds,False,False,False,False,True,False,False,False,False,False,False,False,False,Day,Day,Day,Day
C-6127410,2,2018-01-23 10:00:00.000000000,2018-01-23 15:00:00.000000000,40.654793,-73.978729,,,0.360000014305,One lane closed due to construction work on NY-27 Eastbound from Prospect Park West to 11th Ave.,2098.0,11th Ave,R,Brooklyn,Kings,NY,11218,US,US/Eastern,KJRB,,,,,,,,,,,False,False,False,False,False,False,False,False,False,False,False,False,False,Day,Day,Day,Day
C-6127411,2,2017-09-29 18:00:00.000000000,2017-09-30 10:00:00.000000000,43.48452,-70.49566,43.515816,-70.468322,2.55988795177,At I-195/Exit 5 - Bridge maintenance work.,,I-95 N,R,Biddeford,York,ME,04005,US,US/Eastern,KPWM,2017-09-29 17:51:00,57.9,,60.0,29.99,10.0,South,8.1,,Clear,False,False,False,False,False,False,False,False,False,False,False,False,False,Day,Day,Day,Day
C-6127412,2,2019-07-17 06:01:44.000000000,2019-07-21 06:01:35.000000000,38.767904,-77.18261,38.78253,-77.17914,1.02770095598,Between I-95/I-495/WB Exit 1/EB Exit 170 and VA-644/Franconia Rd/Exit 169 - Construction work. Lane blocked.,,Fairfax County Parkway Trl,R,Springfield,Fairfax County,VA,22150,US,US/Eastern,KDAA,2019-07-17 05:56:00,74.0,74.0,94.0,29.91,10.0,CALM,0.0,0.0,Fair,False,False,False,False,False,False,False,False,False,False,False,False,False,Day,Day,Day,Day
C-6127413,2,2020-09-01 13:38:30.000000000,2020-09-02 03:10:56.000000000,27.080111,-82.424887,27.078985,-82.423754,0.1044555385129999,Stationary traffic on FL-45 - US-41 S from James St to Ogden Rd due to roadwork.,1472.0,US Highway 41 Byp S,L,Venice,Sarasota,FL,34285-5544,US,US/Eastern,KVNC,2020-09-01 13:53:00,90.0,90.0,61.0,29.99,10.0,WSW,9.0,0.0,Fair,False,False,False,False,False,False,False,False,False,False,False,False,False,Day,Day,Day,Day
C-6127414,2,2020-12-15 13:27:30.000000000,2020-12-15 16:06:00.000000000,28.042482,-82.674284,28.043582,-82.67760899999998,0.216539689201,Stationary traffic on FL-584 from FL-580 (FL-584) to Forest Lake Blvd (FL-584) due to roadwork.,3803.0,Tampa Rd,L,Oldsmar,Pinellas,FL,34677-3008,US,US/Eastern,KPIE,2020-12-15 13:53:00,69.0,69.0,70.0,29.98,10.0,W,9.0,0.0,Fair,False,False,False,False,False,False,False,False,False,False,False,True,False,Day,Day,Day,Day
C-6127415,2,2020-10-12 09:40:00.000000000,2020-10-12 12:12:00.000000000,41.041664,-114.50358500000002,41.078341,-114.57441,4.47624483853,Slow traffic on I-80 from NV-233/Exit 378 (I-80) to Exit 373 (I-80) due to roadwork.,,I-80 W,R,Montello,Elko,NV,89830,US,US/Pacific,,,,,,,,,,,,False,False,False,False,False,False,False,False,False,False,False,False,False,Day,Day,Day,Day
C-6127416,2,2021-08-08 08:42:35.000000000,2021-08-08 13:02:25.000000000,31.303557,-86.235026,31.303407,-86.234616,0.0263300074976,Roadwork on US-331 Bus (US-331) from US-84/US-84 Bus/AL-12 (US-331) to US-331 S.,,Veterans Memorial Pkwy,R,Opp,Covington,AL,36467,US,US/Central,K79J,2021-08-08 08:56:00,85.0,85.0,69.0,29.77,10.0,WNW,6.0,0.0,Fair,False,False,False,False,False,False,False,False,False,False,False,False,False,Day,Day,Day,Day
C-6127417,2,2019-08-22 03:05:12.000000000,2020-11-25 21:40:58.000000000,44.97936,-124.01033,44.95225,-124.01401,1.8817417217,Between NW 2nd Dr and OR-229/Siletz Hwy - Maintenance work.,2037.0,NW Highway 101,L,Lincoln City,Lincoln,OR,97367-3856,US,US/Pacific,KONP,2019-08-22 03:15:00,54.0,54.0,100.0,29.97,10.0,ENE,3.0,0.0,Cloudy,False,False,False,False,False,False,False,False,False,False,False,False,False,Night,Night,Night,Night
C-6127418,2,2021-03-14 08:17:00.000000000,2021-03-14 16:32:37.000000000,29.614957,-95.214783,29.611302,-95.210773,0.348991947554,Roadwork on Almeda Genoa Rd (I-45 HOV) from Sam Houston Tollway/Exit 32 (I-45 HOV) to I-45 N - I-45 S.,,I-45 N,R,Houston,Harris,TX,77034,US,US/Central,KHOU,2021-03-14 07:53:00,71.0,71.0,87.0,29.9,6.0,SSE,9.0,0.0,Light Rain,False,False,False,False,False,False,False,False,False,False,False,False,False,Day,Day,Day,Day
C-6127419,4,2021-04-07 12:46:30.000000000,2021-06-24 23:59:00.000000000,39.303222,-76.594441,39.307455,-76.594718,0.292847138483,Closed road from US-40/Orleans St (N Broadway) to US-1/E North Ave (N Broadway) due to roadwork.,1099.0,N Broadway,R,Baltimore,Baltimore City,MD,21205-1121,US,US/Eastern,KDMH,,,,,,,,,,,False,False,False,False,False,False,False,False,False,False,False,False,False,Day,Day,Day,Day
C-6127420,2,2020-05-21 19:26:56.000000000,2020-05-25 20:00:17.000000000,41.43821,-75.62943,41.43821,-75.62943,0.0,At PA-347/Exit 188 - Roadwork. Lane blocked.,,Grand Army of the Republic Hwy S,R,Scranton,Lackawanna,PA,18509,US,US/Eastern,KAVP,2020-05-21 19:54:00,70.0,70.0,42.0,29.19,10.0,S,8.0,0.0,Fair,False,False,False,False,False,False,False,False,False,False,False,False,False,Day,Day,Day,Day
C-6127421,2,2021-02-28 07:17:30.000000000,2021-12-31 02:00:20.000000000,34.564064,-92.604625,34.54937,-92.625536,1.5641628565,Slow traffic on US-67 S - AR-88 W - US-70 W - I-30 W from AR-35/Exit 117 (I-30) to US-67/Exit 114 (I-30) due to roadwork.,,AR-88 W,R,Benton,Saline,AR,72015,US,US/Central,KLIT,2021-03-04 14:53:00,69.0,69.0,26.0,29.8,10.0,VAR,5.0,0.0,Fair,False,False,False,False,False,False,False,False,False,False,False,False,False,Day,Day,Day,Day
C-6127422,3,2017-02-21 09:03:49.000000000,2017-02-21 15:03:49.000000000,38.068692,-80.29003399999998,37.395637,-80.78887900000002,53.9038895945,Between Beartown Rd and Gray Sulphur Rd - Roadwork.,386.0,Seneca Trl,R,Hillsboro,Pocahontas,WV,24946,US,US/Eastern,KLWB,2017-02-21 08:55:00,45.7,,61.0,30.22,10.0,Calm,,,Clear,False,False,False,False,False,False,False,False,False,False,False,False,False,Day,Day,Day,Day
