ID,Severity,Start_Time,End_Time,Start_Lat,Start_Lng,End_Lat,End_Lng,Distance(mi),Description,Number,Street,Side,City,County,State,Zipcode,Country,Timezone,Airport_Code,Weather_Timestamp,Temperature(F),Wind_Chill(F),Humidity(%),Pressure(in),Visibility(mi),Wind_Direction,Wind_Speed(mph),Precipitation(in),Weather_Condition,Amenity,Bump,Crossing,Give_Way,Junction,No_Exit,Railway,Roundabout,Station,Stop,Traffic_Calming,Traffic_Signal,Turning_Loop,Sunrise_Sunset,Civil_Twilight,Nautical_Twilight,Astronomical_Twilight
C-3114882,2,2021-08-28 09:27:30,2021-08-28 12:44:13,33.495112,-112.017648,33.494562,-112.012987,0.271239539254,Stationary traffic from N 28th St to E Fairmount Ave due to roadwork.,2983.0,E Indian School Rd,R,Phoenix,Maricopa,AZ,85016-6804,US,US/Mountain,KPHX,2021-08-28 09:51:00,94.0,94.0,26.0,28.61,10.0,SE,8.0,0.0,Partly Cloudy,True,False,True,False,False,False,False,False,True,False,False,True,False,Day,Day,Day,Day
C-3114883,2,2021-12-20 10:33:30,2021-12-20 12:35:07,29.918089,-81.32481999999997,29.915398,-81.324329,0.1882411493809999,Stationary traffic on US-1 S - FL-5 from FL-5/San Marco Ave (FL-A1A/US-1) to W San Carlos Ave (FL-A1A/US-1) due to roadwork.,2903.0,N Ponce de Leon Blvd,L,Saint Augustine,St. Johns,FL,32084-1646,US,US/Eastern,KSGJ,2021-12-20 10:56:00,62.0,62.0,86.0,30.14,5.0,N,18.0,0.0,Cloudy,False,False,False,False,False,False,False,False,False,False,False,False,False,Day,Day,Day,Day
C-3114884,2,2021-03-31 16:50:25,2021-11-15 22:40:21,40.747157,-73.985516,40.745835,-73.982361,0.188726849124,Slow traffic from 6th Ave/Avenue of the Americas/Broadway (W 32nd St) to E Park Ave S (W 32nd St) due to roadwork.,2.0,W 32nd St,L,New York,New York,NY,10001-3802,US,US/Eastern,KNYC,2021-03-31 16:51:00,61.0,61.0,75.0,29.87,10.0,E,6.0,0.0,Cloudy,True,False,True,False,False,False,True,False,True,False,False,True,False,Day,Day,Day,Day
C-3114885,2,2020-06-03 15:29:13,2020-06-04 15:29:13,38.89918,-77.01424,38.89918,-77.01424,0.0,Ramp to I-395 Southbound - New roadwork layout.,,I-395 S,R,Washington,District of Columbia,DC,20001,US,US/Eastern,KDCA,2020-06-03 15:52:00,92.0,92.0,39.0,29.68,10.0,WSW,18.0,0.0,Mostly Cloudy,False,False,False,False,False,False,False,False,False,False,False,False,False,Day,Day,Day,Day
C-3114886,4,2021-06-07 08:00:00,2021-06-09 17:00:00,35.927819,-80.286671,35.919783,-80.277057,0.773073903992,Closed road from Dr Zimmerman Rd to Pickett Rd due to roadwork.,2437.0,Welcome Arcadia Rd,L,Lexington,Davidson,NC,27295-6423,US,US/Eastern,KEXX,2021-06-07 07:55:00,72.0,72.0,100.0,29.39,10.0,W,5.0,0.0,Partly Cloudy,False,False,False,False,False,False,False,False,False,False,False,False,False,Day,Day,Day,Day
C-3114887,2,2021-06-16 11:43:30,2021-06-16 13:46:07,33.497026,-112.073918,33.494796,-112.074622,0.1593283896299999,Slow traffic from W Glenrosa Ave to N 1st Ave due to roadwork.,4222.0,N Central Ave,L,Phoenix,Maricopa,AZ,85012-1812,US,US/Mountain,KPHX,2021-06-16 11:51:00,102.0,102.0,13.0,28.68,10.0,CALM,0.0,0.0,Partly Cloudy,True,False,False,False,False,False,False,False,True,False,False,True,False,Day,Day,Day,Day
C-3114888,2,2017-05-02 02:46:37,2017-05-02 08:46:37,33.611872,-84.293839,33.6131,-84.3055,0.6763292944050001,Between Grant Rd and US-23/GA-42/Moreland Ave - Roadwork.,2923.0,Forest Pkwy,R,Ellenwood,Dekalb,GA,30294-3516,US,US/Eastern,KATL,2017-05-02 02:52:00,55.0,,59.0,29.95,10.0,West,5.8,,Clear,False,False,False,False,False,False,False,False,False,False,False,False,False,Night,Night,Night,Night
C-3114889,2,2019-04-29 08:30:00,2019-04-29 15:30:00,39.817347,-105.16522,39.816395,-105.1652,0.0657854985174,At CR-172/W 64th Ave - Construction work.,6689.0,Indiana St,L,Arvada,Jefferson,CO,80007-7547,US,US/Mountain,KBJC,2019-04-29 08:46:00,32.0,24.0,55.0,24.49,10.0,E,9.0,0.0,Cloudy,False,False,False,False,False,False,False,False,False,False,False,False,False,Day,Day,Day,Day
C-3114890,2,2020-06-05 08:01:33,2020-06-06 05:00:00,41.44278,-74.36278,41.40466,-74.34241,2.83740611615,Between I-84/Exit 121 and Fletcher St/Exit 122 - Resurfacing work.,,NY-17 E,R,Middletown,Orange,NY,10940,US,US/Eastern,KMGJ,2020-06-05 07:54:00,67.0,67.0,97.0,29.49,10.0,CALM,0.0,0.0,Mostly Cloudy,False,False,False,False,False,False,False,False,False,False,False,False,False,Day,Day,Day,Day
C-3114891,2,2021-06-19 19:53:28,2021-06-19 20:13:28,40.725066,-73.995589,40.722875,-73.988674,0.39246336329,Slow traffic from Broadway (Houston St) to 1st Ave (E Houston St) due to roadwork.,23.0,E Houston St,R,New York,New York,NY,10012-2705,US,US/Eastern,KJRB,2021-06-19 19:51:00,72.0,72.0,73.0,29.7,10.0,CALM,0.0,0.0,Light Rain,True,False,True,False,False,False,True,False,True,False,False,True,False,Day,Day,Day,Day
C-3114892,2,2021-11-07 08:00:00,2021-11-07 16:00:00,41.541914,-94.012635,41.543286,-94.01265,0.0947993453398999,Lane closed on US-169 S - US-6 W - US-169 N - US-6 E from I-80 (US-169) to US-6/Greene St (US-169) due to roadwork.,,N Ave,R,De Soto,Dallas,IA,50069,US,US/Central,KDSM,2021-11-07 07:54:00,49.0,44.0,80.0,28.98,10.0,S,13.0,0.0,Cloudy,False,False,False,False,False,False,False,False,False,False,False,False,False,Day,Day,Day,Day
C-3114893,3,2019-09-24 09:03:03,2019-09-28 09:02:56,33.76285,-118.36993,33.781681,-118.35262,1.6374555861500002,Between Crest Rd and Palos Verdes Dr N - Construction work. Roadway reduced to 1 lane.,,Crenshaw Blvd,R,Rancho Palos Verdes,Los Angeles,CA,90275,US,US/Pacific,KTOA,2019-09-24 09:51:00,72.0,72.0,73.0,29.83,3.0,W,10.0,,Fair,False,False,True,False,False,False,False,False,False,True,False,False,False,Day,Day,Day,Day
C-3114894,2,2021-12-23 17:40:46,2021-12-23 18:01:46,28.366258,-81.502332,28.374123,-81.50381800000002,0.550878014365,Slow traffic on FL-535 from FL-536/World Center Dr (CR-535) to I-4 (CR-535) due to roadwork.,13707.0,State Road 535,L,Orlando,Orange,FL,32821-6367,US,US/Eastern,KMCO,2021-12-23 17:53:00,66.0,66.0,60.0,30.05,10.0,NNE,7.0,0.0,Fair,False,False,True,False,False,False,False,False,False,False,False,True,False,Night,Day,Day,Day
C-3114895,2,2021-06-18 12:41:32,2021-06-18 18:12:52,41.80556,-87.911604,41.758939,-87.887142,3.4589848517400004,Slow traffic on I-294 S - Tri State Tollway S from US-34/Ogden Ave (I-294) to I-55/Adlai E Stevenson Expy (La Grange) (South) (I-294) due to roadwork.,,I-294 S,R,Hinsdale,Cook,IL,60521,US,US/Central,KMDW,2021-06-18 12:53:00,87.0,87.0,55.0,29.12,10.0,WNW,10.0,0.0,Mostly Cloudy,False,False,False,False,False,False,False,False,False,False,False,False,False,Day,Day,Day,Day
C-3114896,2,2021-04-22 03:15:00,2021-09-28 00:44:00,42.441935,-83.820685,42.420875,-83.817459,1.46437804611,Construction on MERRILL RD SB near STRAWBERRY LAKE RD Allow extra time.,11001.0,Merrill Rd,L,Whitmore Lake,Livingston,MI,48189-9754,US,US/Eastern,KARB,2021-04-22 02:53:00,26.0,19.0,69.0,29.14,10.0,WNW,6.0,0.0,Fair,False,False,False,False,False,False,False,False,False,False,False,False,False,Night,Night,Night,Night
C-3114897,2,2020-01-27 06:36:07,2020-01-31 06:35:36,34.06212,-118.33849,34.06224,-118.34515,0.381302406963,Between S Rossmore Ave and Hauser Blvd - Roadwork.,4997.0,Wilshire Blvd,L,Los Angeles,Los Angeles,CA,90010-3804,US,US/Pacific,KCQT,2020-01-27 06:52:00,54.0,54.0,75.0,30.0,4.0,CALM,0.0,0.0,Haze,False,False,True,False,False,False,False,False,False,False,False,True,False,Night,Day,Day,Day
C-3114898,2,2021-12-10 13:43:00,2021-12-10 15:45:27,33.481034,-112.047648,33.480212,-112.046144,0.103624377456,Slow traffic from E Verde Ln to Piestewa Fwy S due to roadwork.,2929.0,N 16th St,R,Phoenix,Maricopa,AZ,85016-7650,US,US/Mountain,KPHX,2021-12-10 13:51:00,62.0,62.0,44.0,28.81,10.0,W,8.0,0.0,Mostly Cloudy,False,False,False,False,False,False,False,False,False,True,False,False,False,Day,Day,Day,Day
C-3114899,2,2021-08-02 15:45:35,2021-08-02 16:48:04,28.079399,-80.60780600000002,28.079931,-80.603516,0.264092011768,Stationary traffic on US-192 E - US-192 W from FL-507/S Babcock St (US-192) to US-1/FL-5/S Harbor City Blvd (US-192) due to roadwork.,1912.0,Waverly Pl,R,Melbourne,Brevard,FL,32901-4704,US,US/Eastern,KMLB,2021-08-02 15:46:00,89.0,89.0,67.0,29.97,10.0,ESE,10.0,0.0,T-Storm,False,False,True,False,False,False,False,False,False,False,False,True,False,Day,Day,Day,Day
C-3114900,2,2021-11-23 19:53:00,2021-11-23 21:58:58,34.298475,-118.440361,34.299868,-118.439706,0.103253357528,Stationary traffic from Herrick Ave to Aztec St due to roadwork.,14114.0,Hubbard St,L,Sylmar,Los Angeles,CA,91342-4712,US,US/Pacific,KWHP,2021-11-23 20:00:00,59.0,59.0,45.0,28.91,10.0,CALM,0.0,,Fair,False,False,False,False,False,False,False,False,False,False,False,False,False,Night,Night,Night,Night
C-3114901,2,2020-10-22 14:08:30,2020-10-22 23:12:30,47.744454,-116.793439,47.7417,-116.79264,0.193870758289,Slow traffic on US-95 S from N Mineral Dr to W Aqua Ave due to roadwork.,552.0,W Prairie Ave,L,Coeur D Alene,Kootenai,ID,83815-7766,US,US/Pacific,KCOE,2020-10-22 13:56:00,40.0,40.0,53.0,27.88,10.0,S,3.0,0.0,Fair,False,False,False,False,False,False,False,False,False,True,False,False,False,Day,Day,Day,Day
C-3114902,4,2021-08-24 22:35:28,2021-08-31 23:59:00,40.941133,-73.900808,40.941446,-73.89869499999998,0.112381911484,Closed road from Alexander St to Warburton Ave due to roadwork.,96.0,Babcock Pl,L,Yonkers,Westchester,NY,10701-2732,US,US/Eastern,KLGA,2021-08-24 22:51:00,83.0,83.0,53.0,29.98,10.0,NW,7.0,0.0,Fair,False,False,False,False,False,False,False,False,False,False,False,False,False,Night,Night,Night,Night
C-3114903,2,2021-09-20 09:11:00,2021-09-20 09:31:30,40.752193,-73.993465,40.756571,-73.990264,0.345788693243,Slow traffic from 34th St (8th Ave) to W 42nd St (8th Ave) due to roadwork.,278.0,W 34th St,L,New York,New York,NY,10001-2401,US,US/Eastern,KNYC,2021-09-20 08:51:00,67.0,,70.0,30.24,10.0,,,0.0,Fair,True,False,True,False,False,False,True,False,True,False,False,True,False,Day,Day,Day,Day
C-3114904,2,2021-11-15 10:44:30,2021-11-15 11:05:00,40.43805,-80.06519300000002,40.438222,-80.068694,0.184491880471,Stationary traffic on PA-60 from Noble Ave (Dinsmore Ave/Noble Ave/PA-60) to W Steuben St/W Crafton Ave (W Crafton Ave/W Steuben St/PA-60) due to roadwork.,35.0,E Steuben St,R,Pittsburgh,Allegheny,PA,15205-2707,US,US/Eastern,KPIT,2021-11-15 10:51:00,37.0,28.0,70.0,28.75,10.0,W,15.0,0.0,Mostly Cloudy,False,False,False,False,False,False,False,False,False,False,False,False,False,Day,Day,Day,Day
C-3114905,2,2021-01-14 17:29:45,2021-01-14 19:58:39,40.687715,-73.808132,40.688804,-73.808757,0.0820589812358,Construction construction on I-678 northbound between Exit 4 - Liberty Avenue (New York) and Exit 6 - Jamaica Avenue (New York) 1 Left lane of 4 lanes closed from 10:00 A.M. until 2:00 P.M.,,Van Wyck Expy N,R,Jamaica,Queens,NY,11435,US,US/Eastern,KJFK,2021-01-14 17:51:00,41.0,41.0,79.0,29.82,8.0,S,3.0,0.0,Mostly Cloudy,False,False,False,False,False,False,False,False,False,False,False,False,False,Night,Night,Day,Day
C-3114906,2,2021-10-06 17:17:00,2021-10-06 17:52:00,40.08573,-77.868718,40.091162,-77.85683399999998,0.731766551366,Slow traffic on Pennsylvania Tpke E - I-76 E from Waters Dr (Pennsylvania Tpke/I-76) to PA-75/Exit 189 (I-76) due to roadwork.,,I-76 E,R,Neelyton,Huntingdon,PA,17239,US,US/Eastern,KAOO,2021-10-06 17:19:00,69.0,69.0,78.0,28.71,10.0,SE,5.0,0.0,Cloudy,False,False,False,False,False,False,False,False,False,False,False,False,False,Day,Day,Day,Day
C-3114907,3,2019-05-06 22:00:00,2019-05-07 05:31:00,39.55653,-104.873734,,,0.990000009537,Exit ramp from I-25 Southbound at Exit 194 to Co-470 Westbound closed due to construction during the night.,8437.0,S Interstate 25,R,Lone Tree,Douglas,CO,80124,US,US/Mountain,KAPA,2019-05-06 21:53:00,53.0,53.0,74.0,24.17,10.0,SSE,7.0,0.08,T-Storm,False,False,False,False,False,False,False,False,False,False,False,False,False,Night,Night,Night,Night
C-3114908,2,2021-12-12 12:26:00,2021-12-12 14:27:38,30.544144,-84.22731999999998,30.541851,-84.227262,0.158468800271,Slow traffic on US-319 S - FL-61 from US-319 to Saint Ives Ln due to roadwork.,,Thomasville Rd,R,Tallahassee,Leon,FL,32312,US,US/Eastern,KTLH,2021-12-12 12:53:00,64.0,64.0,65.0,30.12,10.0,NE,5.0,0.0,Mostly Cloudy,False,False,True,False,False,False,False,False,False,False,False,False,False,Day,Day,Day,Day
C-3114909,4,2021-10-20 07:00:00,2021-10-21 20:00:00,35.211766,-82.44503399999998,35.21529500000001,-82.44378499999998,0.25381979788,North of Flat Rock / Mile Marker 3 to 3 Heading North. ramp closed for paving,,US-25 N,R,Zirconia,Henderson,NC,28790,US,US/Eastern,KAVL,2021-10-20 06:54:00,41.0,41.0,93.0,28.01,10.0,NNW,3.0,0.0,Fair,False,False,False,False,True,False,False,False,False,False,False,False,False,Night,Night,Day,Day
C-3114910,2,2020-04-11 05:07:41,2020-04-13 05:07:41,38.08493,-85.70113,37.92095,-85.68754,11.3540724791,Between Bullitt/Jefferson County Line and KY-245/Exit 112 - Roadwork. Hard shoulder closed.,,I-65 S,R,Louisville,Bullitt,KY,40229,US,US/Eastern,KSDF,2020-04-11 04:56:00,39.0,36.0,73.0,29.51,10.0,SE,5.0,0.0,Partly Cloudy,False,False,False,False,False,False,False,False,False,False,False,False,False,Night,Night,Night,Night
C-3114911,2,2021-08-16 18:47:01,2021-08-16 19:09:31,40.603271,-73.996065,40.601942,-73.993813,0.149626727762,Slow traffic from 18th Ave (86th St) to Bay Pkwy (86th St) due to roadwork.,8554.0,21st Ave,R,Brooklyn,Kings,NY,11214-3208,US,US/Eastern,KJRB,2021-08-16 18:51:00,76.0,76.0,60.0,30.08,10.0,VAR,3.0,0.0,Fair,True,False,True,False,False,False,True,False,True,False,False,True,False,Day,Day,Day,Day
C-3114912,2,2021-01-05 13:19:30,2021-01-05 19:46:40,27.306281,-80.309,27.304711,-80.308077,0.122386098674,Stationary traffic on US-1 S - FL-5 from E Prima Vista Blvd (US-1) to SE Midport Rd/SE Walton Rd (US-1) due to roadwork.,8891.0,S US Highway 1,L,Port Saint Lucie,St. Lucie,FL,34952,US,US/Eastern,KSUA,2021-01-05 12:50:00,66.0,66.0,32.0,30.03,10.0,NNW,8.0,0.0,Fair,False,False,False,False,False,False,False,False,False,False,False,False,False,Day,Day,Day,Day
C-3114913,2,2020-06-10 20:01:00,2020-06-11 04:31:00,37.57576,-121.88179,37.54047,-121.92491,3.3946213712299995,Between Andrade Rd and Sheridan Rd - Construction work.,,I-680 S,R,Sunol,Alameda,CA,94586,US,US/Pacific,KLVK,2020-06-10 19:53:00,81.0,81.0,23.0,29.51,10.0,WNW,8.0,0.0,Fair,False,False,False,False,False,False,False,False,False,False,False,False,False,Day,Day,Day,Day
C-3114914,2,2021-11-17 18:18:03,2021-11-17 20:41:26,25.942303,-80.30865,25.943203,-80.306889,0.125849080349,Slow traffic on FL-860 from Bobolink Dr to NW 188th Ter due to roadwork.,,NW 186th St,R,Hialeah,Miami-Dade,FL,33015,US,US/Eastern,KOPF,2021-11-17 17:53:00,78.0,78.0,66.0,30.14,10.0,E,12.0,0.0,Cloudy,False,False,False,False,False,False,False,False,False,False,False,False,False,Night,Night,Day,Day
C-3114915,2,2021-04-13 12:16:00,2021-12-28 17:14:00,39.653803,-105.043933,39.653308,-105.034146,0.521753418182,Slow traffic on US-285 N from CO-95/Sheridan Blvd (US-285) to S Lowell Blvd/S Knox Ct (US-285) due to roadwork.,,US-285 N,R,Denver,Denver,CO,80236,US,US/Mountain,KAPA,2021-09-21 07:53:00,43.0,43.0,82.0,24.6,10.0,SW,3.0,0.0,Fair,False,False,False,False,False,False,False,False,False,False,False,False,False,Day,Day,Day,Day
C-3114916,2,2021-12-21 17:03:32,2021-12-21 19:14:53,40.662565,-73.995756,40.66447,-73.992529,0.2143114861299999,Stationary traffic from 22nd St to Brooklyn due to roadwork.,679.0,4th Ave,L,Brooklyn,Kings,NY,11232-1240,US,US/Eastern,KJRB,2021-12-21 16:51:00,40.0,40.0,53.0,29.87,10.0,VAR,3.0,0.0,Fair,True,False,True,False,False,False,False,False,False,False,False,True,False,Night,Night,Day,Day
C-3114917,2,2021-07-20 14:27:00,2021-07-20 14:50:30,39.657934,-104.999606,39.660537,-104.999182,0.181258757216,Stationary traffic on US-85 N from W Hampden Ave to S Lipan St due to roadwork.,3260.0,S Santa Fe Dr,L,Englewood,Arapahoe,CO,80110,US,US/Mountain,KAPA,2021-07-20 14:53:00,90.0,90.0,23.0,24.28,10.0,SE,9.0,0.0,Partly Cloudy,False,False,False,False,False,False,False,False,False,False,False,False,False,Day,Day,Day,Day
C-3114918,2,2021-09-09 13:16:30,2021-09-09 15:23:16,28.079519,-80.604602,28.080742,-80.60393499999998,0.0937749822838,Stationary traffic on US-192 E - US-192 W - US-1 N - US-1 S - FL-5 from Depot Dr to Palmetto Ave due to roadwork.,1006.0,E Strawbridge Ave,L,Melbourne,Brevard,FL,32901-4742,US,US/Eastern,KMLB,2021-09-09 13:15:00,76.0,76.0,94.0,29.92,3.0,W,15.0,0.07,Light Rain with Thunder,False,False,True,False,False,False,False,False,False,False,False,False,False,Day,Day,Day,Day
C-3114919,4,2019-09-20 22:56:57,2019-09-24 22:56:54,33.68806,-117.90186,33.68789,-117.90455,0.155095130703,Ramp closed to CA-73 - Closed due to roadwork.,,I-405 N,R,Costa Mesa,Orange,CA,92626,US,US/Pacific,KSNA,2019-09-20 22:53:00,70.0,70.0,73.0,29.81,10.0,CALM,0.0,0.0,Fair,False,False,False,False,False,False,False,False,False,False,False,False,False,Night,Night,Night,Night
C-3114920,2,2021-11-30 14:07:00,2021-11-30 16:32:13,27.919271,-82.787774,27.91664,-82.787061,0.1869240274549999,Stationary traffic on US-19 Alt S - FL-686 from Golden Gate Dr to Central Park Dr due to roadwork.,289.0,Missouri Ave N,L,Largo,Pinellas,FL,33770-1557,US,US/Eastern,KPIE,2021-11-30 13:53:00,68.0,68.0,36.0,30.15,10.0,NE,3.0,0.0,Fair,False,False,False,False,False,False,False,False,True,False,False,False,False,Day,Day,Day,Day
C-3114921,2,2020-10-06 13:29:49,2020-10-09 01:31:07,40.738412,-73.886403,40.738182,-73.879664,0.353157627702,Queuing traffic on NY-25 from Brooklyn Queens Expy to Corona Ave due to resurfacing work.,,Queens Blvd,R,Elmhurst,Queens,NY,11373,US,US/Eastern,KLGA,2020-10-06 13:51:00,70.0,70.0,38.0,30.03,10.0,WSW,9.0,0.0,Partly Cloudy,False,False,True,False,False,False,False,False,False,True,False,False,False,Day,Day,Day,Day
C-3114922,2,2021-05-26 08:30:00,2021-05-26 15:15:00,33.599442,-117.46023,33.591742,-117.51314,3.0912192839,Construction on CA-74 WB near SAN JUAN RD Expect long delays.,41480.0,Ortega Hwy,R,San Juan Capistrano,Orange,CA,92675,US,US/Pacific,KSNA,2021-05-26 08:51:00,70.0,70.0,64.0,29.95,9.0,S,9.0,0.0,Mostly Cloudy,False,False,False,False,False,False,False,False,False,False,False,False,False,Day,Day,Day,Day
C-3114923,2,2020-09-22 14:57:10,2020-09-23 01:31:07,33.178269,-96.343075,33.198684,-96.333266,1.5203037618200002,Roadwork on FM-2194 from TX-78E/N Main St (FM-2194) to FM-36 (FM-2194).,1500.0,FM 2194,L,Farmersville,Collin,TX,75442,US,US/Central,KTKI,2020-09-22 14:53:00,70.0,70.0,87.0,29.4,10.0,ENE,9.0,0.0,Mostly Cloudy,False,False,False,False,False,False,False,False,False,False,False,False,False,Day,Day,Day,Day
C-3114924,2,2020-10-06 14:00:00,2020-10-08 00:03:24,39.764209,-74.910825,39.759089,-74.90894499999997,0.367580498812,Delays on NJ 73 southbound approaching CR 710/Factory Rd/Hayes Mill Rd (Winslow Twp) 1 Right lane of 2 lanes closed delays due to roadwork,499.0,N State Highway 73,L,Berlin,Camden,NJ,08009,US,US/Eastern,KVAY,2020-10-06 13:54:00,69.0,69.0,44.0,30.01,10.0,WSW,9.0,0.0,Partly Cloudy,False,False,False,False,False,False,False,False,False,False,False,True,False,Day,Day,Day,Day
C-3114925,2,2020-10-01 14:00:00,2020-10-31 00:00:00,40.738452,-81.08801700000002,40.742752,-81.092077,0.365299003807,Construction on OH-183 NB near US-30 Allow extra time.,1039.0,E Lincolnway,R,Minerva,Stark,OH,44657-1215,US,US/Eastern,KCAK,2020-10-01 13:51:00,58.0,58.0,62.0,28.65,8.0,W,10.0,0.0,Light Rain,False,False,False,False,False,False,False,False,False,False,False,False,False,Day,Day,Day,Day
C-3114926,2,2021-08-21 22:27:00,2021-08-21 22:56:30,47.57734,-111.24942,47.546411,-111.27508799999998,2.44926794057,Slow traffic on US-87 N - US-87 S from Fas 386 (US-87) to Old Havre Hwy (US-87) due to roadwork.,1637.0,US Highway 87,R,Great Falls,Cascade,MT,59404,US,US/Mountain,KGTF,2021-08-21 22:53:00,54.0,54.0,93.0,26.01,10.0,SSW,3.0,0.0,Fair,False,False,False,False,False,False,False,False,False,False,False,False,False,Night,Night,Night,Night
C-3114927,2,2021-09-07 08:29:30,2021-09-07 08:59:00,41.960711,-87.749963,41.959836,-87.74755400000002,0.137746893578,Slow traffic on IL-50 from N Lamon Ave to W Pensacola Ave due to roadwork.,4901.0,W Montrose Ave,L,Chicago,Cook,IL,60641-1525,US,US/Central,KORD,2021-09-07 08:51:00,74.0,74.0,68.0,29.05,10.0,SW,12.0,0.0,Mostly Cloudy,False,False,False,False,False,False,False,False,True,False,False,False,False,Day,Day,Day,Day
C-3114928,2,2021-05-30 00:36:00,2021-12-26 08:23:00,40.321888,-75.934321,40.32324600000001,-75.93011,0.2408539926689999,Slow traffic from Crestmont St to US-422 E due to roadwork.,2.0,Crestmont St,R,Reading,Berks,PA,19611-1648,US,US/Eastern,KRDG,2021-07-12 15:54:00,92.0,92.0,55.0,29.69,10.0,VAR,3.0,0.0,Partly Cloudy,False,False,False,False,False,False,False,False,False,False,False,False,False,Night,Night,Night,Night
C-3114929,2,2021-03-10 05:45:00,2021-12-27 12:07:00,33.452529,-112.221131,33.451746,-112.220368,0.0697247018533,Stationary traffic from I-10 E to N 73rd Ave due to roadwork.,433.0,N 75th Ave,R,Phoenix,Maricopa,AZ,85043-2102,US,US/Mountain,KGEU,2021-10-22 16:58:00,88.0,88.0,16.0,28.68,10.0,S,5.0,0.0,Fair,False,False,False,False,False,False,False,False,True,False,False,False,False,Night,Night,Night,Day
C-3114930,2,2017-04-03 10:05:12,2017-04-03 16:08:21,40.41457,-78.76246,40.46817,-78.76496,3.7057398565,At US-22 - Roadwork. Lane blocked.,,US-219 N,R,Summerhill,Cambria,PA,15958,US,US/Eastern,KJST,2017-04-03 09:54:00,53.1,,50.0,29.96,10.0,SSE,9.2,,Clear,False,False,False,False,False,False,False,False,False,False,False,False,False,Day,Day,Day,Day
C-3114931,2,2021-01-28 13:16:00,2021-01-29 01:52:16,25.890198,-80.188048,25.890934,-80.18612399999998,0.129955660118,Slow traffic on FL-915 - FL-922 - FL-909 from NE 5th Ave to NE 126th St due to roadwork.,506.0,NE 125th St,R,North Miami,Miami-Dade,FL,33161-4719,US,US/Eastern,KOPF,2021-01-28 12:53:00,76.0,76.0,30.0,30.15,10.0,N,16.0,0.0,Fair,False,False,False,False,False,False,False,False,True,False,False,False,False,Day,Day,Day,Day
C-3114932,2,2017-11-01 08:04:45,2017-11-01 14:05:44,40.92432,-75.39386,40.92409,-75.39378,0.0164311264761,At US-209/Hamilton West Rd - Roadwork. Lane blocked.,105.0,Route 715,L,Brodheadsville,Monroe,PA,18322-7107,US,US/Eastern,KMPO,2017-11-01 07:53:00,35.1,,70.0,30.32,10.0,Calm,,,Overcast,False,False,False,False,False,False,False,False,False,False,False,True,False,Day,Day,Day,Day
C-3114933,2,2020-08-24 15:12:00,2020-08-25 16:19:36,41.355722,-75.74795300000002,41.357355,-75.746297,0.141797701579,Construction on BRIDGE ST near DRAKE ST Allow extra time.,400.0,Bridge St,L,Old Forge,Lackawanna,PA,18518-2322,US,US/Eastern,KAVP,2020-08-24 14:54:00,73.0,73.0,81.0,29.0,4.0,W,6.0,0.04,T-Storm,False,False,False,False,False,False,False,False,False,False,False,False,False,Day,Day,Day,Day
C-3114934,2,2020-08-03 16:01:00,2020-08-03 22:46:00,36.749291,-120.38587,36.749295,-120.38682,0.0525945083111999,Construction on BELMONT AVE SB near CA-33 Expect delays.,773.0,Belmont Ave,R,Mendota,Fresno,CA,93640-2500,US,US/Pacific,KMAE,2020-08-03 15:53:00,99.0,99.0,21.0,29.66,10.0,W,12.0,0.0,Partly Cloudy,False,False,False,False,False,False,False,False,False,False,False,True,False,Day,Day,Day,Day
C-3114935,2,2021-10-06 12:58:30,2021-10-10 02:02:08,41.550969,-93.645053,41.548257,-93.645054,0.1873813609519999,Roadwork from Park Ave (Fleur Dr) to McKinley Ave (Fleur Dr).,3700.0,Fleur Dr,R,Des Moines,Polk,IA,50321-2118,US,US/Central,KDSM,2021-10-06 12:54:00,70.0,70.0,73.0,29.14,10.0,ENE,8.0,0.0,Cloudy,False,False,False,False,False,False,False,False,False,False,False,True,False,Day,Day,Day,Day
C-3114936,2,2017-07-24 20:25:31,2017-07-25 02:25:31,27.949790000000004,-82.46847,27.95504600000001,-82.46835,0.363228858421,Between Cass St and Arch St - Construction work.,907.0,N Boulevard,R,Tampa,Hillsborough,FL,33606,US,US/Eastern,KTPF,2017-07-24 20:35:00,87.8,,75.0,30.06,10.0,Calm,,,Mostly Cloudy,False,False,True,False,False,False,True,False,False,False,False,True,False,Night,Day,Day,Day
C-3114937,2,2019-02-01 23:01:31,2019-02-05 23:01:22,25.82496,-80.207623,25.82549,-80.18691,1.28872103521,Between 7th Ave and US-1/Biscayne Blvd - Construction work.,674.0,NW 54th St,L,Miami,Miami-Dade,FL,33127,US,US/Eastern,KMIA,2019-02-01 22:53:00,73.0,,84.0,30.16,10.0,ESE,10.4,,Mostly Cloudy,False,False,False,False,False,False,False,False,False,False,False,True,False,Night,Night,Night,Night
C-3114938,2,2021-02-03 07:00:00,2021-09-20 10:46:59,32.732548,-101.984748,32.732701,-101.984066,0.0410243436939,Roadwork on FM-829 (US-180) from TX-137/Bryan Ave/Seminole Rd/4th St (US-180) to US-180 E - US-180 W.,2712.0,Seminole Rd,L,Lamesa,Dawson,TX,79331,US,US/Central,KGNC,2021-02-03 06:55:00,45.0,41.0,61.0,26.58,10.0,W,7.0,0.0,Fair,False,False,False,False,False,False,False,False,False,False,False,False,False,Night,Night,Day,Day
C-3114939,2,2021-06-16 14:38:30,2021-06-16 15:09:00,41.961668,-87.959379,41.945542,-87.95985,1.11446329875,Stationary traffic on IL-83 from Brookwood St (Robert Kingery Hwy/IL-83) to 3rd Ave (Robert Kingery Hwy/IL-83) due to roadwork.,232.0,State Route 83,L,Bensenville,DuPage,IL,60106,US,US/Central,KORD,2021-06-16 14:51:00,76.0,76.0,23.0,29.36,10.0,NE,10.0,0.0,Fair,False,False,False,False,False,False,False,False,False,False,False,True,False,Day,Day,Day,Day
C-3114940,2,2021-06-08 17:29:30,2021-06-08 18:21:50,25.930767000000003,-80.188369,25.926966,-80.188204,0.262824146123,Slow traffic on FL-915 from FL-860/NE 181st St/Miami Gardens Dr (NE 6th Ave/FL-915) to NE 159th St (NE 6th Ave/FL-915) due to roadwork.,16909.0,NE 6th Ave,R,North Miami Beach,Miami-Dade,FL,33162-2407,US,US/Eastern,KHWO,2021-06-08 17:53:00,84.0,84.0,61.0,30.1,10.0,E,14.0,0.0,Fair,False,False,False,False,False,False,False,False,True,False,False,False,False,Day,Day,Day,Day
C-3114941,2,2021-07-08 18:48:14,2021-07-08 20:51:25,40.78477700000001,-73.982189,40.784481,-73.97936899999998,0.148940506615,Slow traffic from Henry Hudson Pkwy N to W 80th St due to roadwork.,321.0,W 79th St,R,New York,New York,NY,10024-6151,US,US/Eastern,KNYC,2021-07-08 18:51:00,73.0,73.0,93.0,29.87,1.0,ENE,5.0,0.08,Fog,True,False,True,False,False,False,True,False,True,False,False,True,False,Day,Day,Day,Day
C-3114942,2,2021-06-04 20:34:30,2021-06-04 22:37:28,26.271029,-81.789674,26.27235300000001,-81.791035,0.124414032211,Stationary traffic on County Hwy-846 - County Hwy-851 from Innovation Blvd / Creekside Blvd E to Remington Way due to roadwork.,,N Goodlette Frank Rd,R,Naples,Collier,FL,34108,US,US/Eastern,KAPF,2021-06-04 20:53:00,79.0,79.0,88.0,30.03,10.0,NE,9.0,0.0,Mostly Cloudy,False,False,False,False,False,False,False,False,False,False,False,False,False,Night,Day,Day,Day
C-3114943,2,2020-09-23 12:58:00,2020-09-24 00:37:20,39.776605,-105.109637,39.778474,-105.109619,0.129139138366,Stationary traffic on County Hwy-58 - CO-391 from W 43rd Ave to Lee St due to roadwork.,4300.0,Kipling St,R,Wheat Ridge,Jefferson,CO,80033-2809,US,US/Mountain,KBJC,2020-09-23 12:49:00,82.0,82.0,15.0,24.52,10.0,NE,6.0,0.0,Partly Cloudy,False,False,True,False,False,False,False,False,False,False,False,True,False,Day,Day,Day,Day
C-3114944,2,2021-04-26 20:00:05,2021-04-27 07:06:04,40.752722,-74.10714899999998,40.765582,-74.12146899999998,1.16239997377,NJ DOT - STMC: Construction moving operation on NJ 7 southbound between New Jersey Turnpike (Kearny) and Charlotte Circle (Jersey City) All lanes of 2 lanes closed intermittently Until 5:00 AM,953.0,Belleville Tpke,L,Kearny,Hudson,NJ,07032-4411,US,US/Eastern,KEWR,2021-04-26 19:51:00,59.0,59.0,17.0,30.02,10.0,NW,12.0,0.0,Fair,False,False,False,False,False,False,False,False,False,False,False,False,False,Night,Day,Day,Day
C-3114945,2,2018-10-01 10:01:43,2018-10-05 10:01:39,38.867471,-76.990409,38.8741,-76.97742,0.835463484255,Between Anacostia Fwy and I-695 - Construction work. Right lane blocked.,,Anacostia Fwy N,R,Washington,District of Columbia,DC,20020,US,US/Eastern,KWBC,2018-10-01 11:12:00,,,,,,North,,,,False,False,False,False,True,False,False,False,False,False,False,False,False,Day,Day,Day,Day
C-3114946,2,2019-04-18 09:29:50,2019-04-18 13:29:50,45.504282,-122.674409,45.503651,-122.67455,0.0441293692824,At I-405/Exit 299 - Maintenance work.,,I-405 N,R,Portland,Multnomah,OR,97201,US,US/Pacific,KPDX,2019-04-18 09:53:00,57.0,57.0,69.0,30.23,10.0,CALM,0.0,0.0,Mostly Cloudy,False,False,False,False,False,False,False,False,False,False,False,False,False,Day,Day,Day,Day
C-3114947,2,2021-03-16 19:40:30,2021-03-16 22:20:30,39.860407,-75.353258,39.847901,-75.384873,1.88644013463,Stationary traffic on Vietnam Veterans Memorial Hwy - I-95 S from I-476/Exit 7 (I-95) to US-322/Exit 4 (I-95) due to roadwork.,,I-95 S,R,Chester,Delaware,PA,19013,US,US/Eastern,KPHL,2021-03-16 19:54:00,38.0,31.0,70.0,30.16,10.0,E,10.0,0.0,Cloudy,False,False,False,False,False,False,False,False,False,False,False,False,False,Night,Night,Day,Day
C-3114948,2,2020-10-28 02:13:30,2020-10-28 04:23:30,39.846358,-75.390007,39.843724,-75.395964,0.3646691281949999,Slow traffic on I-95 from Kerlin St/5th St/Exit 5 (I-95) to US-322/Exit 2/Exit 3 (I-95) due to roadwork.,,I-95 S,R,Chester,Delaware,PA,19013,US,US/Eastern,KPHL,2020-10-28 02:13:00,58.0,58.0,70.0,30.11,10.0,E,3.0,0.0,Cloudy,False,False,False,False,False,False,False,False,False,False,False,False,False,Night,Night,Night,Night
C-3114949,2,2020-06-29 09:54:17,2020-06-29 14:00:00,41.8141,-71.44051999999998,41.82037,-71.47863000000002,2.00967085246,Between Harris Ave and US-6A/Hartford Ave (West) - Construction work. Lane blocked.,,US-6 W,R,Providence,Providence,RI,02909,US,US/Eastern,KPVD,2020-06-29 09:51:00,74.0,74.0,76.0,29.73,10.0,NNE,7.0,0.0,Mostly Cloudy,False,False,False,False,False,False,False,False,False,False,False,False,False,Day,Day,Day,Day
C-3114950,2,2021-09-29 15:39:36,2021-09-29 17:59:01,40.739407,-73.891551,40.73826,-73.88556,0.323495664946,Stationary traffic on NY-25 from 69th St (Queens Blvd/NY-25) to 51st Ave (Queens Blvd/NY-25) due to roadwork.,,Queens Blvd,R,Woodside,Queens,NY,11377,US,US/Eastern,KLGA,2021-09-29 15:51:00,70.0,70.0,36.0,29.93,10.0,WNW,12.0,0.0,Mostly Cloudy,False,False,True,False,False,False,False,False,False,False,False,True,False,Day,Day,Day,Day
C-3114951,2,2021-12-30 05:31:00,2021-12-30 07:33:38,47.044003,-123.319174,47.056851,-123.299579,1.28023233215,Roadwork from Elma McCleary Rd to W Wildcat Rd.,609.0,W Elma Hicklin Rd,R,Mccleary,Grays Harbor,WA,98557-9613,US,US/Pacific,KSHN,2021-12-30 05:34:00,28.0,23.0,96.0,29.21,2.0,N,5.0,0.06,Light Snow,False,False,True,False,False,False,True,False,False,False,False,False,False,Night,Night,Night,Night
C-3114952,2,2020-12-07 22:46:00,2020-12-08 01:54:00,41.47916,-75.698388,41.48207,-75.682925,0.8252841527429999,Slow traffic on NE Extension Penn Tpke N - I-476 N from Newton Rd (I-476) to I-81/Exit 131 (I-476) due to roadwork.,,I-476 N,R,Clarks Summit,Lackawanna,PA,18411,US,US/Eastern,KAVP,2020-12-07 22:54:00,30.0,21.0,66.0,28.74,10.0,N,12.0,0.0,Cloudy,False,False,False,False,True,False,False,False,False,False,False,False,False,Night,Night,Night,Night
C-3114953,4,2019-06-04 22:00:00,2019-06-09 05:00:00,33.74971,-118.01095,33.74792,-118.00912,0.162323931738,Ramp closed to Westminster Mall and Bolsa Ave - Closed due to roadwork.,,San Diego Fwy S,R,Westminster,Orange,CA,92683,US,US/Pacific,KSLI,2019-06-04 21:58:00,62.0,62.0,88.0,29.9,7.0,SSW,5.0,0.0,Cloudy,False,False,False,False,False,False,False,False,False,False,False,False,False,Night,Night,Night,Night
C-3114954,1,2020-05-26 07:00:00,2021-05-28 20:00:00,35.993229,-79.714287,,,0.0,Road closed due to construction on Belvoir Dr both ways from Wild Oak Ln to Ramblewood Dr. Detour in operation - use Wild Oak Lane Brookhaven Drive and Ramblewood Drive to access Belvoir Drive.,4504.0,Ramblewood Dr,R,Greensboro,Guilford,NC,27406-9319,US,US/Eastern,KGSO,2020-05-26 06:54:00,66.0,66.0,93.0,29.15,10.0,NE,6.0,0.0,Cloudy,False,False,False,False,False,False,False,False,False,False,False,False,False,Day,Day,Day,Day
C-3114955,2,2020-10-23 16:00:00,2020-10-23 22:45:00,37.237024,-76.511201,37.235718,-76.51205999999998,0.101859277721,Construction on US-17 SB near MATHEWS ST Drive with caution.,,George Washington Memorial Hwy,R,Yorktown,York,VA,23690,US,US/Eastern,KPHF,2020-10-23 15:54:00,72.0,72.0,66.0,30.08,10.0,E,7.0,0.0,Fair,False,False,False,False,False,False,False,False,False,False,False,False,False,Day,Day,Day,Day
C-3114956,2,2021-05-11 16:07:30,2021-12-19 22:39:30,32.793132,-96.796913,32.795074,-96.793367,0.245809606812,Slow traffic from Woodall Rodgers Fwy N to US-75 S due to roadwork.,2782.0,Woodall Rodgers Fwy,L,Dallas,Dallas,TX,75201,US,US/Central,KDAL,2021-12-19 21:53:00,43.0,40.0,56.0,29.75,10.0,NNE,5.0,0.0,Cloudy,False,False,False,False,False,False,False,False,False,False,False,False,False,Day,Day,Day,Day
C-3114957,2,2020-12-21 21:40:00,2020-12-21 22:40:00,37.141495,-122.152736,37.147933,-122.157627,0.520028604894,Stationary traffic on CA-236 from CA-9/Central Ave (Big Basin Way/CA-236) to Old Big Basin Rd/Little Basin Rd (Big Basin Way/CA-236) due to roadwork.,15560.0,Big Basin Way,R,Boulder Creek,Santa Cruz,CA,95006-9341,US,US/Pacific,KSJC,2020-12-21 21:53:00,46.0,46.0,86.0,30.02,10.0,SSE,3.0,0.0,Partly Cloudy,False,False,False,False,False,False,False,False,False,False,False,False,False,Night,Night,Night,Night
C-3114958,2,2021-11-12 12:36:00,2021-11-12 14:37:41,33.710976,-112.273814,33.711995,-112.271936,0.12887048474,Slow traffic from N 107th Ave to W Yearling Rd due to roadwork.,10023.0,W Happy Valley Pkwy,L,Peoria,Maricopa,AZ,85383-3392,US,US/Mountain,KDVT,2021-11-12 12:53:00,85.0,85.0,12.0,28.46,10.0,N,5.0,0.0,Fair,False,False,False,False,False,False,False,False,False,True,False,False,False,Day,Day,Day,Day
C-3114959,2,2021-10-13 15:46:15,2021-10-13 17:05:36,27.916578,-82.790813,27.91664500000001,-82.787873,0.1795555444229999,Stationary traffic on FL-686 from FL-686/Clearwater Largo Rd/W Bay Dr (US-19 Alt) to FL-686/Missouri Ave/Bay Dr (US-19 Alt) due to roadwork.,299.0,W Bay Dr,L,Largo,Pinellas,FL,33770-3302,US,US/Eastern,KPIE,2021-10-13 15:53:00,90.0,90.0,48.0,29.9,10.0,CALM,0.0,0.0,Partly Cloudy,False,False,False,False,False,False,False,False,False,False,False,True,False,Day,Day,Day,Day
C-3114960,2,2021-12-03 16:14:17,2021-12-03 18:17:54,27.894572,-82.788359,27.895501,-82.78704300000003,0.10284983848,Slow traffic on FL-688 - US-19 Alt N - FL-595 from 113th St / Ridge Rd S to Silvercrest Dr due to roadwork.,10766.0,Ulmerton Rd,L,Largo,Pinellas,FL,33778,US,US/Eastern,KPIE,2021-12-03 15:53:00,72.0,72.0,64.0,30.08,10.0,NNW,8.0,0.0,Fair,False,False,False,False,False,False,False,False,True,False,False,False,False,Day,Day,Day,Day
C-3114961,2,2021-07-29 14:50:38,2021-07-29 18:22:42,29.786495,-95.040166,29.791187,-95.055345,0.966197274004,Slow traffic on TX-330 Spur W from Bayway Dr to East Fwy due to roadwork.,,TX-330 Spur W,R,Baytown,Harris,TX,77520,US,US/Central,KEFD,2021-07-29 14:50:00,93.0,93.0,49.0,29.97,10.0,SE,10.0,,Partly Cloudy,False,False,False,False,False,False,False,False,False,False,False,False,False,Day,Day,Day,Day
C-3114962,2,2017-06-14 07:01:54,2017-06-14 13:01:54,42.443679,-75.099046,42.380406,-75.188136,6.30607578992,Between RT-205/Exit 13 and State Hwy/Exit 12 - Construction work.,,I-88 W,R,Oneonta,Otsego,NY,13820,US,US/Eastern,KBGM,2017-06-14 06:53:00,59.0,,78.0,30.04,10.0,North,9.2,,Clear,False,False,False,False,True,False,False,False,False,False,False,False,False,Day,Day,Day,Day
C-3114963,2,2021-12-06 13:52:00,2021-12-06 15:55:11,29.772377,-95.559671,29.774384,-95.562446,0.2166256067859999,Slow traffic from W Bough Ln to Kimberley Ln due to roadwork.,12806.0,Memorial Dr,R,Houston,Harris,TX,77024-4810,US,US/Central,KMCJ,2021-12-06 13:53:00,66.0,66.0,78.0,29.95,10.0,NNW,20.0,0.0,Mostly Cloudy,False,False,False,False,False,False,False,False,False,False,False,False,False,Day,Day,Day,Day
C-3114964,2,2019-03-18 08:00:00,2019-03-18 16:00:00,39.174709,-119.769402,,,0.0,Restrictions due to utility work on Adaline St between Nevada St and Division St.,297.0,Adaline St,L,Carson City,Carson City,NV,89703-2402,US,US/Pacific,KCXP,2019-03-18 07:55:00,32.0,,75.0,30.14,10.0,Calm,,,Clear,False,False,False,False,False,False,False,False,False,True,False,False,False,Day,Day,Day,Day
C-3114965,2,2021-07-22 13:48:28,2021-07-24 03:06:12,34.987819,-84.73848100000002,34.983819,-84.737063,0.287794485154,Roadwork on GA--TN State Border (US-411) from GA-2 (US-411) to US-411 N - GA-61 - US-411 S.,15280.0,Highway 411 N,R,Crandall,Murray,GA,30711,US,US/Eastern,KDNN,2021-07-22 13:55:00,88.0,88.0,49.0,29.4,7.0,NNW,9.0,0.0,Fair,False,False,False,False,False,False,False,False,False,False,False,False,False,Day,Day,Day,Day
C-3114966,3,2020-05-31 21:00:00,2020-06-28 05:00:00,40.09164000000001,-74.96571999999998,40.04905,-75.00222,3.51908271361,Between Knights Rd and Academy Rd/Exit 32 - Roadwork.,,Knights Rd,R,Philadelphia,Philadelphia,PA,19154,US,US/Eastern,KPNE,2020-05-31 20:54:00,65.0,65.0,34.0,30.0,10.0,N,8.0,0.0,Fair,False,False,False,False,True,False,False,False,False,False,False,True,False,Night,Night,Day,Day
C-3114967,2,2019-07-08 09:07:44,2019-07-12 09:08:18,40.5216,-80.06568,40.59055,-80.09734,5.0455762253400005,Between Union Ave Ext/Exit 14 and I-79 - Roadwork. Open.,,I-279 N,R,Pittsburgh,Allegheny,PA,15237,US,US/Eastern,KPIT,2019-07-08 08:51:00,71.0,71.0,78.0,28.69,10.0,NNE,6.0,0.0,Mostly Cloudy,False,False,False,False,False,False,False,False,False,False,False,False,False,Day,Day,Day,Day
C-3114968,2,2021-12-06 15:26:00,2021-12-06 17:31:37,45.45568400000001,-122.715711,45.454645,-122.719786,0.210144224972,Slow traffic from SW 35th Ave to SW Capitol Hwy due to roadwork.,9603.0,SW Barbur Blvd,R,Portland,Multnomah,OR,97219-6040,US,US/Pacific,KPDX,2021-12-06 15:53:00,46.0,42.0,89.0,29.97,2.0,E,7.0,0.0,Light Rain,True,False,False,False,False,False,False,False,True,False,False,False,False,Day,Day,Day,Day
C-3114969,3,2021-04-17 10:00:00,2021-04-17 19:00:00,39.31525,-76.616821,,,0.219999998808,Road closed due to construction on MD-139 Charles St both ways between 21st St and 23rd St.,2.0,E 23rd St,L,Baltimore,Baltimore City,MD,21218,US,US/Eastern,KDMH,,,,,,,,,,,False,False,False,False,False,False,False,False,False,False,False,True,False,Day,Day,Day,Day
C-3114970,3,2021-12-15 16:55:13,2022-01-01 00:00:00,39.93523,-75.735512,,,3.05999994278,Road closed due to bridge maintenance work on PA-162 Embreeville Rd both ways from Cannery Rd to Harvey Bridge Rd.,1690.0,Embreeville Rd,L,Coatesville,Chester,PA,19320-5244,US,US/Eastern,KMQS,2021-12-15 16:55:00,52.0,52.0,76.0,29.7,10.0,CALM,0.0,0.0,Cloudy,False,False,False,False,False,False,False,False,False,False,False,False,False,Night,Day,Day,Day
C-3114971,2,2021-09-27 15:29:00,2021-09-27 17:32:44,28.55641,-81.376898,28.560581,-81.37814300000002,0.297928289362,Slow traffic on FL-527 from E Colonial Dr to I-4 E due to roadwork.,842.0,N Magnolia Ave,L,Orlando,Orange,FL,32803,US,US/Eastern,KORL,2021-09-27 15:53:00,87.0,87.0,46.0,29.93,10.0,VAR,7.0,0.0,Partly Cloudy,False,False,False,False,False,False,False,False,False,False,False,False,False,Day,Day,Day,Day
C-3114972,2,2021-12-17 18:25:00,2021-12-17 20:30:47,33.887555,-117.328312,33.888609,-117.322902,0.318729248887,Slow traffic from Wood Rd (Van Buren Blvd) to I-215 (Van Buren Blvd) due to roadwork.,19167.0,Van Buren Blvd,L,Riverside,Riverside,CA,92508,US,US/Pacific,KRIV,2021-12-17 17:58:00,48.0,45.0,46.0,28.49,10.0,N,7.0,0.0,Fair,False,False,False,False,False,False,False,False,False,False,False,False,False,Night,Night,Night,Night
C-3114973,2,2021-12-14 12:37:30,2021-12-14 14:47:35,44.057921,-121.302529,44.060535,-121.302524,0.180610369326,Stationary traffic on US-20 W - US-20 E from NE Hawthorne Ave to NE Kearney Ave due to roadwork.,798.0,NE 3rd St,R,Bend,Deschutes,OR,97701-4704,US,US/Pacific,KBDN,2021-12-14 12:35:00,34.0,34.0,48.0,26.22,10.0,CALM,0.0,0.0,Fair,False,False,False,False,False,False,False,False,False,False,False,False,False,Day,Day,Day,Day
C-3114974,4,2016-08-28 09:44:21,2016-08-28 15:44:21,39.61266,-83.36662,39.60456,-83.37437,0.6952723521709999,Closed at Dennis Rd NE - Closed due to roadwork.,6843.0,US Highway 62 NE,R,Washington Court House,Fayette,OH,43160-9347,US,US/Eastern,KILN,2016-08-28 09:54:00,80.1,,69.0,30.19,10.0,ENE,3.5,,Clear,False,False,False,False,False,False,False,False,False,False,False,False,False,Day,Day,Day,Day
C-3114975,2,2021-04-30 18:05:11,2021-04-30 22:18:00,29.909988,-81.316598,29.910485,-81.313956,0.161914556754,Stationary traffic on FL-A1A from FL-A1A/San Marco Ave/W San Carlos Ave (FL-A1A) to Driveway (FL-A1A) due to roadwork.,27.0,May St,R,Saint Augustine,St. Johns,FL,32084-2138,US,US/Eastern,KSGJ,2021-04-30 17:56:00,87.0,87.0,51.0,29.94,10.0,W,8.0,0.0,Fair,False,False,False,False,False,False,False,False,False,False,False,False,False,Day,Day,Day,Day
C-3114976,2,2021-10-27 13:39:40,2021-10-27 14:26:19,40.741971,-73.980857,40.745744,-73.978131,0.297190438717,Stationary traffic from E 23rd St (3rd Ave) to E 34th St (3rd Ave) due to roadwork.,200.0,E 28th St,R,New York,New York,NY,10016-8534,US,US/Eastern,KNYC,2021-10-27 13:51:00,59.0,59.0,62.0,29.6,10.0,NNE,12.0,0.0,Cloudy,True,False,True,False,False,False,False,False,False,False,False,True,False,Day,Day,Day,Day
C-3114977,2,2021-02-13 09:57:28,2021-02-13 17:57:28,43.5251,-124.216219,43.675475,-124.159697,10.7679429425,Road maintenance operations are occurring causing no to minimum delays. Use caution.,69543.0,Highway 101,R,North Bend,Coos,OR,97459,US,US/Pacific,KOTH,2021-02-13 09:56:00,51.0,51.0,86.0,29.97,5.0,W,14.0,0.01,Light Rain,False,False,False,False,False,False,False,False,False,False,False,False,False,Day,Day,Day,Day
C-3114978,2,2021-03-10 11:25:55,2021-12-23 16:15:35,41.18637,-79.405237,41.19284,-79.426315,1.18361969999,Slow traffic on I-80 W - PA-66 N from PA-68/Exit 62 (I-80) to PA-66/Exit 60 (I-80) due to roadwork.,,I-80 W,R,Clarion,Clarion,PA,16214,US,US/Eastern,KDUJ,2021-06-15 11:53:00,65.0,65.0,70.0,28.01,10.0,WNW,7.0,0.0,Cloudy,True,False,False,False,False,False,False,False,False,False,False,False,False,Day,Day,Day,Day
C-3114979,2,2021-09-26 15:58:24,2021-09-26 18:26:44,40.665379,-73.731702,40.663979,-73.729619,0.145859098575,Slow traffic on NY-27 from 246th St to 250th St due to roadwork.,,S Conduit Ave,R,Rosedale,Queens,NY,11422,US,US/Eastern,KJFK,2021-09-26 15:51:00,74.0,74.0,33.0,29.87,10.0,WNW,20.0,0.0,Partly Cloudy,False,False,False,False,False,False,False,False,False,True,False,False,False,Day,Day,Day,Day
C-3114980,2,2021-10-27 23:26:30,2021-10-27 23:59:30,32.930048,-97.31639,32.937778,-97.31393,0.552815483089,Slow traffic on I-35W N from Park Glen Blvd/Exit 63 (I-35W) to Keller Hicks Rd/Exit 64 (I-35W) due to roadwork.,,I-35W N,R,Fort Worth,Tarrant,TX,76177,US,US/Central,KAFW,2021-10-27 23:53:00,59.0,59.0,53.0,28.92,10.0,W,10.0,0.0,Fair,False,False,False,False,True,False,False,False,False,False,False,False,False,Night,Night,Night,Night
C-3114981,2,2020-12-15 14:20:00,2020-12-15 14:45:30,37.184488,-100.717527,37.15057,-100.748271,2.89090857775,Slow traffic on US-54 W - US-54 E from Delaware Ave (US-54) to Arkalon Rd (US-54) due to roadwork.,,Road 14,R,Kismet,Seward,KS,67859,US,US/Central,KLBL,2020-12-15 14:19:00,28.0,16.0,86.0,26.97,1.0,N,17.0,0.0,Light Snow,False,False,False,False,False,False,False,False,False,False,False,False,False,Day,Day,Day,Day
C-3114982,2,2020-12-30 14:11:30,2020-12-31 04:41:50,47.605209,-122.339705,47.604807,-122.338325,0.0700314856508999,Slow traffic from Seneca St to WA-99 S due to roadwork.,1201.0,Alaskan Way,L,Seattle,King,WA,98101-3448,US,US/Pacific,KBFI,2020-12-30 13:53:00,46.0,44.0,100.0,29.78,7.0,ESE,5.0,0.03,Rain,True,False,True,False,False,False,False,False,False,False,False,True,False,Day,Day,Day,Day
C-3114983,2,2021-02-26 06:57:00,2021-02-26 15:23:00,27.082756,-82.425938,27.078985,-82.423754,0.293152739444,Stationary traffic on FL-45 - US-41 S from Corporation Way to Ogden Rd due to roadwork.,1278.0,US Highway 41 Byp S,L,Venice,Sarasota,FL,34285-5541,US,US/Eastern,KVNC,2021-02-26 06:53:00,59.0,59.0,83.0,30.08,10.0,E,5.0,0.0,Fair,False,False,False,False,False,False,False,False,False,False,False,False,False,Day,Day,Day,Day
C-3114984,2,2019-09-03 09:01:18,2019-09-07 09:01:10,37.48414,-122.226129,37.482211,-122.221653,0.27926630272,At Woodside Rd - Construction work.,1151.0,Middlefield Rd,L,Redwood City,San Mateo,CA,94063-2012,US,US/Pacific,KSQL,2019-09-03 08:50:00,64.0,64.0,83.0,30.02,10.0,CALM,0.0,0.0,Mostly Cloudy,True,False,True,False,False,False,True,False,True,False,False,True,False,Day,Day,Day,Day
C-3114985,2,2018-03-15 22:00:00,2018-03-16 06:00:00,41.67274000000001,-83.57252,41.676242,-83.57271,0.24216375759,At I-475/Exit 204 - Construction work.,,I-75 N,R,Toledo,Lucas,OH,43610,US,US/Eastern,KDUH,2018-03-15 21:55:00,31.8,22.8,54.0,29.87,10.0,NNW,11.5,,Mostly Cloudy,False,False,False,False,False,False,False,False,False,False,False,False,False,Night,Night,Night,Night
C-3114986,2,2021-02-14 19:39:30,2021-02-16 10:21:19,33.030106,-96.992949,33.051598,-97.010093,1.7863639273599998,Roadwork on E Corporate Dr (Texpress Lanes/I-35) from W Valley Ridge Blvd (Texpress Lanes/I-35) to I-35E N - US-77 S - US-77 N - I-35E S.,,I-35E N,R,Lewisville,Denton,TX,75067,US,US/Central,KDFW,2021-02-14 19:46:00,11.0,-9.0,84.0,29.67,1.0,NNW,24.0,0.01,Light Snow / Windy,False,False,False,False,True,False,False,False,False,False,False,False,False,Night,Night,Night,Night
C-3114987,2,2021-12-16 11:15:30,2021-12-16 11:44:00,40.673755,-73.985791,40.679926,-73.981267,0.487845274944,Slow traffic from 9th St (4th Ave) to Atlantic Ave (4th Ave) due to roadwork.,327.0,4th Ave,L,Brooklyn,Kings,NY,11215-2717,US,US/Eastern,KJRB,2021-12-16 10:51:00,57.0,57.0,51.0,29.99,10.0,W,13.0,0.0,Mostly Cloudy,True,False,True,False,False,False,False,False,False,False,False,True,False,Day,Day,Day,Day
C-3114988,2,2021-09-23 15:17:22,2021-09-23 18:02:22,44.629607,-124.001386,44.63119,-123.995266,0.320184391163,Construction on US-20 EB near MP 3 Drive with caution.,2587.0,Highway 20,R,Newport,Lincoln,OR,97365-9557,US,US/Pacific,KONP,2021-09-23 15:15:00,63.0,63.0,68.0,30.08,10.0,NNW,15.0,0.0,Fair,False,False,False,False,False,False,False,False,False,False,False,False,False,Day,Day,Day,Day
C-3114989,2,2021-03-03 20:42:30,2021-10-30 16:47:14,25.926032,-80.15477800000002,25.925974,-80.153147,0.101429242458,Stationary traffic on FL-826 from FL-909/22nd Ave/Dixie Hwy (FL-826) to FL-A1A/Collins Ave (FL-826) due to roadwork.,2254.0,NE 163rd St,R,North Miami Beach,Miami-Dade,FL,33160-3702,US,US/Eastern,KHWO,2021-10-30 14:53:00,81.0,81.0,52.0,29.75,10.0,W,17.0,0.0,Cloudy,False,False,False,False,False,False,False,False,True,False,False,False,False,Night,Night,Night,Night
C-3114990,4,2020-09-01 07:00:00,2020-09-09 06:59:59,40.795033,-74.006798,40.795419,-74.006466,0.0318256030795,Closed road from 71st St to 72nd St due to roadwork.,299.0,71st St,L,Guttenberg,Hudson,NJ,07093-3411,US,US/Eastern,KNYC,2020-09-01 06:57:00,67.0,67.0,93.0,30.03,3.0,CALM,0.0,0.01,Light Rain,False,False,True,False,False,False,False,False,False,False,False,False,False,Day,Day,Day,Day
C-3114992,3,2018-05-27 09:40:57,2018-12-31 06:00:00,41.57905,-81.54474,41.58128,-81.53986,0.295556303825,At 185th St/200th St/Exit 182 - Roadwork.,,OH-2 E,R,Cleveland,Cuyahoga,OH,44119,US,US/Eastern,KCGF,2018-05-27 09:45:00,75.2,,78.0,29.95,7.0,South,4.6,,Mostly Cloudy,False,False,False,False,False,False,False,False,False,False,False,False,False,Day,Day,Day,Day
C-3114993,2,2019-03-19 09:03:59,2019-03-23 09:03:27,37.33178,-121.905624,37.331829,-121.904724,0.0495606322765999,At Race St/Martin Ave - Construction work.,785.0,The Alameda,R,San Jose,Santa Clara,CA,95126-3155,US,US/Pacific,KSJC,2019-03-19 08:53:00,53.1,,80.0,29.92,10.0,South,5.8,,Overcast,True,False,True,False,False,False,False,False,True,False,False,False,False,Day,Day,Day,Day
C-3114994,4,2016-06-17 09:05:25,2016-06-17 18:05:25,45.71569,-96.42588,45.57185,-96.43154,9.94215737343,Closed at MN-28 - Closed due to roadwork.,,US Highway 75,R,Dumont,Traverse,MN,56236,US,US/Central,KETH,2016-06-17 08:56:00,73.4,,88.0,29.95,10.0,SSE,10.4,,Clear,False,False,False,False,False,False,False,False,False,False,False,False,False,Day,Day,Day,Day
C-3114995,3,2019-07-08 22:00:00,2019-07-09 05:00:00,40.619545,-74.02346,,,0.540000021458,Intermittent lane closures due to construction work on I-278 Westbound from Bay Ridge Parkway to 86th St.,,Brooklyn Queens Expy,R,Brooklyn,Kings,NY,11209,US,US/Eastern,KJRB,2019-07-08 21:51:00,73.0,73.0,68.0,29.86,10.0,WSW,5.0,0.0,Fair,False,False,False,False,False,False,False,False,False,False,False,False,False,Night,Night,Night,Day
C-3114996,2,2021-09-13 08:16:30,2021-09-13 08:37:30,26.32302,-98.360403,26.322267,-98.355157,0.329020168236,Stationary traffic on FM-2221 from N Minnesota Rd to N Bentsen Palm Dr due to roadwork.,4321.0,W Mile 7 Rd,L,Mission,Hidalgo,TX,78574-3267,US,US/Central,KMFE,2021-09-13 08:26:00,75.0,75.0,100.0,29.76,1.0,NW,8.0,0.12,Light Rain,False,False,False,False,False,False,False,False,False,False,False,True,False,Day,Day,Day,Day
C-3114997,2,2021-05-04 05:20:00,2021-05-04 22:58:13,33.482702,-112.16894,33.480468,-112.170965,0.1935035497459999,Slow traffic from W Earll Dr to N 52nd Ave due to roadwork.,2782.0,N 51st Ave,L,Phoenix,Maricopa,AZ,85035-2021,US,US/Mountain,KGEU,2021-05-04 04:58:00,67.0,67.0,21.0,28.69,10.0,SSW,5.0,0.0,Fair,False,False,False,False,False,False,False,False,False,False,False,False,False,Night,Day,Day,Day
C-3114998,2,2021-05-05 15:31:42,2021-05-05 16:27:25,36.048324,-91.604621,36.050295,-91.606692,0.178690908613,Stationary traffic on US-167 S - US-167 N from AR-58 (US-167) to Sims Town Rd (US-167) due to roadwork.,1745.0,Highway 167,L,Evening Shade,Sharp,AR,72532-9411,US,US/Central,KBVX,2021-05-05 15:56:00,73.0,73.0,31.0,29.63,10.0,NNE,6.0,0.0,Fair,False,False,False,False,False,False,False,False,False,False,False,False,False,Day,Day,Day,Day
C-3114999,2,2021-02-06 07:00:30,2021-02-06 08:18:30,35.512605,-97.551061,35.515935,-97.544816,0.4198715105919999,Slow traffic on I-44 E - OK-66 E from May Ave/Exit 124 (I-44) to Pennsylvania Ave/Exit 125 (I-44) due to roadwork.,,I-44 E,R,Oklahoma City,Oklahoma,OK,73112,US,US/Central,KPWA,2021-02-06 06:53:00,44.0,40.0,53.0,28.46,10.0,ESE,7.0,0.0,Cloudy,False,False,False,False,False,False,False,False,False,False,False,False,False,Night,Day,Day,Day
C-3115000,2,2021-11-24 15:25:48,2021-11-24 15:49:26,32.932508,-97.301403,32.933389,-97.314444,0.758701446199,Slow traffic on FM-1709 from Alta Vista Rd (Golden Triangle Blvd) to I-35W/North Fwy (Golden Triangle Blvd) due to roadwork.,3801.0,Golden Triangle Blvd,R,Fort Worth,Tarrant,TX,76244-4846,US,US/Central,KAFW,2021-11-24 15:53:00,74.0,74.0,57.0,29.15,10.0,S,13.0,0.0,Mostly Cloudy,False,False,False,False,False,False,False,False,False,False,False,False,False,Day,Day,Day,Day
C-3115001,2,2021-02-03 16:49:00,2021-02-04 01:36:45,33.464022,-112.169033,33.465967,-112.169801,0.141489759041,Stationary traffic from I-10 W to N 52nd Dr due to roadwork.,1401.0,N 51st Ave,L,Phoenix,Maricopa,AZ,85043,US,US/Mountain,KGEU,2021-02-03 16:55:00,79.0,79.0,26.0,28.69,10.0,SW,14.0,0.0,Mostly Cloudy,False,False,False,False,False,False,False,False,True,False,False,False,False,Day,Day,Day,Day
C-3115002,2,2021-03-09 04:42:30,2021-03-09 10:25:42,25.729937,-80.367654,25.732266,-80.367212,0.163253318384,Slow traffic on FL-976 - FL-985 from SW 41st Ter to SW 104th Ct due to roadwork.,4138.0,SW 107th Ave,R,Miami,Miami-Dade,FL,33165-4861,US,US/Eastern,KMIA,2021-03-09 04:53:00,68.0,68.0,61.0,30.34,10.0,ENE,10.0,0.0,Cloudy,False,False,False,False,False,False,False,False,True,False,False,False,False,Night,Night,Night,Night
C-3115003,2,2021-06-16 16:31:06,2021-06-16 17:00:05,39.189992,-94.611265,39.196424,-94.620596,0.6687022222460001,Slow traffic on US-71 N - I-29 N from Waukomis Dr/Exit 3 (I-29) to 56th St/Roanridge Rd/Exit 4 (I-29) due to roadwork.,,I-29 N,R,Kansas City,Platte,MO,64151,US,US/Central,KNKA,2021-06-16 16:54:00,94.0,94.0,37.0,29.15,10.0,VAR,7.0,0.0,Fair,False,False,False,False,True,False,False,False,False,False,False,False,False,Day,Day,Day,Day
C-3115004,2,2020-09-05 02:14:30,2020-09-05 02:28:30,47.277458,-121.278476,47.270617,-121.268109,0.677945157068,Queuing traffic on I-90 from NFD-4823/Exit 63 (I-90) to Railroad St/Exit 70 (I-90) due to roadwork.,,I-90 E,R,Cle Elum,Kittitas,WA,98922,US,US/Pacific,KSMP,2020-09-05 01:53:00,73.0,73.0,48.0,28.02,10.0,NNW,14.0,0.0,Fair,False,False,False,False,False,False,False,False,False,False,False,False,False,Night,Night,Night,Night
C-3115005,2,2020-06-19 04:14:26,2020-09-28 14:28:19,46.902466,-105.016433,46.964551,-104.87195,8.05413625354,Construction on I-94 EB near CRACKER BOX Expect delays.,,I-94 E,R,Glendive,Dawson,MT,59330,US,US/Mountain,KGDV,2020-06-19 03:56:00,43.0,43.0,97.0,27.49,10.0,SE,3.0,0.0,Fair,False,False,False,False,False,False,False,False,False,False,False,False,False,Night,Night,Day,Day
C-3115006,2,2019-01-18 21:16:22,2019-01-19 01:16:22,45.5304,-122.61497,45.531474,-122.616777,0.1147001642679999,At NE Cesar E Chavez Blvd/Exit 2 - Maintenance work.,,NE 47th Ave,R,Portland,Multnomah,OR,97213,US,US/Pacific,KPDX,2019-01-18 20:53:00,42.1,33.3,96.0,29.92,4.0,ESE,19.6,0.04,Light Rain,False,False,False,False,False,False,False,False,False,False,False,False,False,Night,Night,Night,Night
C-3115007,4,2021-09-24 15:53:41,2021-09-24 17:59:13,41.155364,-73.86027,41.154461,-73.859928,0.0648785679795,US-9 N - US-9 S is closed from Maurice Ave (US-9) to Scarborough Rd (US-9) due to roadwork.,87.0,S Highland Ave,R,Ossining,Westchester,NY,10562-5605,US,US/Eastern,KHPN,2021-09-24 15:56:00,71.0,71.0,41.0,29.54,10.0,W,7.0,0.0,Fair,False,False,True,False,False,False,False,False,False,False,False,False,False,Day,Day,Day,Day
C-3115008,2,2016-11-19 08:00:00,2016-11-19 17:00:00,42.07350200000001,-88.29029799999998,,,1.59,One right lane closed due to maintenance work on IL-31 both ways between Davis Rd and Airport Rd.,,14N661 State Route 31,L,Elgin,Kane,IL,60123,US,US/Central,KDPA,2016-11-19 07:52:00,36.0,23.2,55.0,30.1,10.0,WNW,28.8,,Overcast,False,False,False,False,False,False,False,False,False,False,False,False,False,Day,Day,Day,Day
C-3115009,2,2021-01-18 11:48:00,2021-01-19 01:22:34,28.189037,-82.376538,28.193981,-82.383251,0.532736713741,Stationary traffic on FL-56 from CR-581/Bruce B Downs Blvd (FL-56) to I-75 (FL-56) due to roadwork.,26641.0,State Road 56,L,Wesley Chapel,Pasco,FL,33544-8866,US,US/Eastern,KVDF,2021-01-18 11:55:00,68.0,68.0,46.0,30.16,10.0,NNW,5.0,0.0,Fair,False,False,False,False,False,False,False,False,False,False,False,False,False,Day,Day,Day,Day
C-3115010,2,2020-11-20 14:25:00,2020-11-20 21:18:29,28.356148,-80.700087,28.357523,-80.70009300000002,0.0950041523295,Slow traffic on FL-3 from CR-3/S Tropical Trl (N Courtenay Pkwy/FL-3) to Merritt Ave (N Courtenay Pkwy/FL-3) due to roadwork.,76.0,S Courtenay Pkwy,L,Merritt Island,Brevard,FL,32952,US,US/Eastern,KCOF,2020-11-20 14:30:00,72.0,72.0,78.0,30.26,9.0,NE,10.0,0.0,Rain,False,False,True,False,False,False,False,False,False,False,False,False,False,Day,Day,Day,Day
C-3115011,2,2020-11-16 16:40:30,2020-11-16 19:02:30,32.284337,-110.836981,32.286181,-110.837963,0.139724906526,Stationary traffic from N Sabino Canyon Rd (N Kolb Rd) to E Snyder Rd (N Kolb Rd) due to roadwork.,4302.0,N Kolb Rd,R,Tucson,Pima,AZ,85750-6123,US,US/Mountain,KDMA,2020-11-16 16:58:00,85.0,85.0,7.0,27.23,10.0,E,10.0,0.0,Fair,False,False,False,False,False,False,False,False,False,False,False,False,False,Day,Day,Day,Day
C-3115012,2,2020-04-29 08:20:02,2020-04-29 16:00:00,41.56786,-72.65069,41.56327,-72.64801,0.3460800917319999,Between CT-99/Main St/Exit 18 and Washington St - Roadwork. Right lane closed.,,Saint Johns Sq,R,Middletown,Middlesex,CT,06457,US,US/Eastern,KMMK,2020-04-29 08:19:00,44.0,41.0,82.0,30.16,10.0,VAR,6.0,0.0,Cloudy,False,False,True,False,True,False,True,False,False,False,False,True,False,Day,Day,Day,Day
C-3115013,2,2021-01-09 15:06:00,2021-01-10 02:04:04,33.50922,-112.049705,33.508519,-112.047532,0.134229771297,Stationary traffic from N 15th St to E Pierson St due to roadwork.,4999.0,N 15th St,R,Phoenix,Maricopa,AZ,85014,US,US/Mountain,KPHX,2021-01-09 14:51:00,67.0,67.0,13.0,28.75,10.0,W,16.0,0.0,Fair,True,False,False,False,False,False,False,False,True,True,False,False,False,Day,Day,Day,Day
C-3115014,3,2016-05-10 21:30:33,2017-09-01 16:00:00,40.025134,-82.866051,40.03843,-82.86486,0.920824361403,At US-62/E Johnstown Rd - Roadwork.,297.0,N Hamilton Rd,L,Gahanna,Franklin,OH,43230-2605,US,US/Eastern,KCMH,2016-05-12 21:51:00,70.0,,68.0,29.86,10.0,WSW,10.4,,Overcast,False,False,True,False,False,False,False,False,False,False,False,True,False,Night,Night,Day,Day
C-3115015,2,2020-03-05 08:15:00,2020-03-05 14:01:00,40.34365,-121.65171,40.34984,-121.63599,0.931754395939,At 2.2 mi west of Route 172 West (Mineral) - Construction work.,38041.0,State Highway 36 E,R,East Tehama,Tehama,CA,96061,US,US/Pacific,KRBL,2020-03-05 07:54:00,49.0,47.0,66.0,29.76,10.0,NNW,5.0,0.0,Fair,False,False,False,False,False,False,False,False,False,False,False,False,False,Day,Day,Day,Day
C-3115016,2,2017-08-26 06:00:00,2017-08-26 16:00:00,33.394119,-111.736542,,,0.0,Intermittent lane closures due to paving repairs on Southern Ave both ways at Greenfield Rd.,1181.0,S Greenfield Rd,L,Mesa,Maricopa,AZ,85206,US,US/Mountain,KFFZ,2017-08-26 05:52:00,84.2,,37.0,29.87,40.0,NE,8.1,,Scattered Clouds,False,False,True,False,False,False,False,False,False,False,False,True,False,Day,Day,Day,Day
C-3115017,2,2020-10-03 05:27:30,2020-10-07 08:31:46,29.673921000000004,-95.156001,29.680271,-95.155393,0.440258727671,Roadwork from Spencer Hwy (Sam Houston Tollway) to Pasadena Blvd/Red Bluff Rd (Sam Houston Tollway).,,E Sam Houston Tollway N,R,Pasadena,Harris,TX,77503,US,US/Central,KEFD,2020-10-03 05:50:00,59.0,59.0,82.0,30.05,10.0,NNE,6.0,,Fair,False,False,False,False,False,False,False,False,False,False,False,False,False,Night,Night,Night,Night
C-3115018,2,2021-07-03 13:08:30,2021-07-03 15:10:52,42.152419,-87.960957,42.153656,-87.960546,0.0880232046744,Slow traffic from Aptakisic Rd to S McHenry Rd due to roadwork.,89.0,S Buffalo Grove Rd,L,Buffalo Grove,Cook,IL,60089-2104,US,US/Central,KPWK,2021-07-03 12:52:00,83.0,83.0,47.0,29.3,10.0,WNW,13.0,0.0,Fair,False,False,False,False,False,False,False,False,False,False,False,False,False,Day,Day,Day,Day
C-3115019,2,2020-10-13 13:35:00,2020-10-14 02:18:17,25.79431,-80.238892,25.793727,-80.239823,0.0705475193862,Queuing traffic on FL-9 from NW 26th Ave to NW South River Dr due to bridge maintenance work.,1999.0,NW 26th Ave,R,Miami,Miami-Dade,FL,33125-1220,US,US/Eastern,KMIA,2020-10-13 13:53:00,86.0,86.0,63.0,29.93,10.0,NNE,6.0,0.0,Mostly Cloudy,False,False,False,False,False,False,False,False,True,False,False,False,False,Day,Day,Day,Day
C-3115020,2,2021-07-20 17:30:39,2021-07-20 19:36:03,42.105754,-87.845359,42.104682,-87.849124,0.206724001331,Stationary traffic from Quail Ln to Miller Dr due to roadwork.,,Willow Rd,R,Northbrook,Cook,IL,60062,US,US/Central,KPWK,2021-07-20 17:52:00,76.0,76.0,74.0,29.37,9.0,ENE,10.0,0.0,Fair,False,False,True,False,False,False,False,False,False,False,False,False,False,Day,Day,Day,Day
C-3115021,2,2021-06-28 12:18:30,2021-06-28 13:22:30,39.724915,-104.940781,39.716883,-104.940783,0.554958355998,Stationary traffic on CO-2 from E 6th Ave/E 6th Avenue Pkwy (Colorado Blvd/CO-2) to Leetsdale Dr (Colorado Blvd/CO-2) due to roadwork.,551.0,N Colorado Blvd,L,Denver,Denver,CO,80206-4527,US,US/Mountain,KBKF,2021-06-28 11:58:00,68.0,68.0,50.0,24.59,10.0,N,3.0,0.0,Mostly Cloudy,False,False,False,False,False,False,False,False,False,False,False,False,False,Day,Day,Day,Day
C-3115022,2,2021-07-27 17:22:00,2021-07-27 19:25:18,42.01122700000001,-87.711511,42.01183,-87.712413,0.0622903360048,Stationary traffic from W Lunt Ave to N Kimball Ave due to roadwork.,7163.0,N McCormick Blvd,R,Lincolnwood,Cook,IL,60712,US,US/Central,KORD,2021-07-27 17:51:00,86.0,86.0,51.0,29.28,10.0,W,10.0,0.0,Fair,False,False,False,False,False,False,False,False,False,False,False,False,False,Day,Day,Day,Day
C-3115023,2,2021-09-20 06:30:32,2021-09-24 02:59:22,36.23125200000001,-80.815302,36.18562,-80.812309,3.15728314457,Roadwork on NC-67/Exit 82 (I-77) from US-421/Exit 73 (I-77) to I-77 S - US-21 S.,,I-77 S,R,Jonesville,Yadkin,NC,28642,US,US/Eastern,KUKF,2021-09-20 06:35:00,63.0,63.0,100.0,28.86,10.0,CALM,0.0,0.0,Fair,False,False,False,False,False,False,False,False,False,False,False,False,False,Night,Night,Day,Day
C-3115024,2,2021-03-03 03:28:42,2021-07-27 12:32:30,45.046198,-92.122502,45.046245,-92.126887,0.214087159168,Stationary traffic on WI-170 from Rowley Rd to County Highway Q N / Main St due to roadwork.,199.0,Main St E,R,Downing,Dunn,WI,54734,US,US/Central,KLUM,2021-07-27 11:15:00,76.0,76.0,63.0,29.03,10.0,SSE,12.0,0.0,Fair,False,False,False,False,False,False,False,False,False,False,False,False,False,Night,Night,Night,Night
C-3115025,2,2020-11-29 21:24:01,2020-11-30 06:48:34,29.997848,-95.425509,29.947712,-95.416475,3.5060141112900003,Roadwork on I-45/North Fwy Frontage/FM-1960 (I-45 HOV) from West Rd (I-45 HOV) to I-45 N - I-45 S.,,W Richey Rd,R,Houston,Harris,TX,77090,US,US/Central,KDWH,2020-11-29 21:53:00,50.0,50.0,66.0,30.07,10.0,NW,7.0,0.0,Fair,False,False,False,False,False,False,False,False,False,False,False,False,False,Night,Night,Night,Night
C-3115026,3,2020-10-30 21:00:00,2020-10-31 04:00:00,34.032986,-84.577072,,,9.67000007629,Right hand shoulder closed and right lane closed due to construction on I-75 Southbound from GA-92 Cherokee Rd to Chastain Rd.,,GA-401 S,R,Kennesaw,Cobb,GA,30144,US,US/Eastern,KRYY,2020-10-30 20:50:00,50.0,50.0,68.0,29.09,10.0,NNW,6.0,0.0,Fair,False,False,False,False,False,False,False,False,False,False,False,False,False,Night,Night,Night,Night
C-3115027,2,2021-02-16 18:41:00,2021-02-17 10:46:39,37.346747,-90.001672,37.343337,-89.992502,0.556079558063,Roadwork on CR-336 (MO-51) from MO-34/Mayfield Dr (Main St/Conrad Ave/MO-51) to MO-51.,112.0,State Highway 51 N,R,Marble Hill,Bollinger,MO,63764-9151,US,US/Central,KCGI,2021-02-16 18:53:00,4.0,4.0,80.0,29.91,10.0,NNE,3.0,0.0,Fair,False,False,False,False,False,False,False,False,False,False,False,False,False,Night,Night,Night,Day
C-3115028,2,2016-10-31 06:55:31,2016-10-31 12:55:31,33.936285,-118.093443,33.922889,-118.084279,1.06427963013,Between Florence Ave/Exit 123 and Pioneer Blvd/Exit 122 - Roadwork.,,Santa Ana Fwy S,R,Downey,Los Angeles,CA,90241,US,US/Pacific,KLGB,2016-10-31 06:53:00,57.0,,93.0,30.04,10.0,Calm,,,Clear,False,False,False,False,False,False,False,False,False,False,False,False,False,Night,Day,Day,Day
C-3115029,4,2018-10-22 06:42:43,2018-10-26 06:42:26,44.979409,-93.544328,44.983028,-93.547642,0.297920530414,Closed at CR-146/Brown Rd - Closed due to roadwork.,798.0,W Wayzata Blvd,R,Wayzata,Hennepin,MN,55391,US,US/Central,KFCM,2018-10-22 06:53:00,34.0,28.8,85.0,30.06,10.0,SW,5.8,,Clear,False,False,False,False,False,False,False,False,True,False,False,False,False,Night,Night,Day,Day
C-3115030,2,2020-09-21 05:07:00,2020-09-21 10:25:28,40.867935,-73.976435,40.866021,-73.975213,0.146852086335,Emergency maintenance on New Jersey Turnpike/I-95 local lanes southbound North of Exit 71 (NB) - NJ 4/Broad Ave (Englewood) to North of Exit 69 - I-80 (Teaneck Twp) right lane closed to traffic for recovery of tractor trailer fire until further notice,,New Jersey Tpke N,R,Leonia,Bergen,NJ,07605,US,US/Eastern,KTEB,2020-09-21 04:51:00,44.0,44.0,73.0,30.54,10.0,N,3.0,0.0,Fair,False,False,False,False,False,False,False,False,False,False,False,False,False,Night,Night,Night,Night
C-3115031,4,2018-11-17 20:03:04,2018-11-18 01:02:26,47.70316,-122.326255,47.70321,-122.32859,0.108627533234,Closed at 1st Ave NE - Closed due to roadwork.,,NE 103rd St,R,Seattle,King,WA,98125,US,US/Pacific,KBFI,2018-11-17 19:53:00,46.0,44.8,61.0,30.25,10.0,North,3.5,,Clear,False,False,True,True,False,False,True,False,True,False,False,True,False,Night,Night,Night,Night
C-3115032,1,2020-01-21 09:00:00,2020-01-21 15:00:00,34.178909000000004,-118.308952,,,0.170000001788,Road closed due to paving repairs on Angeleno Ave both ways from Bonnywood Pl to Ikea Way.,104.0,E Angeleno Ave,R,Burbank,Los Angeles,CA,91502-1911,US,US/Pacific,KBUR,2020-01-21 08:53:00,54.0,54.0,77.0,29.3,10.0,CALM,0.0,0.0,Fair,False,False,False,False,False,False,False,False,False,False,False,True,False,Day,Day,Day,Day
C-3115033,4,2020-06-16 00:01:15,2020-06-16 05:00:36,26.24573,-80.13718,26.24576,-80.1353,0.116522552753,Closed at 7th Ter - Closed due to roadwork.,1472.0,NW 12th Ave,R,Pompano Beach,Broward,FL,33069,US,US/Eastern,KFXE,2020-06-16 00:53:00,78.0,78.0,87.0,30.02,10.0,NNW,5.0,0.0,Fair,False,False,False,False,False,False,False,False,False,False,False,False,False,Night,Night,Night,Night
C-3115034,2,2021-05-27 11:54:20,2021-10-22 13:10:30,42.085536,-87.980464,42.082686,-87.98048399999998,0.19691891636,Slow traffic from E Euclid Ave (N Arlington Heights Rd) to E Central Rd (S Arlington Heights Rd) due to roadwork.,299.0,N Arlington Heights Rd,R,Arlington Heights,Cook,IL,60004,US,US/Central,KPWK,2021-10-22 12:52:00,53.0,53.0,48.0,29.35,10.0,WNW,9.0,0.0,Fair,False,False,True,False,False,False,True,False,False,False,False,True,False,Day,Day,Day,Day
C-3115035,2,2018-04-29 21:09:27,2018-06-30 00:00:00,35.24172,-80.84956,35.59684,-80.86004,24.5435498083,Between I-277/NC-16/Brookshire/Exit 11 and NC-150/Exit 36 - Roadwork. Narrow lanes.,,I-77 N,R,Charlotte,Mecklenburg,NC,28206,US,US/Eastern,KCLT,2018-04-29 20:52:00,60.1,,27.0,30.17,10.0,NNW,5.8,,Clear,False,False,False,False,True,False,False,False,False,False,False,False,False,Night,Night,Night,Day
C-3115036,2,2019-04-26 16:19:44,2019-04-30 16:20:18,40.30735,-75.9002,40.311991,-75.917805,0.981432033609,Between Neversink Rd and US-222-BR/Lancaster Ave - Roadwork. Lane blocked.,,Conrad Weiser Pkwy,R,Birdsboro,Berks,PA,19508,US,US/Eastern,KRDG,2019-04-26 16:27:00,67.0,67.0,84.0,28.94,3.0,SSE,8.0,0.0,Heavy T-Storm,False,False,False,False,False,False,False,False,False,False,False,False,False,Day,Day,Day,Day
C-3115037,2,2017-06-20 21:00:00,2017-06-21 06:00:00,40.278347,-75.795746,,,7.76000022888,Intermittent lane closures due to construction during the night on US-422 Baumstown Rd Eastbound between Neversink Rd and Monocacy Hill Rd.,468.0,E Baumstown Rd,L,Birdsboro,Berks,PA,19508-8768,US,US/Eastern,KRDG,2017-06-20 20:54:00,77.0,,52.0,29.95,10.0,SW,3.5,,Clear,False,False,False,False,False,False,False,False,False,False,False,False,False,Night,Day,Day,Day
C-3115038,2,2021-06-14 14:38:00,2021-06-14 16:43:24,33.495197999999995,-112.010085,33.494776,-112.012988,0.169791265119,Stationary traffic from N 34th St to E Fairmount Ave due to roadwork.,3311.0,E Indian School Rd,R,Phoenix,Maricopa,AZ,85018-5013,US,US/Mountain,KPHX,2021-06-14 14:51:00,112.0,112.0,6.0,28.58,10.0,NW,9.0,0.0,Mostly Cloudy,True,False,False,False,False,False,False,False,True,True,False,False,False,Day,Day,Day,Day
C-3115039,2,2021-08-06 10:01:00,2021-08-06 14:46:00,37.799566,-122.446006,37.798816,-122.444896,0.0797354902268,Construction on US-101 SB near CHESTNUT ST Expect delays.,,Richardson Ave,R,San Francisco,San Francisco,CA,94123,US,US/Pacific,KSFO,2021-08-06 09:56:00,66.0,66.0,78.0,29.98,8.0,NE,5.0,0.0,Partly Cloudy,False,False,True,False,False,False,False,False,True,False,False,True,False,Day,Day,Day,Day
C-3115040,2,2020-10-01 13:23:00,2020-10-02 03:45:18,42.155326,-87.954657,42.154399,-87.956475,0.1130209522089999,Stationary traffic on County Hwy-W17 - County Hwy-73 from Armstrong Dr to McHenry Rd due to resurfacing work.,188.0,N Weiland Rd,L,Buffalo Grove,Lake,IL,60089-7047,US,US/Central,KPWK,2020-10-01 13:11:00,54.0,54.0,69.0,29.33,10.0,WNW,13.0,0.0,Cloudy,False,False,False,False,False,False,False,False,False,False,False,False,False,Day,Day,Day,Day
C-3115041,3,2019-01-18 12:08:13,2019-01-23 23:59:00,35.018539000000004,-85.293892,,,4.51000022888,Intermittent lane closures due to construction work on I-24 both ways from Exit 178 US-27 to Exits 180A 180B US-27 Rossville Blvd.,,I-24 E,R,Chattanooga,Hamilton,TN,37408,US,US/Eastern,KCHA,2019-01-18 11:53:00,50.0,,89.0,30.14,3.0,Calm,,,Overcast,False,False,False,False,False,False,False,False,False,False,False,False,False,Day,Day,Day,Day
C-3115042,2,2021-08-30 10:32:00,2021-10-13 16:23:51,40.881518,-73.879367,40.88437800000001,-73.879936,0.199830123066,Slow traffic from Rochambeau Ave to E 212th St due to roadwork.,100.0,E Gun Hill Rd,R,Bronx,Bronx,NY,10467-2180,US,US/Eastern,KLGA,2021-10-13 12:51:00,69.0,69.0,70.0,29.99,10.0,VAR,5.0,0.0,Cloudy,False,False,False,False,False,False,True,False,False,False,False,True,False,Day,Day,Day,Day
C-3115043,2,2020-11-29 10:17:00,2020-11-30 02:14:49,27.870451,-82.32657900000002,27.871738,-82.327814,0.116607699454,Stationary traffic on FL-43 - US-301 N from Balm Riverview Rd to Commerce St due to roadwork.,8114.0,US Highway 301 S,R,Riverview,Hillsborough,FL,33578,US,US/Eastern,KTPF,2020-11-29 10:15:00,77.0,77.0,69.0,30.06,10.0,CALM,0.0,0.0,Partly Cloudy,False,False,False,False,False,False,False,False,True,False,False,False,False,Day,Day,Day,Day
C-3115044,2,2021-02-19 04:57:00,2021-02-19 15:34:40,25.947368,-80.149929,25.948211,-80.146724,0.20746531554,Slow traffic on US-1 N - FL-860 - FL-5 from NE 25th Ct to NE 187th St due to roadwork.,2532.0,NE Miami Gardens Dr,R,Miami,Miami-Dade,FL,33180-2731,US,US/Eastern,KHWO,2021-02-19 04:53:00,75.0,75.0,90.0,30.06,10.0,SSE,6.0,0.0,Cloudy,False,False,True,False,False,False,False,False,False,False,False,True,False,Night,Night,Night,Night
C-3115045,4,2020-09-30 07:29:00,2020-10-09 06:59:00,39.970303,-75.232512,39.969743,-75.232407,0.0390897458029,Closed road from Cambridge St to Poplar St due to roadwork.,663.0,N 56th St,R,Philadelphia,Philadelphia,PA,19131-4258,US,US/Eastern,KPHL,2020-09-30 07:17:00,58.0,58.0,87.0,29.68,10.0,W,14.0,0.0,Mostly Cloudy,False,False,False,False,False,False,False,False,False,False,False,False,False,Day,Day,Day,Day
C-3115046,2,2021-03-08 06:31:30,2021-12-26 10:53:00,26.274963,-80.133975,26.274916,-80.137075,0.192087012665,Stationary traffic on FL-834 from I-95 (West) (FL-834) to FL-845/Powerline Rd (FL-834) due to roadwork.,837.0,W Sample Rd,L,Pompano Beach,Broward,FL,33064-2002,US,US/Eastern,KPMP,2021-12-01 17:53:00,75.0,75.0,62.0,30.1,10.0,CALM,0.0,0.0,Fair,False,False,True,False,False,False,True,False,False,False,False,False,False,Night,Day,Day,Day
C-3115047,2,2020-08-25 13:47:00,2020-08-26 14:43:31,40.83759600000001,-77.875648,40.840258,-77.871093,0.300868143782,Construction on FOX HOLLOW RD near REGINA CR Allow extra time.,1225.0,Fox Hill Rd,R,State College,Centre,PA,16803-1826,US,US/Eastern,KUNV,2020-08-25 13:53:00,86.0,86.0,51.0,28.56,10.0,WNW,15.0,0.0,Partly Cloudy,False,False,False,False,False,False,False,False,False,False,False,False,False,Day,Day,Day,Day
C-3115048,2,2020-04-15 21:36:11,2020-04-16 05:00:00,39.72535,-86.26433,39.72535,-86.26433,0.0,At Airport Expwy/Exit 11 - Roadwork. Two lanes closed.,,I-74 W,R,Indianapolis,Marion,IN,46241,US,US/Eastern,KIND,2020-04-15 21:54:00,34.0,30.0,54.0,29.3,10.0,NNW,5.0,0.0,Fair,False,False,False,False,False,False,False,False,False,False,False,False,False,Night,Night,Night,Day
C-3115049,2,2021-05-14 03:00:00,2021-05-15 01:54:16,30.188471000000003,-97.591692,30.187529,-97.616489,1.4823802513600002,Roadwork on Albert Brown Dr (TX-71) from TX-130 Toll/TX-45 Toll (TX-71) to TX-71.,,TX-71,R,Del Valle,Travis,TX,78617,US,US/Central,KAUS,2021-05-14 02:53:00,55.0,55.0,100.0,29.6,10.0,SW,6.0,0.0,Fair,False,False,False,False,False,False,False,False,False,False,False,False,False,Night,Night,Night,Night
C-3115050,2,2020-07-13 05:30:00,2020-07-13 13:45:00,37.469007,-77.582859,37.471238,-77.580914,0.187450054687,Construction on OLD HUNDRED RD EB near VA-150 Construction. Left lane closed.,,Powhite Pkwy N,R,Richmond,Chesterfield,VA,23236,US,US/Eastern,KFCI,2020-07-13 05:56:00,70.0,70.0,90.0,29.58,10.0,CALM,0.0,0.0,Fair,False,False,False,False,False,False,False,False,False,False,False,False,False,Night,Day,Day,Day
C-3115051,2,2018-02-06 09:00:00,2018-02-08 16:00:00,30.306307,-89.37787,30.299824,-89.39684100000002,1.2171032429100002,Between McLaurin Rd and Waveland Ave - Maintenance work. Right lane closed.,400.0,Highway 90,L,Waveland,Hancock,MS,39576-2508,US,US/Central,KHSA,2018-02-06 08:50:00,60.8,,100.0,30.22,3.0,ESE,11.5,,Light Rain,False,False,False,False,False,False,False,False,False,False,False,False,False,Day,Day,Day,Day
C-3115052,2,2021-11-23 10:44:30,2021-11-23 11:07:00,25.849252,-80.316055,25.852198,-80.31986500000002,0.312339010112,Stationary traffic on FL-25 - US-27 N from 29th St (US-27) to 18th Ave (US-27) due to roadwork.,3029.0,W Okeechobee Rd,R,Hialeah,Miami-Dade,FL,33012-4518,US,US/Eastern,KOPF,2021-11-23 10:53:00,68.0,68.0,50.0,30.04,10.0,NNW,20.0,0.0,Fair,False,False,False,False,False,False,False,False,False,False,False,True,False,Day,Day,Day,Day
C-3115053,2,2020-11-17 20:04:49,2021-01-07 13:21:06,36.324243,-99.713386,36.362057,-99.659264,3.98733211676,Construction on OK-15 near OK-46 Allow extra time.,,E 1st St,R,Fargo,Ellis,OK,73840,US,US/Central,KWWR,2020-11-17 19:55:00,57.0,57.0,36.0,27.95,10.0,S,17.0,0.0,Fair,False,False,False,False,False,False,False,False,False,True,False,False,False,Night,Night,Night,Night
C-3115055,2,2021-12-14 11:16:30,2021-12-14 13:20:13,25.849934,-80.189981,25.849809,-80.193485,0.218049495132,Stationary traffic on FL-934 from US-1/FL-5/Biscayne Blvd (NE 82nd St/FL-934) to N Miami Ave (NE 82nd St/FL-934) due to roadwork.,348.0,NE 82nd St,R,Miami,Miami-Dade,FL,33138-3948,US,US/Eastern,KOPF,2021-12-14 10:53:00,81.0,81.0,58.0,30.26,10.0,ENE,13.0,0.0,Mostly Cloudy,False,False,True,False,False,False,False,False,False,True,False,False,False,Day,Day,Day,Day
C-3115056,3,2016-04-24 19:53:44,2016-04-25 01:53:44,40.297258,-75.938725,40.30346,-75.96805,1.60359833374,Between High Blvd and New Holland Ave - Construction work.,879.0,Philadelphia Ave,L,Reading,Berks,PA,19607-3111,US,US/Eastern,KRDG,2016-04-24 19:54:00,61.0,,27.0,30.01,10.0,WSW,5.8,,Clear,False,False,False,False,False,False,False,False,False,False,False,True,False,Night,Day,Day,Day
C-3115057,2,2021-10-26 13:33:30,2021-10-26 13:53:30,40.191216,-76.686631,40.18842,-76.680582,0.373170324609,Stationary traffic on PA-230 from PA-341/Colebrook Rd (E Harrisburg Pike/PA-230) to Deodate Rd (E Harrisburg Pike/PA-230) due to roadwork.,,Toll House Rd,R,Middletown,Dauphin,PA,17057,US,US/Eastern,KMDT,2021-10-26 13:56:00,57.0,57.0,67.0,29.16,10.0,WNW,26.0,0.0,Cloudy / Windy,False,False,False,False,False,False,False,False,False,False,False,True,False,Day,Day,Day,Day
C-3115058,2,2020-11-14 15:05:30,2020-11-14 22:43:31,27.840871000000003,-82.787137,27.839668,-82.787625,0.0883049199436,Stationary traffic on US-19 Alt S - FL-595 from Johnson Blvd to Park Blvd due to roadwork.,7536.0,Seminole Blvd,L,Seminole,Pinellas,FL,33772-5428,US,US/Eastern,KPIE,2020-11-14 14:53:00,83.0,83.0,65.0,30.0,10.0,NE,5.0,0.0,Fair,False,False,False,False,False,False,False,False,False,False,False,False,False,Day,Day,Day,Day
C-3115059,2,2019-08-12 09:03:57,2019-08-16 09:06:18,40.932832,-76.055454,40.932704,-76.055837,0.0218608899853,At School House Rd - Roadwork. Open.,1.0,Scotch Pine Dr,L,Hazle Township,Luzerne,PA,18202-9760,US,US/Eastern,KAVP,2019-08-12 08:54:00,68.0,68.0,70.0,29.02,10.0,W,3.0,0.0,Fair,False,False,False,False,False,False,False,False,False,False,False,True,False,Day,Day,Day,Day
C-3115060,2,2021-10-25 16:03:30,2021-10-25 18:12:30,37.837117,-96.027942,37.836727,-95.980502,2.58880870847,Slow traffic on US-54 W - US-54 E from Twp-283 (US-54) to KS-105/Apache Rd (US-54) due to roadwork.,2799.0,US Highway 54,R,Virgil,Greenwood,KS,66870,US,US/Central,,,,,,,,,,,,False,False,False,False,False,False,False,False,False,False,False,False,False,Day,Day,Day,Day
C-3115061,2,2021-10-19 17:16:30,2021-10-19 19:46:20,41.865761,-88.306595,41.866319,-88.307224,0.0503378685216,Stationary traffic on IL-25 from Douglas Rd to S Batavia Ave / N Batavia Ave due to roadwork.,1441.0,N Washington Ave,L,Batavia,Kane,IL,60510-1372,US,US/Central,KDPA,2021-10-19 16:52:00,69.0,69.0,44.0,29.23,10.0,SSW,14.0,0.0,Fair,False,False,False,False,False,False,False,False,False,False,False,False,False,Day,Day,Day,Day
C-3115062,3,2018-11-14 12:50:12,2018-11-14 15:00:00,40.87097,-73.8191,40.875199,-73.818467,0.294061680572,At Orchard Beach/City Island - Construction work.,,Hutchinson River Pkwy N,R,Bronx,Bronx,NY,10464,US,US/Eastern,KLGA,2018-11-14 12:51:00,39.0,30.3,38.0,30.4,10.0,NNW,16.1,,Mostly Cloudy,False,False,False,False,True,False,False,False,False,False,False,False,False,Day,Day,Day,Day
C-3115064,2,2016-11-15 07:40:16,2016-11-15 15:00:00,40.80151400000001,-73.217773,,,1.86,Intermittent lane closures due to construction work on NY-111 Joshuas Path both ways between Glenmore Ave and Lexington Ave.,2030.0,Joshuas Path,R,Central Islip,Suffolk,NY,11722-1017,US,US/Eastern,KISP,2016-11-15 07:56:00,51.1,,92.0,29.88,10.0,NE,15.0,0.01,Overcast,False,False,True,False,False,False,False,False,False,False,False,False,False,Day,Day,Day,Day
C-3115065,2,2021-12-21 13:40:00,2021-12-21 14:01:30,33.451411,-112.078539,33.451403000000006,-112.072534,0.346178753019,Slow traffic from W Grand Ave/N 7th Ave (W Van Buren St) to N 3rd St (E Van Buren St) due to roadwork.,365.0,W Van Buren St,L,Phoenix,Maricopa,AZ,85003-1626,US,US/Mountain,KPHX,2021-12-21 13:51:00,66.0,66.0,25.0,28.87,10.0,ESE,3.0,0.0,Cloudy,True,False,True,False,False,False,False,False,True,False,False,True,False,Day,Day,Day,Day
C-3115066,2,2020-07-02 20:00:00,2020-07-03 06:00:00,25.685959,-80.38938900000002,,,0.0,Multiple lane closed due to construction work on FL-94 88th St both ways at FL-821 Florida's Tpke Exit 20.,,Florida's Tpke S,R,Miami,Miami-Dade,FL,33186,US,US/Eastern,KTMB,2020-07-02 19:53:00,79.0,79.0,94.0,29.97,10.0,WSW,5.0,0.0,Light Rain,False,False,False,False,False,False,False,False,False,False,False,False,False,Day,Day,Day,Day
C-3115067,2,2021-10-12 22:50:30,2021-10-13 00:53:00,39.518888,-106.213577,39.507012,-106.202937,0.9974844510299998,Slow traffic on I-70 E - US-6 E from CR-16/Shrine Pass Rd/Exit 190 (I-70) to CO-91/Exit 195 (I-70) due to roadwork.,,I-70 E,R,Frisco,Summit,CO,80443,US,US/Mountain,KCCU,2021-10-12 22:53:00,24.0,16.0,65.0,20.52,10.0,N,7.0,0.0,Cloudy,False,False,False,False,False,False,False,False,False,False,False,False,False,Night,Night,Night,Night
C-3115068,2,2021-06-22 10:22:30,2021-06-22 11:23:00,42.328655,-120.852962,42.315471,-120.80676,2.52994668938,Slow traffic on OR-140 from Campbell Rd (OR-140) to NFD-3733 (OR-140) due to roadwork.,,Klamath Falls Lakeview Hwy,R,Lakeview,Lake,OR,97630,US,US/Pacific,KLKV,2021-06-22 08:53:00,62.0,62.0,80.0,25.26,10.0,NNW,7.0,0.0,Cloudy,False,False,False,False,False,False,False,False,False,False,False,False,False,Day,Day,Day,Day
C-3115069,2,2019-07-19 00:00:00,2019-07-20 00:00:00,30.58358,-90.461601,,,0.0,Intermittent lane closures due to construction on LA-442 both ways from US-51 to LA-1065.,50499.0,Highway 1065,L,Tickfaw,Tangipahoa,LA,70466-2213,US,US/Central,KHDC,2019-07-19 00:15:00,79.0,79.0,89.0,30.0,10.0,SW,3.0,0.0,Fair,False,False,False,False,False,False,False,False,False,False,False,False,False,Night,Night,Night,Night
C-3115071,3,2019-06-06 16:29:41,2019-06-10 16:29:07,40.84524,-73.92778,40.8454,-73.9256,0.114478503791,Ramp to I-87 - Maintenance work. Lane blocked.,,Alexander Hamilton Brg E,R,Bronx,Bronx,NY,10452,US,US/Eastern,KLGA,2019-06-06 16:51:00,82.0,82.0,45.0,29.73,10.0,NW,8.0,0.0,Mostly Cloudy,False,False,False,False,True,False,False,False,False,False,False,False,False,Day,Day,Day,Day
C-3115072,3,2019-05-24 08:57:06,2019-05-29 08:55:09,33.766728,-118.04251,33.77128,-118.04153,0.319510371608,At Old Bolsa Chica Rd - Roadwork.,13548.0,Bolsa Chica Rd,L,Westminster,Orange,CA,92683,US,US/Pacific,KSLI,2019-05-24 08:58:00,63.0,63.0,64.0,29.95,10.0,NW,3.0,0.0,Fair,False,False,False,False,False,False,False,False,False,False,False,False,False,Day,Day,Day,Day
C-3115073,2,2019-10-29 21:00:00,2019-10-30 03:00:00,42.08345,-83.67141,42.08741,-83.67373,0.298353389136,At US-23 - Construction work. Right lane blocked.,,US-23 N,R,Milan,Monroe,MI,48160,US,US/Eastern,KARB,2019-10-29 20:53:00,45.0,41.0,90.0,29.32,10.0,NNW,7.0,0.0,Cloudy,False,False,False,False,False,False,False,False,False,False,False,False,False,Night,Night,Night,Night
C-3115074,2,2020-09-28 13:33:30,2020-09-28 19:00:00,26.441654,-80.070045,26.439809000000004,-80.0722,0.184458637524,Slow traffic on US-1 S - FL-5 from Banyan Tree Ln to Old Dixie Hwy / Linton Blvd due to resurfacing work.,,Banyan Tree Ln,R,Delray Beach,Palm Beach,FL,33483,US,US/Eastern,KBCT,2020-09-28 13:29:00,88.0,88.0,65.0,29.87,10.0,SSE,16.0,0.0,Thunder in the Vicinity,False,False,True,False,False,False,False,False,False,False,False,True,False,Day,Day,Day,Day
C-3115075,2,2020-02-24 00:11:25,2020-03-01 05:00:00,35.40240900000001,-119.040108,,,0.10000000149,Entry ramp to Ca-99 Westbound from Airport Dr Northbound closed due to construction work.,,Airport Dr,R,Bakersfield,Kern,CA,93308,US,US/Pacific,KBFL,2020-02-24 00:54:00,50.0,50.0,74.0,29.8,10.0,ENE,3.0,0.0,Fair,False,False,False,False,False,False,False,False,False,False,False,False,False,Night,Night,Night,Night
C-3115076,2,2020-06-10 15:33:00,2020-11-10 08:30:00,38.798002,-77.569298,38.799261,-77.550899,0.99456376995,On I-66 in the County of Prince William from mile marker 43.2 to mile marker 47 motorists can expect potential delays in this area from 09/30/20 at 12:00 AM until 11/09/20 at 11:45 PM due to construction activities. The east left shoulder and left lane are closed.,,I-66 E,R,Manassas,Prince William,VA,20109,US,US/Eastern,KHEF,2020-06-10 15:56:00,91.0,91.0,59.0,29.67,10.0,SSE,18.0,0.0,Partly Cloudy,False,False,False,False,False,False,False,False,False,False,False,False,False,Day,Day,Day,Day
C-3115077,2,2021-10-09 00:26:00,2021-10-09 02:27:13,40.727719,-74.00133100000002,40.729711,-74.002187,0.144747891484,Slow traffic from Sullivan St to Bleecker St / Minetta St due to roadwork.,161.0,Sullivan St,R,New York,New York,NY,10012-3001,US,US/Eastern,KJRB,2021-10-09 00:51:00,65.0,65.0,78.0,30.11,10.0,E,12.0,0.0,Mostly Cloudy,True,False,True,False,False,False,False,False,False,False,False,True,False,Night,Night,Night,Night
C-3115078,2,2017-02-14 00:01:00,2017-04-14 23:59:00,39.42503,-76.376297,,,0.62,Road closed due to construction work on Joppa Farm Rd both ways from Joppa Farm Rd to MD-7 Philadelphia Rd. Follow signs.,91.0,Philadelphia Rd,R,Joppa,Harford,MD,21085,US,US/Eastern,KMTN,2017-02-14 05:45:00,28.4,,86.0,30.04,10.0,Calm,,,Clear,False,False,False,False,False,False,False,False,False,False,False,False,False,Night,Night,Night,Night
C-3115079,4,2021-04-19 07:00:00,2021-09-03 23:59:00,38.55908,-75.569334,38.557848,-75.569806,0.0888610196381,Closed road from Chipman St to E Market St due to roadwork.,101.0,Chipman St,R,Laurel,Sussex,DE,19956-1133,US,US/Eastern,KGED,2021-04-19 06:54:00,50.0,50.0,86.0,29.81,9.0,CALM,0.0,0.0,Mostly Cloudy,False,False,False,False,False,False,False,False,False,False,False,False,False,Day,Day,Day,Day
C-3115080,2,2017-03-27 21:01:33,2017-03-28 03:01:33,32.89108,-117.22748,32.88406,-117.22817,0.486685172086,At Genesee Ave/Exit 29 - Construction work.,,San Diego Fwy S,R,San Diego,San Diego,CA,92121,US,US/Pacific,KNKX,2017-03-27 20:55:00,57.0,,77.0,29.99,10.0,SE,4.6,,Partly Cloudy,False,False,False,False,False,False,False,False,False,False,False,False,False,Night,Night,Night,Night
C-3115081,2,2021-03-29 07:40:50,2021-03-29 17:18:38,26.272361,-81.787984,26.271197,-81.789815,0.139058469099,Stationary traffic on County Hwy-846 - County Hwy-851 from Medical Blvd / SW Health Pkwy to Creekside Blvd E due to roadwork.,1563.0,Immokalee Rd,L,Naples,Collier,FL,34110-1429,US,US/Eastern,KAPF,2021-03-29 07:53:00,71.0,71.0,100.0,30.08,7.0,E,5.0,0.0,Fair,False,False,False,False,False,False,False,False,False,False,False,False,False,Day,Day,Day,Day
C-3115082,4,2019-10-04 09:53:37,2019-10-04 14:52:52,38.900727,-86.531477,38.90984,-86.54493000000002,0.958993714489,Closed between IN-58/5th St and IN-54/IN-58 - Closed due to roadwork.,,State Road 37,R,Oolitic,Lawrence,IN,47451,US,US/Eastern,KBMG,2019-10-04 09:53:00,58.0,58.0,65.0,29.39,10.0,NE,9.0,0.0,Fair,False,False,False,False,False,False,False,False,False,False,False,True,False,Day,Day,Day,Day
C-3115083,2,2021-09-23 01:24:30,2021-09-23 01:37:30,43.172815,-123.369318,43.186433,-123.372103,0.951319535959,Slow traffic on Pacific Highway 1 N - I-5 N from OR-99/Exit 120 (I-5) to Portland Ave/Exit 123 (I-5) due to roadwork.,,I-5 N,R,Roseburg,Douglas,OR,97471,US,US/Pacific,KRBG,2021-09-23 01:53:00,56.0,56.0,90.0,29.64,10.0,CALM,0.0,0.0,Fair,False,False,False,False,False,False,False,False,False,False,False,False,False,Night,Night,Night,Night
C-3115084,3,2019-08-30 21:00:00,2019-08-31 06:00:00,34.086369,-117.688492,,,1.14999997616,Exit ramp from I-10 Westbound at Exit 49 to Central Ave intermittent ramp closures due to construction.,,I-10 W,R,Montclair,San Bernardino,CA,91763,US,US/Pacific,KPOC,2019-08-30 20:47:00,77.0,77.0,50.0,28.87,10.0,WSW,3.0,,Fair,False,False,False,False,False,False,False,False,False,False,False,False,False,Night,Night,Night,Night
C-3115085,2,2021-10-21 06:00:00,2021-10-21 17:15:00,48.250633,-119.139271,48.282123,-119.143291,2.18359365809,Construction on WA-155 NB near MM 57 Allow extra time.,3866.0,State Highway 155,R,Nespelem,Okanogan,WA,99155,US,US/Pacific,,,,,,,,,,,,False,False,False,False,False,False,False,False,False,False,False,False,False,Night,Night,Night,Day
C-3115086,2,2021-02-22 08:01:00,2021-02-22 15:46:00,37.352781,-122.107291,37.333758,-122.064596,2.6884486076200003,Construction on I-280 SB near MAGDALENA AVE Expect delays.,,I-280 S,R,Los Altos,Santa Clara,CA,94024,US,US/Pacific,KNUQ,2021-02-22 07:55:00,52.0,52.0,58.0,30.3,10.0,W,5.0,0.0,Fair,False,False,False,False,False,False,False,False,False,False,False,False,False,Day,Day,Day,Day
C-3115087,2,2021-09-12 20:31:00,2021-09-13 01:59:02,33.251111,-92.655522,33.252788,-92.65369,0.156942198684,Roadwork from N Smith Ave to Highway 167B.,3839.0,Calion Rd,R,El Dorado,Union,AR,71730-8889,US,US/Central,KELD,2021-09-12 20:53:00,74.0,74.0,87.0,29.81,10.0,CALM,0.0,0.0,Fair,False,False,False,False,False,False,False,False,False,False,False,False,False,Night,Night,Night,Day
C-3115088,2,2021-07-28 16:34:20,2021-07-28 16:55:40,25.732507,-80.362788,25.732421,-80.367779,0.310704178313,Slow traffic on FL-976 from SW 97th Ave (SW 40th St/Bird Rd/FL-976) to FL-985/SW 107th Ave (SW 40th St/Bird Rd/FL-976) due to roadwork.,10347.0,SW 40th St,R,Miami,Miami-Dade,FL,33165-4512,US,US/Eastern,KMIA,2021-07-28 16:44:00,82.0,82.0,76.0,30.01,10.0,NNE,8.0,0.0,Mostly Cloudy,False,False,False,False,False,False,False,False,True,False,False,True,False,Day,Day,Day,Day
C-3115089,2,2021-10-10 11:20:00,2021-10-10 19:27:23,32.954258,-96.840807,32.954219,-96.837681,0.181255052724,Stationary traffic from Marsh Ln (8th St/Belt Line Rd) to Addison Rd (8th St/Belt Line Rd) due to roadwork.,4178.0,Belt Line Rd,R,Addison,Dallas,TX,75001-4354,US,US/Central,KADS,2021-10-10 11:47:00,81.0,81.0,65.0,29.08,10.0,S,16.0,0.0,Mostly Cloudy,False,False,False,False,False,False,False,False,False,False,False,False,False,Day,Day,Day,Day
C-3115090,2,2021-07-09 08:00:00,2021-07-09 18:00:00,37.219443,-75.985088,37.219634,-75.98139599999998,0.2035647427409999,On Rt. 644 East (Arlington Rd) in the County of Northampton from Arlington Rd; Rt. 645N/S (Northampton County) to Arlington Chase Rd; Arlington Ln; Cul-de-Sac motorists can expect potential delays in this area from 07/09/21 at 8:00 AM until 07/09/21 at 6:00 PM due to paving operations. Alternating lane closures exist.,3442.0,Arlington Rd,R,Cape Charles,Northampton,VA,23310-2058,US,US/Eastern,KLFI,2021-07-09 07:56:00,75.0,75.0,100.0,29.93,10.0,WSW,9.0,0.0,Fair,False,False,False,False,False,False,False,False,False,False,False,False,False,Day,Day,Day,Day
C-3115091,2,2020-10-11 00:41:30,2020-10-11 04:41:08,30.009316,-93.102511,30.009106,-93.128581,1.55986430991,Roadwork on LA-384 from LA-27 (University Dr/Ryan St/LA-384) to LA-385 (University Dr/Ryan St/LA-384).,2508.0,Highway 384,R,Bell City,Cameron,LA,70630-5126,US,US/Central,KCWF,2020-10-11 00:35:00,74.0,74.0,90.0,29.82,10.0,WSW,10.0,0.0,Fair,False,False,False,False,False,False,False,False,False,False,False,False,False,Night,Night,Night,Night
C-3115092,2,2021-03-05 11:31:30,2021-11-27 16:02:30,38.945805,-78.200786,38.946769,-78.199477,0.0968721721748,Slow traffic on US-522 N - US-340 N - VA-55 from W Strasburg Rd to Winchester Rd / E Duck St due to roadwork.,,Quadrant Rd,R,Front Royal,Warren,VA,22630,US,US/Eastern,KOKV,2021-03-05 11:35:00,32.0,21.0,41.0,29.31,10.0,WNW,16.0,0.0,Fair,False,False,False,False,False,False,False,False,False,False,False,True,False,Day,Day,Day,Day
C-3115093,2,2021-10-05 17:32:00,2021-10-05 17:53:00,42.034535,-93.607867,42.034538,-93.610658,0.143230195255,Stationary traffic from I-35 (E 13th St) to Duff Ave (13th St) due to roadwork.,1298.0,Stafford Ave,R,Ames,Story,IA,50010-5732,US,US/Central,KAMW,2021-10-05 17:53:00,69.0,69.0,61.0,29.18,10.0,E,8.0,0.0,Cloudy,False,False,True,False,False,False,False,False,False,False,False,True,False,Day,Day,Day,Day
C-3115094,2,2021-09-29 14:40:30,2021-09-29 15:01:00,38.73647800000001,-121.364582,38.728825,-121.364626,0.528777257828,Stationary traffic from Baseline Rd (Walerga Rd) to Pfe Rd (Walerga Rd) due to roadwork.,9245.0,Walerga Rd,R,Roseville,Placer,CA,95747-9724,US,US/Pacific,KMCC,2021-09-29 14:35:00,81.0,81.0,17.0,29.81,10.0,WNW,9.0,0.0,Fair,False,False,True,False,False,False,False,False,False,False,False,True,False,Day,Day,Day,Day
C-3115095,2,2021-09-11 02:50:30,2021-09-24 18:06:06,32.841682,-97.336816,32.839218,-97.315434,1.25287121339,Slow traffic on Loop 820 E - I-820 E from Mark IV Pkwy exit [16A] to exit [16B] due to roadwork.,,I-820 E,R,Fort Worth,Tarrant,TX,76106,US,US/Central,KFTW,2021-09-11 02:53:00,72.0,72.0,55.0,29.31,10.0,SSE,5.0,0.0,Fair,False,False,False,False,False,False,False,False,False,False,False,False,False,Night,Night,Night,Night
C-3115096,2,2020-05-13 00:00:00,2021-12-14 18:49:16,27.894577,-82.7886,27.895501,-82.78704300000003,0.114524070366,Slow traffic on FL-688 - US-19 Alt N - FL-595 from 113th St / Ridge Rd S to Silvercrest Dr due to roadwork.,10780.0,Ulmerton Rd,L,Largo,Pinellas,FL,33778,US,US/Eastern,KPIE,2021-12-14 16:53:00,76.0,76.0,76.0,30.22,10.0,N,5.0,0.0,Fair,False,False,False,False,False,False,False,False,True,False,False,False,False,Night,Night,Night,Night
C-3115097,2,2021-12-13 21:42:30,2021-12-13 21:57:00,35.097432,-81.672032,35.087985,-81.696465,1.52774826226,Slow traffic on I-85 S from SC-150/SC-18/Road 82/Exit 95 (I-85) to Hyatt St/Exit 90 (I-85) due to roadwork.,,I-85 S,R,Gaffney,Cherokee,SC,29341,US,US/Eastern,KEHO,2021-12-13 21:35:00,38.0,38.0,76.0,29.49,10.0,CALM,0.0,0.0,Fair,False,False,False,False,True,False,False,False,False,False,False,False,False,Night,Night,Night,Night
C-3115098,2,2021-11-15 12:29:00,2021-11-15 12:49:30,25.899614,-80.182822,25.899768,-80.1788,0.250208473619,Stationary traffic on FL-916 from FL-915/NE 6th Ave (NE 135th St/FL-916) to FL-909/NE 10th Ave/W Dixie Hwy (NE 135th St/FL-916) due to roadwork.,13499.0,NE 8th Ave,R,Miami,Miami-Dade,FL,33161,US,US/Eastern,KOPF,2021-11-15 12:53:00,76.0,76.0,48.0,30.11,10.0,ENE,8.0,0.0,Fair,True,False,False,False,False,False,False,False,True,False,False,True,False,Day,Day,Day,Day
C-3115099,3,2021-09-23 21:00:00,2021-09-24 05:30:00,25.781586,-80.200356,,,2.61999988556,Four lanes closed due to construction work on I-95 Southbound from NW 29th St to NW 8th St.,,NW 8th St,R,Miami,Miami-Dade,FL,33136,US,US/Eastern,KMIA,2021-09-23 21:04:00,76.0,76.0,94.0,29.92,10.0,CALM,0.0,0.02,Light Rain,False,False,False,False,False,False,False,False,False,False,False,False,False,Night,Night,Night,Night
C-3115100,2,2021-03-18 05:47:30,2021-03-18 14:02:49,28.077864,-80.602498,28.079794,-80.603877,0.157636625841,Stationary traffic on US-192 E - US-1 N - US-192 W - US-1 S - FL-5 from E Melbourne Ave to Depot Dr due to roadwork.,2067.0,S Harbor City Blvd,L,Melbourne,Brevard,FL,32901-5448,US,US/Eastern,KMLB,2021-03-18 05:53:00,66.0,66.0,93.0,29.98,10.0,S,5.0,0.0,Fair,True,False,False,False,False,False,False,False,False,False,False,False,False,Night,Night,Night,Night
C-3115101,2,2020-08-25 12:46:30,2020-08-26 00:53:59,28.523187,-81.330955,28.525497,-81.330978,0.159611906309,Stationary traffic on FL-15 from E Michigan St (S Conway Rd/FL-15) to FL-408/Lake Underhill Rd (S Conway Rd/FL-15) due to roadwork.,1649.0,S Conway Rd,L,Orlando,Orange,FL,32812-2746,US,US/Eastern,KORL,2020-08-25 12:53:00,94.0,94.0,52.0,29.9,10.0,SE,14.0,0.0,Fair,False,False,True,False,False,False,False,False,False,False,False,False,False,Day,Day,Day,Day
C-3115102,2,2020-08-24 13:00:00,2020-10-08 01:45:00,44.026697,-89.80925,44.025233,-89.81028,0.113359077443,Construction on WI-13 SB near PIXLER CT Drive with caution.,,11th Dr,R,Friendship,Adams,WI,53934,US,US/Central,KVOK,2020-08-24 12:56:00,82.0,82.0,74.0,29.0,10.0,WSW,6.0,0.0,Mostly Cloudy,False,False,False,False,False,False,False,False,False,False,False,False,False,Day,Day,Day,Day
C-3115103,2,2020-10-26 14:21:00,2020-10-26 23:46:00,35.821208,-90.67636,35.821529,-90.677778,0.0824800911266,Queuing traffic on AR-18 from Stone St to S Caraway Rd due to construction work.,2404.0,E Highland Dr,R,Jonesboro,Craighead,AR,72401-6213,US,US/Central,KJBR,2020-10-26 13:53:00,54.0,54.0,69.0,29.86,10.0,NNE,13.0,0.0,Cloudy,False,False,False,False,False,False,False,False,False,False,False,False,False,Day,Day,Day,Day
C-3115104,2,2021-03-27 12:11:30,2021-03-27 12:37:00,40.491295,-86.860123,40.479335,-86.855328,0.863921432,Slow traffic on I-65 S from IN-43/Exit 178 (I-65) to IN-25/Exit 175 (I-65) due to roadwork.,,I-65 S,R,West Lafayette,Tippecanoe,IN,47906,US,US/Eastern,KLAF,2021-03-27 11:54:00,64.0,64.0,60.0,29.32,10.0,SE,10.0,0.0,Fair,False,False,False,False,False,False,False,False,False,False,False,False,False,Day,Day,Day,Day
C-3115105,2,2021-12-01 16:33:30,2021-12-01 16:54:00,38.949938,-77.262187,38.956043,-77.27157199999998,0.6574305410769999,Slow traffic on VA-7 from Lewinsville Rd (VA-7) to Beulah Rd (VA-7) due to roadwork.,9196.0,Leesburg Pike,R,Vienna,Fairfax County,VA,22182-1655,US,US/Eastern,KIAD,2021-12-01 16:52:00,53.0,53.0,45.0,29.75,10.0,SSE,6.0,0.0,Mostly Cloudy,False,False,False,False,False,False,False,False,False,False,False,False,False,Day,Day,Day,Day
C-3115106,2,2021-05-13 01:45:30,2021-11-18 16:33:30,41.014527,-76.485067,41.027397,-76.438187,2.60055785403,Stationary traffic on I-80 E from PA-42/Exit 232 (I-80) to PA-487/Exit 236 (I-80) due to roadwork.,,I-80 E,R,Bloomsburg,Columbia,PA,17815,US,US/Eastern,KSEG,2021-05-13 01:53:00,37.0,37.0,93.0,29.79,10.0,CALM,0.0,0.0,Fair,False,False,False,False,False,False,False,False,False,False,False,False,False,Night,Night,Night,Night
C-3115107,2,2021-03-24 06:06:30,2021-06-22 15:40:34,43.942121,-70.33390899999999,43.932525,-70.33565899999999,0.6687131351,Slow traffic on Maine Tpke S - I-95 S from US-202/ME-4/ME-100/Exit 75 (I-95) to US-202/W Gray Rd/Exit 63 (I-95) due to roadwork.,700.0,Mayall Rd,L,New Gloucester,Cumberland,ME,04260-2610,US,US/Eastern,KLEW,2021-03-24 05:56:00,33.0,33.0,100.0,29.93,0.25,CALM,0.0,0.0,Fog,False,False,False,False,False,False,False,False,False,False,False,False,False,Night,Night,Day,Day
C-3115108,2,2021-04-23 05:00:30,2021-08-20 15:02:35,28.324073,-82.514986,28.322252,-82.50267099999998,0.7595161402989999,Slow traffic on FL-45 - FL-52 - US-41 S - US-41 N from Davis Ln to Michigan Ln due to roadwork.,18149.0,State Road 52,R,Land O Lakes,Pasco,FL,34638-6902,US,US/Eastern,KBKV,2021-04-23 04:53:00,57.0,57.0,87.0,30.02,10.0,ENE,7.0,0.0,Fair,False,False,False,False,False,False,False,False,False,False,False,False,False,Night,Night,Night,Night
C-3115109,2,2018-05-02 15:59:58,2018-05-02 21:59:58,39.63768,-77.70966,39.63811,-77.71039,0.0489019138179,At MD-64/S Cleveland Ave - Construction work.,,Dual Hwy,R,Hagerstown,Washington,MD,21740,US,US/Eastern,KHGR,2018-05-02 15:53:00,89.1,,20.0,30.08,10.0,West,11.5,,Clear,True,False,False,False,False,False,False,False,False,False,False,False,False,Day,Day,Day,Day
C-3115110,2,2020-08-31 00:27:00,2020-08-31 05:30:00,40.604759,-74.05029,40.618604,-74.024199,1.66970192841,Slow traffic from I-278/Gowanus Expy (South) (Gowanus Expy E HOV Ln) to 86th St (Gowanus Expy E HOV Ln) due to roadwork.,,Brooklyn Queens Expy,R,Staten Island,Richmond,NY,10305,US,US/Eastern,KEWR,2020-08-31 00:51:00,64.0,64.0,67.0,29.96,10.0,NNE,8.0,0.0,Partly Cloudy,False,False,False,False,False,False,False,False,False,False,False,False,False,Night,Night,Night,Night
C-3115111,2,2017-12-11 22:01:08,2017-12-12 04:01:08,40.739619,-74.004348,40.739615,-74.004339,0.000546234930299,At Hudson St - Construction work.,331.0,W 13th St,R,New York,New York,NY,10014-1252,US,US/Eastern,KJRB,2017-12-11 21:56:00,39.9,36.7,53.0,,10.0,SW,4.6,0.01,Mostly Cloudy,False,False,False,False,False,False,False,False,False,False,False,False,False,Night,Night,Night,Night
C-3115112,2,2021-02-11 08:44:30,2021-02-12 14:47:30,31.591228000000005,-97.10928,31.610698,-97.10327,1.39096444834,Slow traffic on I-35 N - US-77 N from US-84/Waco Dr/Exit 338A (I-35) to Meyers Ln/Exit 340 (I-35) due to roadwork.,,I-35 N,R,Waco,McLennan,TX,76705,US,US/Central,KCNW,2021-02-11 08:55:00,27.0,14.0,100.0,29.7,4.0,N,16.0,,Cloudy,False,False,False,False,False,False,False,False,False,False,False,False,False,Day,Day,Day,Day
C-3115113,2,2021-09-16 11:23:00,2021-09-16 14:22:06,34.049207,-117.811779,34.047965000000005,-117.8111,0.0942074621538999,Slow traffic from Kellogg Dr to Pomona Blvd due to roadwork.,3408.0,Valley Blvd,R,Pomona,Los Angeles,CA,91768,US,US/Pacific,KPOC,2021-09-16 11:47:00,73.0,73.0,53.0,28.83,6.0,W,7.0,,Fair,False,False,False,False,False,False,False,False,False,False,False,False,False,Day,Day,Day,Day
C-3115114,2,2021-09-16 13:50:30,2021-09-16 15:44:00,35.322895,-106.560056,35.330024,-106.570767,0.7792227684370001,Stationary traffic on NM-44 - US-550 N from NM-313/Camino Del Pueblo (NM-44/US-550) to NM-528 (NM-44/US-550) due to roadwork.,730.0,W Highway 550,R,Bernalillo,Sandoval,NM,87004-5911,US,US/Mountain,KAEG,2021-09-16 13:50:00,84.0,84.0,13.0,24.25,10.0,W,6.0,0.0,Fair,False,False,False,False,False,False,False,False,False,False,False,False,False,Day,Day,Day,Day
C-3115115,2,2021-09-11 09:56:30,2021-09-12 01:59:24,33.230634,-96.842284,33.229877,-96.851136,0.5142673434749999,Roadwork from W 1st St / County Road 6 to Chaucer Dr.,,Fishtrap Rd,R,Prosper,Denton,TX,75078,US,US/Central,KTKI,2021-09-11 09:53:00,75.0,75.0,57.0,29.51,10.0,SSE,8.0,0.0,Fair,False,False,False,False,False,False,False,False,False,False,False,False,False,Day,Day,Day,Day
C-3115116,2,2020-01-05 22:00:00,2020-01-06 04:00:00,33.880138,-117.565407,,,4.53000020981,Intermittent lane closures due to construction on CA-91 Westbound from Mckinley St to Main St.,,CA-91 W,R,Corona,Riverside,CA,92879,US,US/Pacific,KAJO,2020-01-05 21:56:00,61.0,61.0,35.0,29.69,10.0,E,8.0,0.0,Fair,False,False,False,False,False,False,False,False,False,False,False,False,False,Night,Night,Night,Night
C-3115117,2,2021-11-17 16:59:00,2021-11-17 19:00:40,33.479529,-112.15168,33.480476,-112.152253,0.0732919060672,Slow traffic from W Virginia Ave to N 44th Ln due to roadwork.,2823.0,N 43rd Ave,R,Phoenix,Maricopa,AZ,85009-1016,US,US/Mountain,KPHX,2021-11-17 16:51:00,78.0,78.0,15.0,28.76,10.0,ESE,3.0,0.0,Mostly Cloudy,False,False,True,False,False,True,False,False,True,False,False,False,False,Day,Day,Day,Day
C-3115118,2,2020-09-26 15:18:30,2020-09-27 03:00:21,33.523927,-112.150525,33.523340999999995,-112.151495,0.0690003618755,Stationary traffic from N 42nd Ave to W Rancho Dr due to roadwork.,4237.0,W Bethany Home Rd,L,Phoenix,Maricopa,AZ,85019-1807,US,US/Mountain,KGEU,2020-09-26 16:58:00,101.0,101.0,9.0,28.64,10.0,S,7.0,0.0,Fair,False,False,False,False,False,False,False,False,True,False,False,False,False,Day,Day,Day,Day
