ID,Severity,Start_Time,End_Time,Start_Lat,Start_Lng,End_Lat,End_Lng,Distance(mi),Description,Number,Street,Side,City,County,State,Zipcode,Country,Timezone,Airport_Code,Weather_Timestamp,Temperature(F),Wind_Chill(F),Humidity(%),Pressure(in),Visibility(mi),Wind_Direction,Wind_Speed(mph),Precipitation(in),Weather_Condition,Amenity,Bump,Crossing,Give_Way,Junction,No_Exit,Railway,Roundabout,Station,Stop,Traffic_Calming,Traffic_Signal,Turning_Loop,Sunrise_Sunset,Civil_Twilight,Nautical_Twilight,Astronomical_Twilight
C-1543605,2,2021-11-30 13:14:00.000000000,2021-11-30 13:34:30.000000000,39.740837,-105.311112,39.744189,-105.308916,0.2593272128559999,Stationary traffic on US-6 W - US-6 E from CO-119 (W 6th Ave/US-6) to CO-58 (W 6th Ave/US-6) due to roadwork.,27670.0,US Highway 6,L,Golden,Jefferson,CO,80401,US,US/Mountain,KBJC,2021-11-30 12:45:00,55.0,55.0,31.0,24.47,10.0,S,10.0,0.0,Fair,False,False,False,False,False,False,False,False,False,False,False,False,False,Day,Day,Day,Day
C-1543606,2,2020-03-29 00:01:00.000000000,2020-04-29 23:59:00.000000000,38.999622,-76.99543800000002,,,0.0,Lane closed due to construction on MD-193 University Blvd both ways at MD-320 Piney Branch Rd.,699.0,University Blvd E,R,Silver Spring,Montgomery,MD,20901-3769,US,US/Eastern,KCGS,2020-03-29 00:05:00,49.0,49.0,93.0,29.9,7.0,CALM,0.0,0.0,Cloudy,False,False,True,False,False,False,False,False,False,False,False,True,False,Night,Night,Night,Night
C-1543607,1,2020-11-25 00:01:00.000000000,2021-04-01 23:59:00.000000000,40.006168,-75.170792,,,0.52999997139,Electricity work and construction on Westmoreland St both ways from Westmoreland St to Fox St.,2592.0,W Westmoreland St,L,Philadelphia,Philadelphia,PA,19129,US,US/Eastern,KLOM,2020-11-25 00:15:00,43.0,43.0,61.0,30.06,10.0,SSE,3.0,0.0,Cloudy,False,False,False,False,False,False,False,False,False,False,False,False,False,Night,Night,Night,Night
C-1543608,2,2017-02-20 21:00:44.000000000,2017-02-21 03:00:44.000000000,33.0373,-97.00044,33.056470000000004,-97.01134,1.46726711485,Between TX-121-BR/Texas St and W Valley Ridge Blvd - Roadwork.,828.0,S Stemmons Fwy,L,Lewisville,Denton,TX,75067-5352,US,US/Central,KDFW,2017-02-20 20:53:00,57.9,,87.0,29.91,10.0,ESE,3.5,,Clear,False,False,False,False,False,False,False,False,False,False,False,False,False,Night,Night,Night,Night
C-1543609,3,2020-03-30 17:14:35.000000000,2020-03-30 17:48:26.000000000,38.7218,-104.72999,38.76095,-104.77101,3.49341198867,Between US-85/US-87/Exit 128 and CO-83/Academy Blvd/Exit 135 - Construction work.,,I-25 N,R,Fountain,El Paso,CO,80817,US,US/Mountain,KFCS,2020-03-30 17:58:00,52.0,52.0,26.0,24.19,10.0,NNW,14.0,0.0,Partly Cloudy,False,False,False,False,True,False,False,False,False,False,False,False,False,Day,Day,Day,Day
C-1543610,2,2020-09-04 12:15:30.000000000,2020-09-05 01:05:10.000000000,33.524016,-112.119923,33.5233,-112.116903,0.180850635892,Queuing traffic from N 28th Dr to W Palo Verde Dr due to roadwork.,5999.0,N 28th Dr,R,Phoenix,Maricopa,AZ,85017,US,US/Mountain,KPHX,2020-09-04 11:51:00,101.0,101.0,22.0,28.71,10.0,ESE,5.0,0.0,Fair,True,False,False,False,False,False,False,False,True,True,False,False,False,Day,Day,Day,Day
C-1543611,3,2020-03-24 12:33:45.000000000,2020-03-28 12:33:00.000000000,35.53697000000001,-97.46121,35.51922000000001,-97.45963,1.22962201991,Between I-44/Exit 133 and 50th St/Exit 132 - Roadwork. Lane blocked.,,I-35 S,R,Oklahoma City,Oklahoma,OK,73111,US,US/Central,KTIK,2020-03-24 12:56:00,66.0,66.0,64.0,28.51,10.0,NNW,14.0,0.0,Fair,False,False,False,False,False,False,False,False,False,False,False,False,False,Day,Day,Day,Day
C-1543612,2,2016-08-23 20:41:44.000000000,2016-08-24 02:41:44.000000000,40.3088,-79.67591999999998,40.68096,-80.10525,34.2062942249,Between US-30/Exit 7 and US-19/Exit 3 - Roadwork.,,Pennsylvania Tpke W,R,Irwin,Westmoreland,PA,15642,US,US/Eastern,KAGC,2016-08-23 20:53:00,77.0,,47.0,30.25,10.0,Calm,,,Clear,False,False,False,False,True,False,False,False,False,False,False,False,False,Night,Night,Day,Day
C-1543613,3,2021-04-06 19:00:00.000000000,2021-04-07 07:00:00.000000000,32.095015999999994,-97.108116,,,9.85999965668,Intermittent lane closures due to construction work on I-35W both ways from I-35 Split to FM-2959.,,I-35W N,R,Hillsboro,Hill,TX,76645,US,US/Central,KINJ,2021-04-06 18:55:00,80.0,80.0,55.0,28.99,10.0,SSE,16.0,0.0,Mostly Cloudy,False,False,False,False,False,False,False,False,False,False,False,False,False,Day,Day,Day,Day
C-1543614,2,2021-11-02 14:35:30.000000000,2021-11-02 17:00:49.000000000,32.954245,-96.840094,32.954996,-96.838735,0.0943416039058,Stationary traffic from Oak St to Arapaho Rd due to roadwork.,4182.0,Belt Line Rd,R,Addison,Dallas,TX,75001-4354,US,US/Central,KADS,2021-11-02 14:47:00,54.0,54.0,88.0,29.54,7.0,ENE,9.0,0.0,Cloudy,False,False,False,False,False,False,False,False,False,False,False,False,False,Day,Day,Day,Day
C-1543615,2,2021-08-20 09:00:00.000000000,2021-08-20 15:30:00.000000000,25.780821,-80.222473,,,0.0,One lane closed due to construction work on 17th Ave Southbound from South River Dr to 8th St.,1698.0,NW 8th St,L,Miami,Miami-Dade,FL,33125-3609,US,US/Eastern,KMIA,2021-08-20 08:53:00,84.0,84.0,76.0,29.98,10.0,CALM,0.0,0.0,Partly Cloudy,False,False,False,False,False,False,False,False,False,False,False,False,False,Day,Day,Day,Day
C-1543616,2,2020-05-15 02:16:29.000000000,2020-06-13 13:59:24.000000000,41.19556,-75.79313,41.48488,-75.68191999999998,20.805918731,Between Keyser Avenue Toll Plaza and Clarks Summit Toll Plaza - Roadwork. Right lane closed.,,NE Extension Penn Tpke N,R,Wilkes Barre,Luzerne,PA,18702,US,US/Eastern,KAVP,2020-05-15 01:54:00,60.0,60.0,80.0,28.96,10.0,WSW,3.0,0.01,Light Rain,False,False,False,False,False,False,False,False,False,False,False,False,False,Night,Night,Night,Night
C-1543617,2,2020-12-24 17:00:00.000000000,2020-12-25 01:45:00.000000000,39.720276,-75.555718,39.717744,-75.55704300000002,0.188585026609,Construction on US-13 SB near ROGERS RD Drive with caution.,1075.0,S Market St,L,Wilmington,New Castle,DE,19801-5227,US,US/Eastern,KILG,2020-12-24 16:51:00,57.0,57.0,83.0,29.73,10.0,SSE,18.0,0.0,Mostly Cloudy,False,False,False,False,False,False,False,False,False,False,False,True,False,Night,Day,Day,Day
C-1543618,2,2021-12-10 11:14:30.000000000,2021-12-10 13:17:43.000000000,27.103416,-82.444137,27.099945,-82.44544599999998,0.252977209398,Slow traffic on US-41 Bus N - US-41 Bus S from S Port Dr / Morning Star Ln to Nokomis Ave S / Nokomis Ave N due to roadwork.,,Tamiami Trl N,R,Venice,Sarasota,FL,34285,US,US/Eastern,KVNC,2021-12-10 11:03:00,77.0,77.0,82.0,30.1,10.0,ESE,8.0,0.0,Partly Cloudy,False,False,True,False,False,False,False,False,False,False,False,False,False,Day,Day,Day,Day
C-1543619,4,2019-04-23 18:00:37.000000000,2019-07-18 02:47:01.000000000,39.92655900000001,-86.18409399999999,39.91925,-86.18401,0.505023418389,Closed at W 86th St - Closed due to roadwork.,,Ditch Rd,R,Indianapolis,Marion,IN,46260,US,US/Eastern,KEYE,2019-04-23 17:53:00,55.0,55.0,80.0,29.15,10.0,NNW,8.0,0.0,Cloudy,False,False,False,True,False,False,False,False,False,False,False,False,False,Day,Day,Day,Day
C-1543620,2,2019-10-24 08:03:16.000000000,2019-10-28 08:02:39.000000000,37.662216,-122.395932,37.662216,-122.395932,0.0,At Oyster Point Blvd - Construction work. Lane blocked.,128.0,Oyster Point Blvd,R,South San Francisco,San Mateo,CA,94080-1909,US,US/Pacific,KSFO,2019-10-24 07:56:00,66.0,66.0,34.0,29.99,10.0,SE,7.0,0.0,Partly Cloudy,False,False,False,False,False,False,False,False,False,False,False,True,False,Day,Day,Day,Day
C-1543621,2,2017-08-04 11:52:02.000000000,2017-08-04 14:00:00.000000000,40.850971,-73.618736,,,0.2800000011919999,Right lane closed due to construction work on NY-107 Glen Cove Rd both ways from Seacliff Avenue to Cedar Swamp Rd.,,Glen Cove Rd,R,Glen Head,Nassau,NY,11545,US,US/Eastern,KFRG,2017-08-04 11:53:00,80.1,,67.0,30.06,10.0,South,13.8,,Clear,False,False,False,False,False,False,False,False,False,False,False,False,False,Day,Day,Day,Day
C-1543622,2,2021-12-29 13:49:11.000000000,2021-12-29 15:53:14.000000000,26.948075,-80.084958,26.953282,-80.085086,0.3598557989,Slow traffic on US-1 N - FL-A1A - FL-5 from FL-A1A/Ocean Blvd (FL-A1A/US-1) to County Line Rd (US-1) due to roadwork.,,N US Highway 1,R,Jupiter,Palm Beach,FL,33469,US,US/Eastern,KSUA,2021-12-29 13:47:00,82.0,82.0,51.0,30.03,7.0,S,13.0,0.0,Mostly Cloudy,False,False,False,False,False,False,False,False,False,False,False,False,False,Day,Day,Day,Day
C-1543623,3,2019-08-27 21:00:00.000000000,2019-08-28 05:00:00.000000000,36.888184,-76.42903100000002,,,11.0500001907,Right lane closed due to construction work on I-664 Hampton Roads Bltwy Southbound from Exits 5 6 US-60 Martin Luther King Jr Way to Exits 8A 8B VA-135 College Dr.,,I-664 S,R,Suffolk,Suffolk,VA,23435,US,US/Eastern,KPVG,2019-08-27 20:51:00,73.0,73.0,96.0,29.92,5.0,N,7.0,0.01,Cloudy,False,False,False,False,False,False,False,False,False,False,False,False,False,Night,Night,Night,Day
C-1543624,2,2021-07-28 12:57:30.000000000,2021-07-28 15:15:45.000000000,41.854165,-87.666108,41.852335,-87.6671,0.136358787883,Slow traffic from W 21st St to S Paulina St due to roadwork.,2098.0,S Ashland Ave,R,Chicago,Cook,IL,60608-2906,US,US/Central,KMDW,2021-07-28 12:53:00,87.0,87.0,57.0,29.34,10.0,SW,10.0,0.0,Mostly Cloudy,False,False,False,False,False,False,False,False,False,False,False,True,False,Day,Day,Day,Day
C-1543625,2,2021-08-12 17:07:04.000000000,2021-08-12 19:15:46.000000000,40.705871,-74.013258,40.703963,-74.014342,0.14353729281,Stationary traffic from Morris St to Pearl St due to roadwork.,28.0,Broadway,R,New York,New York,NY,10004-1702,US,US/Eastern,KJRB,2021-08-12 16:51:00,92.0,92.0,48.0,29.87,10.0,W,8.0,0.0,Fair,True,False,True,False,False,False,True,False,True,False,False,True,False,Day,Day,Day,Day
C-1543626,4,2019-11-12 01:53:03.000000000,2019-11-12 06:52:23.000000000,29.69565,-95.30007,29.69884,-95.28348,1.01980761702,Closed between Telephone Rd/Exit 33 and I-45/Exit 32 - Closed due to roadwork.,,I-610 E,R,Houston,Harris,TX,77087,US,US/Central,KHOU,2019-11-12 01:53:00,39.0,29.0,76.0,30.26,10.0,N,22.0,0.0,Cloudy / Windy,False,False,False,False,False,False,False,False,False,False,False,False,False,Night,Night,Night,Night
C-1543627,2,2021-03-31 05:59:30.000000000,2021-03-31 21:29:28.000000000,39.769283,-105.023629,39.769759,-105.0252,0.0896792136683,Stationary traffic on US-287 N from W 34th-35th Aly to W Denver Pl due to roadwork.,3768.0,N Eliot St,R,Denver,Denver,CO,80211-2845,US,US/Mountain,KBJC,2021-03-31 06:47:00,30.0,30.0,37.0,24.62,10.0,CALM,0.0,0.0,Fair,False,False,True,False,False,True,False,False,False,True,False,False,False,Night,Night,Day,Day
C-1543628,3,2020-04-22 10:35:57.000000000,2020-04-30 03:04:15.000000000,40.0108,-75.34505,40.01183,-75.34329,0.117215593258,At US-30/W Lancaster Ave - Roadwork. Roadway reduced to 1 lane.,489.0,S Bryn Mawr Ave,L,Bryn Mawr,Delaware,PA,19010-2261,US,US/Eastern,KLOM,2020-04-24 10:35:00,45.0,42.0,97.0,29.35,2.0,NNE,6.0,0.02,Light Rain,False,False,False,False,False,False,False,False,False,False,False,False,False,Day,Day,Day,Day
C-1543629,4,2021-03-15 15:37:00.000000000,2021-09-30 20:00:00.000000000,39.72327,-83.25842,39.725996,-83.246739,0.648691112004,Construction on US-62 EB near DEER CRK Road closed. Take alternate route.,15877.0,US Highway 62 NE,R,Mount Sterling,Madison,OH,43143-9721,US,US/Eastern,KTZR,2021-03-15 15:47:00,37.0,30.0,33.0,29.19,10.0,E,12.0,0.0,Cloudy,False,False,False,False,False,False,False,False,False,False,False,False,False,Day,Day,Day,Day
C-1543630,4,2021-03-03 21:52:17.000000000,2021-03-10 23:59:00.000000000,40.881255,-74.081506,40.881797,-74.081005,0.0456876600348,Closed road from US Highway 46 W to Sidney St due to roadwork.,71.0,US Highway 46 W,L,Lodi,Bergen,NJ,07644-3625,US,US/Eastern,KTEB,2021-03-03 21:51:00,45.0,45.0,48.0,29.83,10.0,CALM,0.0,0.0,Cloudy,False,False,False,False,False,False,False,False,False,False,False,False,False,Night,Night,Night,Night
C-1543631,2,2021-06-03 11:44:30.000000000,2021-12-16 18:27:55.000000000,42.068396,-87.980428,42.066568,-87.980711,0.1271341537799999,Stationary traffic from E Orchard St to W Kirchhoff Rd due to roadwork.,898.0,S Arlington Heights Rd,R,Arlington Heights,Cook,IL,60005,US,US/Central,KPWK,2021-10-19 14:52:00,71.0,71.0,42.0,29.36,10.0,S,13.0,0.0,Fair,False,False,False,False,False,False,False,False,False,False,False,False,False,Day,Day,Day,Day
C-1543633,2,2021-04-05 05:36:00.000000000,2021-11-01 23:50:38.000000000,28.286946,-82.487376,28.296448,-82.49286500000002,0.736579146425,Stationary traffic on FL-45 - US-41 S - US-41 N from CR-583/Ehren Cutoff (US-41) to FL-52 (US-41) due to roadwork.,,Land O'Lakes Blvd,R,Land O Lakes,Pasco,FL,34637,US,US/Eastern,KBKV,2021-04-05 05:53:00,50.0,50.0,86.0,30.11,10.0,CALM,0.0,0.0,Fair,False,False,False,False,False,False,False,False,False,False,False,False,False,Night,Night,Night,Night
C-1543634,4,2021-02-01 17:00:00.000000000,2021-02-15 00:45:00.000000000,33.104846,-96.787815,33.104348,-96.788031,0.036609243349,Construction on TX-121 WB near HILLCREST BLVD Expect delays.,,State Highway 121,R,Frisco,Collin,TX,75035,US,US/Central,KTKI,2021-02-01 16:53:00,56.0,56.0,33.0,29.7,10.0,N,10.0,0.0,Fair,False,False,False,False,False,False,False,False,False,False,False,True,False,Day,Day,Day,Day
C-1543635,2,2021-06-17 14:58:22.000000000,2021-06-17 15:18:22.000000000,44.632455,-85.52121899999999,44.638871,-85.51772,0.475513373242,Stationary traffic on County Hwy-611 from Garfield Rd / Mayfield Rd to Arbutus Hill Rd due to roadwork.,2501.0,Mayfield Rd,R,Traverse City,Grand Traverse,MI,49696,US,US/Eastern,KTVC,2021-06-17 14:53:00,84.0,84.0,29.0,29.22,10.0,SW,13.0,0.0,Partly Cloudy,False,False,False,False,False,False,False,False,False,False,False,False,False,Day,Day,Day,Night
C-1543636,2,2021-04-21 18:57:41.000000000,2021-08-20 05:45:00.000000000,33.285473,-80.51024699999998,33.286943,-80.513097,0.193422842638,Construction on I-26 WB near EXIT 172B Construction. Left lane closed.,,I-26 W,R,Harleyville,Dorchester,SC,29448,US,US/Eastern,KDYB,2021-08-19 20:15:00,75.0,75.0,100.0,29.94,10.0,CALM,0.0,0.0,Partly Cloudy,False,False,False,False,True,False,False,False,False,False,False,False,False,Day,Day,Day,Day
C-1543637,4,2018-03-10 23:00:00.000000000,2018-03-11 08:00:00.000000000,45.44521,-122.73647,45.44062,-122.74269,0.437603258381,At OR-99/Barbur Blvd/Exit 294 - Construction work.,,Pacific Highway 1 S,R,Portland,Multnomah,OR,97219,US,US/Pacific,KPDX,2018-03-10 22:53:00,52.0,,49.0,30.06,10.0,ESE,9.2,,Overcast,False,False,False,False,True,False,False,False,False,False,False,False,False,Night,Night,Night,Night
C-1543638,2,2018-02-08 23:02:12.000000000,2018-02-09 05:02:12.000000000,42.34792,-71.07388,42.34792,-71.09022,0.834397723679,At Prudential Tunnel - Construction work. Roadway reduced to 1 lane.,,I-90 W,R,Boston,Suffolk,MA,02116,US,US/Eastern,KBOS,2018-02-08 22:54:00,25.0,13.6,60.0,30.4,10.0,West,12.7,,Scattered Clouds,True,False,True,False,False,False,False,False,False,False,False,False,False,Night,Night,Night,Night
C-1543639,2,2021-03-16 01:14:32.000000000,2021-03-16 05:00:00.000000000,46.126499,-122.941422,,,0.0,Intermittent lane closures due to construction during the night on WA-432 Tennant Way both ways at WA-433 Oregon Way.,,California Way,R,Longview,Cowlitz,WA,98632,US,US/Pacific,KKLS,2021-03-16 00:56:00,28.0,28.0,92.0,30.24,10.0,CALM,0.0,0.0,Fair,False,False,False,False,False,False,False,False,False,False,False,True,False,Night,Night,Night,Night
C-1543640,2,2018-03-30 21:01:09.000000000,2018-03-31 06:01:09.000000000,35.49545999999999,-80.56577,35.59625,-80.53538,7.17043247899,Between Lane St/Exit 63 and Webb Rd/Exit 70 - Construction work.,,US-601 N,R,Kannapolis,Cabarrus,NC,28083,US,US/Eastern,KJQF,2018-03-30 20:55:00,60.8,,39.0,30.13,10.0,North,12.7,,Clear,False,False,False,False,False,False,False,False,False,False,False,False,False,Night,Night,Night,Day
C-1543641,2,2021-03-20 06:46:45.000000000,2021-08-04 21:56:37.000000000,41.731621,-72.754007,41.727891,-72.75756700000002,0.316410861539,Road Work on I-84 Westbound between Exits 40 and 39A (0.5 miles) in effect today until 9:00 pm. The right lane is closed. Reported Saturday March 20 at 6:46 am.,,I-84 W,R,West Hartford,Hartford,CT,06107,US,US/Eastern,KHFD,2021-03-20 06:53:00,25.0,25.0,72.0,30.5,10.0,CALM,0.0,0.0,Fair,False,False,False,False,True,False,False,False,False,False,False,False,False,Night,Day,Day,Day
C-1543642,2,2021-12-30 15:27:30.000000000,2021-12-30 15:51:30.000000000,42.435314,-122.130551,42.430597,-122.079124,2.64272423703,Slow traffic on OR-140 from Dead Indian Rd (OR-140) to Eagle Ridge Rd (OR-140) due to roadwork.,,Lake of the Woods Hwy,R,Klamath Falls,Klamath,OR,97601,US,US/Pacific,KLMT,2021-12-30 15:26:00,31.0,20.0,79.0,25.56,4.0,WSW,15.0,0.0,Light Snow,False,False,False,False,False,False,False,False,False,False,False,False,False,Day,Day,Day,Day
C-1543643,2,2021-12-15 11:31:00.000000000,2021-12-15 13:21:00.000000000,44.420482,-121.788659,44.423764,-121.83529,2.31223198627,Slow traffic on US-20 W - US-20 E - OR-126 from Jack Lake Rd (US-20) to OR-22/Santiam Hwy (US-20) due to roadwork.,,Highway 20,R,Camp Sherman,Jefferson,OR,97730,US,US/Pacific,KRDM,2021-12-15 11:56:00,34.0,27.0,67.0,26.57,10.0,ESE,8.0,0.0,Cloudy,False,False,False,False,False,False,False,False,False,False,False,False,False,Day,Day,Day,Day
C-1543644,4,2021-01-18 13:34:29.000000000,2021-01-26 07:59:00.000000000,38.989879,-77.024176,38.989876,-77.02394699999998,0.0122998145637999,Closed road from District 13 to Fenton St due to roadwork.,8098.0,Fenton St,L,Silver Spring,Montgomery,MD,20910-4907,US,US/Eastern,KCGS,2021-01-18 13:35:00,44.0,37.0,35.0,29.78,10.0,W,13.0,0.0,Cloudy,True,False,True,False,False,False,False,False,False,False,False,False,False,Day,Day,Day,Day
C-1543645,4,2020-12-23 14:27:58.000000000,2020-12-31 07:59:00.000000000,40.681249,-74.22965699999997,40.682721,-74.23059599999998,0.112980794591,Closed road from Kean Dr to Union due to roadwork.,574.0,Kean Dr,R,Union,Union,NJ,07083,US,US/Eastern,KEWR,2020-12-23 14:51:00,44.0,40.0,43.0,30.33,10.0,S,8.0,0.0,Cloudy,False,False,True,False,False,False,False,False,False,False,False,False,False,Day,Day,Day,Day
C-1543646,4,2021-10-06 21:01:00.000000000,2021-10-07 05:01:00.000000000,37.828028,-122.29443700000002,37.829045,-122.293796,0.078493963485,Full closure due to Median Barrier Work between Route 80 and H.O.V.,,I-80 E,R,Oakland,Alameda,CA,94607,US,US/Pacific,KOAK,2021-10-06 20:53:00,59.0,59.0,69.0,30.0,10.0,WSW,10.0,0.0,Mostly Cloudy,False,False,False,False,False,False,False,False,False,False,False,False,False,Night,Night,Night,Night
C-1543647,2,2021-03-25 06:33:00.000000000,2021-12-31 16:45:24.000000000,38.697363,-122.890538,38.6969,-122.891079,0.0432950079758,Lane closure due to Drainage Work between Independence Ln and Geyserville Ave,20401.0,Geyserville Ave,R,Geyserville,Sonoma,CA,95441-9535,US,US/Pacific,KSTS,2021-12-16 05:53:00,47.0,47.0,97.0,29.88,10.0,CALM,0.0,0.02,Cloudy,False,False,False,False,False,False,False,False,False,False,False,False,False,Night,Night,Day,Day
C-1543648,2,2021-09-14 09:05:30.000000000,2021-09-14 09:29:30.000000000,33.476101,-112.117098,33.480426,-112.117043,0.298845849443,Stationary traffic from W McDowell Rd (N 27th Ave) to W Thomas Rd (N 27th Ave) due to roadwork.,2379.0,N 27th Ave,R,Phoenix,Maricopa,AZ,85009-1712,US,US/Mountain,KPHX,2021-09-14 08:51:00,86.0,86.0,31.0,28.67,10.0,E,8.0,0.0,Fair,False,False,True,False,False,False,False,False,False,False,False,True,False,Day,Day,Day,Day
C-1543649,2,2020-08-26 00:08:30.000000000,2020-08-26 00:22:30.000000000,40.30151,-80.165873,40.27789,-80.159223,1.66919582237,Slow traffic on I-79 from PA-50/Exit 54 (I-79) to McClelland Rd/Exit 45 (I-79) due to roadwork.,,I-79 S,R,Canonsburg,Washington,PA,15317,US,US/Eastern,KAFJ,2020-08-26 00:53:00,67.0,67.0,66.0,28.82,10.0,CALM,0.0,0.0,Fair,False,False,False,False,True,False,False,False,False,False,False,False,False,Night,Night,Night,Night
C-1543650,2,2021-10-09 12:34:00.000000000,2021-10-09 14:41:55.000000000,33.596340999999995,-112.173155,33.596287,-112.167918,0.301422059928,Slow traffic from N 59th Ave (W Cactus Rd) to N 43rd Ave (W Cactus Rd) due to roadwork.,5103.0,W Cactus Rd,L,Glendale,Maricopa,AZ,85304,US,US/Mountain,KGEU,2021-10-09 12:58:00,77.0,77.0,34.0,28.75,10.0,SSW,6.0,0.0,Fair,False,False,False,False,False,False,False,False,True,True,False,False,False,Day,Day,Day,Day
C-1543651,2,2020-11-23 15:02:30.000000000,2020-11-23 19:11:30.000000000,39.697453,-104.899542,39.698515,-104.903474,0.221537812013,Stationary traffic on CO-83 from E Mississippi Ave (S Parker Rd/CO-83) to S Quebec St (Leetsdale Dr/S Parker Rd/CO-83) due to roadwork.,993.0,S Quince St,L,Denver,Denver,CO,80247,US,US/Mountain,KBKF,2020-11-23 14:58:00,62.0,62.0,22.0,24.08,10.0,NW,5.0,0.0,Partly Cloudy,False,False,True,False,False,False,False,False,False,True,False,True,False,Day,Day,Day,Day
C-1543652,2,2021-07-02 12:41:00.000000000,2021-07-02 14:44:50.000000000,33.466885,-111.987199,33.465617,-111.986153,0.106350634649,Slow traffic from E Almeria Rd to AZ-143 S / Hohokam Expy S due to roadwork.,1652.0,N 44th St,L,Phoenix,Maricopa,AZ,85008-4119,US,US/Mountain,KPHX,2021-07-02 12:51:00,96.0,96.0,32.0,28.68,10.0,W,5.0,0.0,Mostly Cloudy,False,True,False,False,False,False,False,False,False,False,True,False,False,Day,Day,Day,Day
C-1543653,2,2020-09-15 14:33:00.000000000,2020-09-16 00:00:00.000000000,37.531239,-77.36290699999998,37.531152,-77.34375,1.0496787827200005,On I-64 in the County of Henrico from mile marker 196 to mile marker 197 motorists can expect potential delays in this area from 09/15/20 at 7:33 AM until 09/15/20 at 5:00 PM due to maintenance activities. The west left shoulder and right shoulder are alternating closures.,,I-64 E,R,Henrico,Henrico,VA,23231,US,US/Eastern,KRIC,2020-09-15 14:54:00,70.0,70.0,57.0,30.1,10.0,NE,6.0,0.0,Partly Cloudy,False,False,False,False,False,False,False,False,False,False,False,False,False,Day,Day,Day,Day
C-1543654,2,2020-09-26 14:23:00.000000000,2020-09-26 23:44:49.000000000,28.044181,-82.677452,28.043062,-82.676622,0.0924094447415,Stationary traffic on FL-584 from Lakeview Dr to Myrtle Ln due to resurfacing work.,404.0,Forest Lakes Blvd,R,Oldsmar,Pinellas,FL,34677,US,US/Eastern,KPIE,2020-09-26 14:53:00,87.0,87.0,74.0,29.96,10.0,ENE,5.0,0.0,Mostly Cloudy,False,False,False,False,False,False,False,False,True,False,False,False,False,Day,Day,Day,Day
C-1543655,2,2021-04-06 07:22:00.000000000,2021-04-06 18:26:50.000000000,33.392884,-111.935678,33.392216999999995,-111.939567,0.229030968517,Stationary traffic from S College Ave to E Pebble Beach Dr due to roadwork.,257.0,E Southern Ave,L,Tempe,Maricopa,AZ,85282,US,US/Mountain,KPHX,2021-04-06 07:51:00,72.0,72.0,19.0,28.57,10.0,W,8.0,0.0,Mostly Cloudy,False,False,False,False,False,False,False,False,True,False,False,False,False,Day,Day,Day,Day
C-1543656,2,2021-07-23 12:32:05.000000000,2021-07-23 13:16:40.000000000,35.080760999999995,-81.71086700000002,35.0698,-81.764038,3.100517355,Slow traffic on I-85 S from Hyatt St/Exit 90 (I-85) to SC-110/Exit 83 (I-85) due to roadwork.,,I-85 S,R,Gaffney,Cherokee,SC,29341,US,US/Eastern,KEHO,2021-07-23 12:35:00,83.0,83.0,58.0,29.26,7.0,SSE,3.0,0.0,Cloudy,False,False,False,False,False,False,False,False,False,False,False,False,False,Day,Day,Day,Day
C-1543657,2,2021-04-27 03:46:30.000000000,2021-12-23 12:02:33.000000000,33.509224,-112.04835,33.510042,-112.047524,0.0738831167426,Stationary traffic from N 15th St to E Medlock Dr due to roadwork.,1545.0,E Camelback Rd,R,Phoenix,Maricopa,AZ,85014-3404,US,US/Mountain,KPHX,2021-05-24 05:51:00,66.0,66.0,16.0,28.73,10.0,CALM,0.0,0.0,Fair,True,False,False,False,False,False,False,False,True,False,False,False,False,Night,Night,Night,Night
C-1543658,2,2021-10-25 07:50:30.000000000,2021-10-25 08:11:00.000000000,39.674761,-104.864219,39.673801,-104.865977,0.114630589553,Slow traffic on CO-30 from S Jamaica St to S Parker Rd due to roadwork.,10584.0,E Iliff Ave,R,Aurora,Arapahoe,CO,80014,US,US/Mountain,KBKF,2021-10-25 07:58:00,40.0,36.0,63.0,24.31,10.0,WNW,6.0,0.0,Mostly Cloudy,False,False,False,False,False,False,False,False,False,True,False,False,False,Day,Day,Day,Day
C-1543659,2,2020-06-20 00:01:00.000000000,2020-06-20 06:00:00.000000000,40.80343,-74.07268,40.80343,-74.07268,0.0,Ramp to RT-3 Westbound and RT-120 Northbound and E Peripheral Rd - Roadwork. Construction work. Right lane blocked.,,NJ-3 E,R,East Rutherford,Bergen,NJ,07073,US,US/Eastern,KTEB,2020-06-20 00:51:00,72.0,72.0,78.0,30.05,10.0,CALM,0.0,0.0,Fair,False,False,False,False,True,False,False,False,False,False,False,False,False,Night,Night,Night,Night
C-1543660,2,2018-10-06 23:01:40.000000000,2018-10-11 21:01:38.000000000,25.866561,-80.32247199999998,25.86714,-80.273062,3.07212828444,Between SR-826 and 5th Ave - Construction work.,,W 49th St,R,Hialeah,Miami-Dade,FL,33016,US,US/Eastern,KOPF,2018-10-07 20:53:00,82.0,,74.0,29.96,10.0,East,11.5,,Scattered Clouds,False,False,True,False,False,False,False,False,True,False,False,True,False,Night,Night,Night,Night
C-1543661,2,2020-11-29 08:00:00.000000000,2020-12-04 07:59:59.000000000,39.725985,-75.532818,39.724226,-75.535088,0.171238153302,(24/7) Single lane closures and lane shifts for bridge work.10 p.m. until 4 a.m. Sunday through Thursday nightsI-495 Northbound double lane closures 10 p.m. until 8 a.m. Friday and Saturday nightsI-495 Northbound double lane closures 10 p.m. until 6 a.m. Sunday through Thursday nights I-495 southbound double lane closures10 p.m. until 8 a.m. Friday and Saturday nightsI-495 southbound double lane closures I-495 Northbound/Southbound (Bridges) just south of Route 9/New Castle Avenue to south of 12th Street between Exit 2 and Exit 3 Northbound/Southbound(Wilmington) (T201707404) (Group 1),,I-495 S,R,Wilmington,New Castle,DE,19801,US,US/Eastern,KILG,2020-11-29 07:51:00,34.0,34.0,82.0,30.12,,CALM,0.0,0.0,Fair,False,False,False,False,False,False,False,False,False,False,False,False,False,Day,Day,Day,Day
C-1543662,2,2021-04-17 08:02:00.000000000,2021-12-10 04:44:00.000000000,33.450772,-112.073829,33.4514,-112.074631,0.063406199062,Stationary traffic from W Monroe St / E Monroe St to N 1st Ave due to roadwork.,240.0,N Central Ave,L,Phoenix,Maricopa,AZ,85004-2201,US,US/Mountain,KPHX,2021-04-17 07:51:00,61.0,61.0,22.0,28.66,10.0,SE,7.0,0.0,Fair,True,False,True,False,False,False,False,False,True,False,False,False,False,Day,Day,Day,Day
C-1543663,2,2020-10-29 12:38:30.000000000,2020-10-30 01:21:30.000000000,40.80424,-73.927438,40.809789,-73.922404,0.465085796867,Slow traffic from New York--Bronx County Border (Willis Ave) to 3rd Ave (Willis Ave) due to roadwork.,,Willis Ave,R,Bronx,Bronx,NY,10454,US,US/Eastern,KLGA,2020-10-29 12:31:00,51.0,51.0,86.0,29.73,2.0,ENE,15.0,0.15,Heavy Rain,False,False,False,False,False,False,True,False,False,False,False,False,False,Day,Day,Day,Day
C-1543664,2,2021-10-12 04:02:04.000000000,2021-10-12 17:00:00.000000000,40.303349,-76.637383,,,0.0,Lane closed due to construction work on PA-743 Laudermilch Rd Northbound at Swatara Rd.,101.0,Laudermilch Rd,R,Hershey,Dauphin,PA,17033,US,US/Eastern,KMDT,2021-10-12 03:56:00,59.0,59.0,87.0,29.75,7.0,CALM,0.0,0.0,Mostly Cloudy,False,False,False,False,False,False,False,False,False,False,False,False,False,Night,Night,Night,Night
C-1543665,3,2019-08-06 04:03:38.000000000,2019-08-06 05:00:00.000000000,47.093048,-122.623695,,,0.0,Intermittent lane closures due to construction during the night on I-5 Northbound at Barksdale Ave .,,I-5 S,R,Dupont,Pierce,WA,98327,US,US/Pacific,KGRF,2019-08-06 03:58:00,59.0,59.0,100.0,29.68,10.0,SW,6.0,0.0,Cloudy,False,False,True,False,False,False,False,False,False,False,False,True,False,Night,Night,Night,Day
C-1543666,2,2020-05-20 09:56:59.000000000,2020-06-09 03:54:34.000000000,40.15904000000001,-76.15265,40.16303,-76.15136,0.283973329462,At US-322 - Roadwork. Traffic problem.,,US-222 N,R,Ephrata,Lancaster,PA,17522,US,US/Eastern,KLNS,2020-05-20 09:53:00,57.0,57.0,45.0,29.94,10.0,E,17.0,0.0,Fair,False,False,False,False,True,False,False,False,False,False,False,False,False,Day,Day,Day,Day
C-1543667,2,2021-04-05 06:57:30.000000000,2021-11-16 22:28:06.000000000,42.070199,-88.043982,42.068424,-88.043983,0.122640830425,Slow traffic from Old Plum Grove Rd (S Meacham Rd) to IL-62/E Algonquin Rd (N Meacham Rd) due to roadwork.,2208.0,S Meacham Rd,R,Palatine,Cook,IL,60067-7462,US,US/Central,KPWK,2021-04-05 06:52:00,66.0,66.0,52.0,29.23,10.0,SSW,13.0,0.0,Fair,False,False,True,False,False,False,False,False,False,False,False,True,False,Day,Day,Day,Day
C-1543668,2,2019-10-17 01:39:52.000000000,2019-11-16 23:59:00.000000000,43.19017,-72.439308,,,21.5200004578,Intermittent lane closures due to construction work on NH-12 both ways between Huntington Ln and NH-12A.,1507.0,Bellows Falls Rd,R,Charlestown,Sullivan,NH,03603-5121,US,US/Eastern,KVSF,2019-10-17 01:42:00,51.0,51.0,,28.61,5.0,NNE,8.0,0.0,Rain,False,False,False,False,False,False,False,False,False,True,False,False,False,Night,Night,Night,Night
C-1543669,2,2021-06-22 21:04:57.000000000,2021-06-23 06:00:00.000000000,45.432232,-122.344897,45.428252,-122.336957,0.473120006982,Roadwork has flaggers and a pilot car in place use caution.,,SE 312th Dr,R,Boring,Clackamas,OR,97009,US,US/Pacific,KTTD,2021-06-22 20:53:00,78.0,78.0,45.0,29.75,10.0,CALM,0.0,0.0,Fair,False,False,False,False,False,False,False,False,False,False,False,False,False,Night,Day,Day,Day
C-1543670,2,2021-12-05 12:41:00.000000000,2021-12-05 13:02:31.000000000,29.891086,-81.323378,29.892695,-81.322819,0.1161047394789999,Roadwork on Prawn St from US-1 to US-1 N - US-1 S - County Hwy-214 - FL-5.,165.0,King St,R,Saint Augustine,St. Johns,FL,32084,US,US/Eastern,KSGJ,2021-12-05 12:56:00,68.0,68.0,76.0,30.15,10.0,ENE,6.0,0.0,Fair,False,False,False,False,False,False,False,False,False,False,False,False,False,Day,Day,Day,Day
C-1543671,2,2021-02-07 15:38:00.000000000,2021-02-07 23:13:30.000000000,34.880339,-98.114006,34.878482,-98.117666,0.2439252575759999,Stationary traffic on H. E. Bailey Tpke W - I-44 W from Chickasha Toll Plaza (I-44) to Exit 62 (I-44) due to roadwork.,,H. E. Bailey Tpke W,R,Cement,Caddo,OK,73017,US,US/Central,KCHK,2021-02-07 15:47:00,37.0,30.0,87.0,28.67,7.0,ENE,10.0,0.0,Cloudy,False,False,False,False,False,False,False,False,False,False,False,False,False,Day,Day,Day,Day
C-1543672,2,2021-09-08 14:32:30.000000000,2021-09-08 14:54:04.000000000,45.646991,-107.657167,45.66349,-107.657351,1.14000696296,Slow traffic on MT-313 - County Hwy-313 from Crow Street X Cutoff (MT-313) to CR-216C (MT-313) due to roadwork.,,State Highway 313,R,Crow Agency,Big Horn,MT,59022,US,US/Mountain,KM46,2021-09-08 14:53:00,73.0,73.0,25.0,27.33,10.0,ESE,8.0,0.0,Fair,False,False,False,False,False,False,False,False,False,False,False,False,False,Day,Day,Day,Day
C-1543673,2,2020-09-28 14:36:30.000000000,2020-09-28 22:16:22.000000000,35.534642,-82.60137900000002,35.53071,-82.60068100000002,0.274495488902,Slow traffic on NC-191 from Old Brevard Rd to I-26 E due to roadwork.,,Brevard Rd,R,Asheville,Buncombe,NC,28806,US,US/Eastern,KAVL,2020-09-28 14:54:00,79.0,79.0,58.0,27.64,10.0,S,13.0,0.0,Fair,False,False,False,False,False,False,False,False,False,False,False,False,False,Day,Day,Day,Day
C-1543674,2,2021-12-24 12:58:30.000000000,2021-12-24 13:23:00.000000000,33.935117,-118.123227,33.932393,-118.11783,0.36213711389,Slow traffic from CA-19/Lakewood Blvd (Firestone Blvd) to Woodruff Ave (Firestone Blvd) due to roadwork.,8956.0,Firestone Blvd,R,Downey,Los Angeles,CA,90241,US,US/Pacific,KLGB,2021-12-24 12:53:00,60.0,60.0,64.0,29.83,10.0,W,8.0,0.0,Partly Cloudy,False,False,False,False,False,False,False,False,True,False,False,True,False,Day,Day,Day,Day
C-1543675,2,2021-05-21 05:42:30.000000000,2021-12-11 11:44:00.000000000,32.78023,-97.330998,32.781104,-97.3292,0.120646965101,Slow traffic from US-287 Bus/N Main St (W Northside Dr) to I-35W/US-287/E Northside Dr (W Northside Dr) due to roadwork.,1338.0,E Northside Dr,R,Fort Worth,Tarrant,TX,76102-1201,US,US/Central,KFTW,2021-10-30 19:53:00,65.0,65.0,36.0,29.13,10.0,ESE,6.0,0.0,Fair,False,False,False,False,False,False,False,False,False,False,False,False,False,Night,Night,Day,Day
C-1543676,2,2020-09-18 07:00:00.000000000,2020-09-25 17:00:00.000000000,35.583858,-97.638474,,,0.0,Restrictions due to utility work on Rockwell Ave at 112th St.,7127.0,NW 112th St,R,Oklahoma City,Oklahoma,OK,73162-2772,US,US/Central,KPWA,2020-09-18 06:53:00,57.0,57.0,89.0,28.79,10.0,N,7.0,0.0,Fair,False,False,True,False,False,False,False,False,False,False,False,True,False,Night,Day,Day,Day
C-1543677,4,2020-04-22 16:36:16.000000000,2020-04-24 17:46:29.000000000,40.70155,-73.98966999999998,40.70098,-73.99486999999998,0.2752141690219999,Between Manhattan Brg/Exit 29A and Atlantic Ave/Exit 27 - Roadwork. Two lanes closed.,93.0,Washington St,L,Brooklyn,Kings,NY,11201-1450,US,US/Eastern,KJRB,2020-04-22 16:51:00,50.0,50.0,19.0,29.76,10.0,W,10.0,0.0,Fair,False,False,False,False,True,False,False,False,False,False,False,True,False,Day,Day,Day,Day
C-1543678,2,2021-06-02 11:16:17.000000000,2021-09-28 10:48:30.000000000,40.976785,-73.698932,40.987386,-73.67264899999998,1.55431515042,Stationary traffic on I-95 N from Mamaroneck Ave/Exit 18 (I-95) to Midland Ave/Exit 22 (I-95) due to roadwork.,,New England Trwy N,R,Rye,Westchester,NY,10580,US,US/Eastern,KHPN,2021-06-02 10:56:00,71.0,71.0,61.0,29.76,10.0,VAR,5.0,0.0,Fair,False,False,False,False,False,False,False,False,False,False,False,False,False,Day,Day,Day,Day
C-1543679,4,2020-12-27 14:28:10.000000000,2021-01-04 07:59:00.000000000,41.859245,-87.693198,41.859264,-87.691466,0.0891380948746,Closed road from S Washtenaw Ave to S Rockwell St due to roadwork.,1600.0,S Washtenaw Ave,R,Chicago,Cook,IL,60608-1716,US,US/Central,KMDW,2020-12-27 14:53:00,47.0,41.0,61.0,28.95,10.0,S,14.0,0.0,Cloudy,False,False,False,False,False,False,False,False,False,False,False,False,False,Day,Day,Day,Day
C-1543680,2,2021-04-18 20:04:12.000000000,2021-04-19 02:10:02.000000000,41.749842,-72.720534,41.749777,-72.715884,0.239739377709,Road Work on I-84 Eastbound between Exits 44 and 58 (5.6 miles) in effect today until 11:59 pm. The left lane is closed. Reported Sunday April 18 at 8:02 pm.,,I-84 E,R,West Hartford,Hartford,CT,06110,US,US/Eastern,KHFD,2021-04-18 19:53:00,60.0,60.0,35.0,29.78,10.0,W,7.0,0.0,Cloudy,False,False,False,False,False,False,False,False,False,False,False,False,False,Night,Night,Day,Day
C-1543681,2,2021-05-14 04:34:30.000000000,2021-11-14 08:17:00.000000000,33.449281,-112.082551,33.449301,-112.080191,0.1360604311429999,Stationary traffic from N 7th Ave (W Adams St) to N Central Ave (Adams St) due to roadwork.,700.0,W Adams St,R,Phoenix,Maricopa,AZ,85007,US,US/Mountain,KPHX,2021-11-14 07:51:00,62.0,62.0,30.0,28.94,10.0,E,3.0,0.0,Fair,False,False,True,False,False,False,False,False,False,True,False,True,False,Night,Night,Day,Day
C-1543682,2,2021-08-13 10:38:35.000000000,2021-08-13 11:00:26.000000000,26.167297,-80.110235,26.167474,-80.103716,0.404441191352,Stationary traffic on FL-816 from US-1/FL-5/N Federal Hwy (NE 31st St/E Oakland Park Blvd/FL-816) to FL-A1A/N Ocean Blvd (NE 31st St/E Oakland Park Blvd/FL-816) due to roadwork.,,E Oakland Park Blvd,R,Fort Lauderdale,Broward,FL,33306,US,US/Eastern,KFXE,2021-08-13 10:53:00,86.0,86.0,77.0,30.06,10.0,ENE,12.0,0.0,Partly Cloudy,False,False,False,False,False,False,False,False,False,False,False,False,False,Day,Day,Day,Day
C-1543683,2,2020-12-10 18:30:00.000000000,2020-12-10 19:23:30.000000000,40.825094,-73.95129200000002,40.825812,-73.952968,0.100695198202,Stationary traffic from Broadway to Riverside Dr due to roadwork.,3498.0,Broadway,R,New York,New York,NY,10031-5611,US,US/Eastern,KNYC,2020-12-10 18:51:00,44.0,44.0,55.0,30.1,10.0,CALM,0.0,0.0,Fair,False,False,True,False,False,False,True,False,False,False,False,True,False,Night,Night,Night,Night
C-1543684,4,2021-10-21 01:00:00.000000000,2021-10-24 00:59:59.000000000,33.567541,-112.110285,33.568224,-112.110262,0.0472093787792,Closed road from W Dunlap Ave to W Mission Ln due to roadwork.,2401.0,W Dunlap Ave,L,Phoenix,Maricopa,AZ,85021-2803,US,US/Mountain,KDVT,2021-10-21 00:53:00,65.0,65.0,36.0,28.43,10.0,NE,9.0,0.0,Fair,False,False,False,False,False,False,False,False,False,False,False,False,False,Night,Night,Night,Night
C-1543685,2,2021-09-16 12:36:17.000000000,2021-09-16 14:39:12.000000000,40.735388,-73.998269,40.736668,-73.997334,0.101082815104,Stationary traffic from Bleecker St/Downing St/Minetta St (6th Ave) to W 13th St (6th Ave) due to roadwork.,99.0,W 11th St,R,New York,New York,NY,10011-8601,US,US/Eastern,KNYC,2021-09-16 12:51:00,76.0,,67.0,30.13,10.0,,,0.0,Mostly Cloudy,True,False,True,False,False,False,True,False,True,False,False,True,False,Day,Day,Day,Day
C-1543686,2,2019-09-11 10:04:55.000000000,2019-09-16 10:02:14.000000000,42.37001,-71.03867,42.370516,-71.038065,0.0466482713554,Between Maverick St and Elbow St - Gas main work.,99.0,Maverick Sq,R,Boston,Suffolk,MA,02128-2312,US,US/Eastern,KBOS,2019-09-12 09:54:00,64.0,64.0,75.0,30.12,8.0,NE,14.0,0.0,Rain,True,False,True,False,False,False,True,False,False,False,False,False,False,Day,Day,Day,Day
C-1543687,2,2020-07-02 14:00:00.000000000,2020-07-03 00:45:00.000000000,44.504038,-72.998131,44.505268,-72.996571,0.114593857476,Construction on VT-15 NB near VT-15 Expect delays.,47.0,VT Route 15,L,Jericho,Chittenden,VT,05465-3127,US,US/Eastern,KBTV,2020-07-02 13:54:00,89.0,89.0,43.0,29.39,10.0,CALM,0.0,0.0,Mostly Cloudy,False,False,False,False,False,False,False,False,False,False,False,False,False,Day,Day,Day,Day
C-1543688,2,2021-07-29 10:20:57.000000000,2021-07-29 10:44:39.000000000,30.435561,-85.420526,30.435649,-85.426955,0.383038449225,Slow traffic on FL-20 from SW Bob Mayo Ln (FL-20) to US-231 (FL-20) due to roadwork.,15900.0,Creekhaven,R,Fountain,Bay,FL,32438,US,US/Central,KVSH,2021-07-29 09:53:00,89.0,89.0,72.0,30.06,10.0,NNW,8.0,0.0,Fair,False,False,True,False,False,False,True,False,False,False,False,True,False,Day,Day,Day,Day
C-1543689,2,2021-12-22 09:00:00.000000000,2021-12-22 16:00:00.000000000,33.77398400000001,-84.335909,33.771574,-84.321256,0.857892914805,Lane closed on US-78 W - US-29 N - US-78 E - GA-10 - US-278 E - GA-8 - US-23 S - US-278 W - US-23 N - US-29 S from US-23/GA-42/Briarcliff Rd/Moreland Ave (US-278/US-29/US-23) to US-278/GA-10/Lake Rd (South) (US-278/US-29/US-23) due to roadwork.,1549.0,S Ponce de Leon Ave NE,R,Atlanta,DeKalb,GA,30307,US,US/Eastern,KPDK,2021-12-22 08:53:00,41.0,35.0,79.0,28.87,10.0,WNW,10.0,0.0,Fair,False,False,False,False,False,False,False,False,False,False,False,True,False,Day,Day,Day,Day
C-1543690,3,2019-09-06 15:35:53.000000000,2019-09-06 17:35:29.000000000,39.744435,-105.441466,39.74512,-105.44032,0.0771147912628,At US-6/Exit 244 - Road marking work.,,I-70 E,R,Evergreen,Clear Creek,CO,80439,US,US/Mountain,K0CO,2019-09-06 15:29:00,52.0,52.0,80.0,21.07,6.0,ESE,7.0,0.02,T-Storm,False,False,False,False,True,False,False,False,False,False,False,False,False,Day,Day,Day,Day
C-1543691,2,2021-12-22 15:55:06.000000000,2021-12-22 18:04:22.000000000,25.68619,-80.430098,25.684865,-80.428942,0.116457017688,Slow traffic on FL-94 from SW 86th St to N Kendall Dr due to roadwork.,14700.0,SW 85th Ln,R,Miami,Miami-Dade,FL,33193-1540,US,US/Eastern,KTMB,2021-12-22 15:53:00,71.0,71.0,57.0,29.93,10.0,WNW,12.0,0.0,Cloudy,False,False,False,False,False,False,False,False,False,False,False,False,False,Day,Day,Day,Day
C-1543692,2,2020-11-20 16:30:00.000000000,2020-12-18 12:00:00.000000000,33.449236,-112.091011,33.449233,-112.091433,0.0243290940138,ADAMS ST - Construction - SPLICING IN MANHOLE PUSH/PULL CABLELanesRestricted: EB&amp;#61;1 WB&amp;#61;ALLADAMS ST at 15TH AVEComments: 15 AVE - 14 AVE,1523.0,W Adams St,L,Phoenix,Maricopa,AZ,85007,US,US/Mountain,KPHX,2020-11-20 16:51:00,86.0,86.0,18.0,28.81,10.0,WNW,5.0,0.0,Mostly Cloudy,True,False,True,False,False,False,False,False,False,True,False,False,False,Day,Day,Day,Day
C-1543693,2,2020-11-03 13:46:00.000000000,2020-11-03 21:33:00.000000000,39.840027,-105.081921,39.837796,-105.08185,0.154193435158,Stationary traffic on CO-121 from W 80th Ave (Wadsworth Blvd/CO-121) to W 76th Ave (Wadsworth Blvd/CO-121) due to roadwork.,7891.0,Wadsworth Blvd,L,Arvada,Jefferson,CO,80003-2107,US,US/Mountain,KBJC,2020-11-03 13:45:00,75.0,75.0,13.0,24.46,10.0,N,5.0,0.0,Partly Cloudy,False,False,True,False,False,False,False,False,True,False,False,True,False,Day,Day,Day,Day
C-1543694,2,2021-06-28 20:01:00.000000000,2021-06-29 06:44:00.000000000,35.53204500000001,-118.632373,35.492897,-118.705372,4.91649480603,Construction on CA-178 WB near CHINA GARDEN RD Expect delays.,223.0,State Route 178,R,Wofford Heights,Kern,CA,93285,US,US/Pacific,KIYK,2021-06-28 19:56:00,103.0,103.0,12.0,27.3,10.0,WNW,8.0,0.0,Fair,False,False,False,False,False,False,False,False,False,False,False,False,False,Day,Day,Day,Day
C-1543695,2,2019-03-11 10:03:07.000000000,2019-03-15 10:02:35.000000000,26.486246,-80.08981999999997,26.499121,-80.08991,0.889595185859,At Summit Dr - Construction work. Lane blocked.,3816.0,S Congress Ave,L,Boynton Beach,Palm Beach,FL,33426-8415,US,US/Eastern,KBCT,2019-03-11 09:47:00,82.4,,66.0,30.2,10.0,East,8.1,,Scattered Clouds,False,False,False,False,False,False,False,False,False,False,False,False,False,Day,Day,Day,Day
C-1543696,2,2016-12-01 10:00:00.000000000,2016-12-01 15:00:00.000000000,42.361366,-71.072342,,,0.01,One lane closed due to construction work on MA-28 Storrow Dr both ways at Longfellow Bridge.,399.0,Cambridge St,R,Boston,Suffolk,MA,02114-3110,US,US/Eastern,KBOS,2016-12-01 09:54:00,52.0,,77.0,29.49,10.0,West,15.0,,Partly Cloudy,False,False,False,False,False,False,True,False,True,False,False,False,False,Day,Day,Day,Day
C-1543697,2,2020-06-24 08:30:00.000000000,2020-06-27 13:56:17.000000000,39.99705,-74.35158,39.99705,-74.35158,0.0,At Beckerville Rd/Manchester Blvd - Roadwork.,647.0,Route 70,L,Manchester Township,Ocean,NJ,08759,US,US/Eastern,KMJX,2020-06-24 08:56:00,78.0,78.0,74.0,29.64,10.0,W,8.0,0.0,Cloudy,False,False,False,False,False,False,False,False,False,False,False,False,False,Day,Day,Day,Day
C-1543698,2,2021-11-23 18:56:30.000000000,2021-11-23 20:59:43.000000000,33.509231,-112.046104,33.508519,-112.047532,0.0958540546723,Slow traffic from Piestewa Fwy S to E Pierson St due to roadwork.,1631.0,E Camelback Rd,L,Phoenix,Maricopa,AZ,85016-3901,US,US/Mountain,KPHX,2021-11-23 18:51:00,72.0,72.0,27.0,28.66,10.0,CALM,0.0,0.0,Cloudy,True,False,False,False,False,False,False,False,True,False,False,False,False,Night,Night,Night,Night
C-1543699,2,2021-05-02 13:41:45.000000000,2021-05-02 14:01:15.000000000,32.06185,-81.252088,32.073451,-81.24624200000002,0.8715788954449999,Slow traffic on GA-405 N - I-95 N from GA-204/Exit 94 (I-95) to I-16 (I-95) due to roadwork.,,GA-405 N,R,Savannah,Chatham,GA,31405,US,US/Eastern,KSVN,2021-05-02 13:56:00,81.0,81.0,57.0,29.94,10.0,SSE,12.0,0.0,Partly Cloudy,False,False,False,False,False,False,False,False,False,False,False,False,False,Day,Day,Day,Day
C-1543700,3,2018-06-29 21:30:56.000000000,2018-06-30 05:30:56.000000000,41.74518,-87.83939000000002,41.758878,-87.886234,2.59348244006,Between IL-171/Archer Ave and Willow Springs Rd - Roadwork.,,I-294 N,R,Justice,Cook,IL,60458,US,US/Central,KMDW,,,,,,,,,,,False,False,False,False,False,False,False,False,False,False,False,False,False,Night,Night,Day,Day
C-1543701,2,2020-06-28 00:40:30.000000000,2020-08-16 00:45:00.000000000,39.198006,-77.71993499999998,39.200266,-77.727575,0.437867416535,Construction on CHARLES TOWN PIKE WB near HILLSBORO RD Construction. Drive with caution.,37118.0,Charles Town Pike,R,Purcellville,Loudoun,VA,20132-2942,US,US/Eastern,KJYO,2020-06-28 00:52:00,78.0,78.0,64.0,29.48,10.0,NNW,6.0,0.0,Mostly Cloudy,False,False,False,False,False,False,False,False,False,False,False,False,False,Night,Night,Night,Night
C-1543702,2,2019-10-25 21:04:02.000000000,2019-10-29 21:03:18.000000000,33.80397,-84.41144,33.8037,-84.41085,0.0386709491228,Ramp to US-41/Northside Dr NW and I-75 Southbound - Construction work.,,GA-401 S,R,Atlanta,Fulton,GA,30318,US,US/Eastern,KFTY,2019-10-25 21:11:00,68.0,68.0,78.0,29.18,10.0,ENE,7.0,0.0,Cloudy,False,False,False,False,True,False,False,False,False,False,False,False,False,Night,Night,Night,Night
C-1543704,2,2021-07-08 12:37:12.000000000,2021-07-08 13:14:32.000000000,34.622507,-92.503354,34.626526,-92.49794,0.41456439075,Stationary traffic on AR-5 from Springhill Rd (Stagecoach Rd/AR-5) to N Alexander Rd (Stagecoach Rd/AR-5) due to roadwork.,5298.0,Highway 5 N,R,Bryant,Saline,AR,72022,US,US/Central,KLIT,2021-07-08 12:53:00,91.0,91.0,53.0,29.66,10.0,VAR,3.0,0.0,Partly Cloudy,False,False,False,False,False,False,False,False,False,False,False,False,False,Day,Day,Day,Day
C-1543705,2,2021-08-25 14:27:00.000000000,2021-08-25 15:41:00.000000000,33.704516,-117.953243,33.715903000000004,-117.966843,1.1090580121,Stationary traffic on I-405 N - San Diego Fwy N from exit [11] to exit [16] due to roadwork.,,I-405 N,R,Fountain Valley,Orange,CA,92708,US,US/Pacific,KSNA,2021-08-25 14:53:00,83.0,83.0,49.0,29.84,9.0,SW,9.0,0.0,Partly Cloudy,False,False,False,False,False,False,False,False,False,False,False,False,False,Day,Day,Day,Day
C-1543706,4,2018-05-16 00:54:54.000000000,2018-05-16 06:54:54.000000000,34.15677,-118.15843,34.155707,-118.158098,0.0758596452075,Closed at CA-134 - Closed due to roadwork.,,Foothill Fwy E,R,Pasadena,Los Angeles,CA,91103,US,US/Pacific,KMWS,,,,,,,,,,,False,False,False,False,True,False,False,False,False,False,False,False,False,Night,Night,Night,Night
C-1543707,2,2020-10-28 07:00:00.000000000,2020-10-30 15:38:43.000000000,42.635889,-83.308208,42.635172,-83.325696,0.8903023360169999,Construction on MI-59 WB near WOODWARD AVE Construction. Right lane closed.,431.0,W Huron St,L,Pontiac,Oakland,MI,48341-1427,US,US/Eastern,KPTK,2020-10-28 06:53:00,37.0,31.0,89.0,28.96,10.0,SW,8.0,0.0,Fair,False,False,False,False,False,False,False,False,False,False,False,True,False,Night,Night,Day,Day
C-1543708,2,2019-01-09 04:22:24.000000000,2019-01-18 23:59:00.000000000,41.32552,-95.957382,,,0.0,Roadway reduced from lanes to one lane due to construction on US-75 30th St both ways at Ernst St.,7266.0,N 30th St,L,Omaha,Douglas,NE,68112-2872,US,US/Central,KOMA,2019-01-09 03:52:00,28.0,15.3,51.0,30.5,10.0,NW,18.4,,Clear,False,False,False,False,False,False,False,False,False,False,False,False,False,Night,Night,Night,Night
C-1543709,2,2021-06-21 23:55:00.000000000,2021-12-31 03:00:15.000000000,40.262522,-74.846698,40.256306,-74.843722,0.4572522274600001,NJ DOT - TOC South: Construction and Long term road construction on NJ 29 southbound from NJ 175/Scenic Dr (Ewing Twp) to West Upper Ferry Rd (Ewing Twp) 1 Right lane of 2 lanes closed until further notice use caution,,NJ-29,R,Trenton,Mercer,NJ,08628,US,US/Eastern,KTTN,2021-06-21 23:53:00,71.0,71.0,93.0,29.42,10.0,SW,5.0,0.0,Fair,False,False,False,False,True,False,False,False,False,False,False,False,False,Night,Night,Night,Night
C-1543710,2,2021-11-04 11:53:30.000000000,2021-11-04 12:04:30.000000000,40.92492100000001,-80.558592,40.922651,-80.5527,0.345274933826,Slow traffic on Ohio Tpke E - I-76 E from I-680/Exit 234 (I-76) to OH--PA State Border (I-76) due to roadwork.,,Ohio Tpke E,R,Petersburg,Mahoning,OH,44454,US,US/Eastern,KUCP,2021-11-04 11:56:00,43.0,40.0,56.0,29.17,10.0,WSW,5.0,0.0,Fair,False,False,False,False,False,False,False,False,False,False,False,False,False,Day,Day,Day,Day
C-1543711,2,2016-10-17 09:37:15.000000000,2016-10-17 12:00:00.000000000,37.92823,-122.38365,37.9222,-122.35713,1.50423788363,Between Canal Blvd and Cutting Blvd/Harbour Way - Construction work.,,I-580 E,R,Richmond,Contra Costa,CA,94801,US,US/Pacific,KCCR,2016-10-17 09:53:00,63.0,,72.0,30.02,10.0,SSW,5.8,,Mostly Cloudy,False,False,False,False,True,False,False,False,False,False,False,False,False,Day,Day,Day,Day
C-1543712,2,2021-04-22 06:30:30.000000000,2021-09-17 20:38:54.000000000,41.67717800000001,-86.00330600000002,41.670848,-86.003196,0.4373981875859999,Slow traffic on IN-19 from W Lexington Ave (IN-19) to Old US-33/W Franklin St (IN-19) due to roadwork.,2398.0,Vermont St,R,Elkhart,Elkhart,IN,46516-1865,US,US/Eastern,KEKM,2021-04-22 06:52:00,27.0,27.0,93.0,29.23,5.0,CALM,0.0,0.0,Fair,False,False,True,False,False,False,False,False,False,False,False,True,False,Night,Day,Day,Day
C-1543713,2,2021-09-11 19:19:30.000000000,2021-09-11 22:49:33.000000000,33.524096,-112.098627,33.524115,-112.100555,0.111060508107,Stationary traffic from N 7th Ave (W Bethany Home Rd) to I-17/N Black Canyon Hwy (W Bethany Home Rd) due to roadwork.,1843.0,W Bethany Home Rd,L,Phoenix,Maricopa,AZ,85015-2512,US,US/Mountain,KPHX,2021-09-11 18:51:00,105.0,105.0,13.0,28.62,10.0,NW,6.0,0.0,Fair,True,False,False,False,False,True,False,False,True,False,False,False,False,Night,Night,Day,Day
C-1543714,2,2021-12-11 18:25:53.000000000,2021-12-13 05:05:57.000000000,44.558476,-94.197582,44.557726,-94.173522,1.18564955016,Construction on MN-19 EB near W MAIN ST Allow extra time.,,State Highway 19,R,Gaylord,Sibley,MN,55334,US,US/Central,KGYL,2021-12-11 18:35:00,21.0,11.0,74.0,28.76,10.0,SSW,8.0,0.0,Fair,False,False,False,False,False,False,False,False,False,False,False,False,False,Night,Night,Night,Night
C-1543715,2,2021-11-23 18:33:45.000000000,2021-11-23 21:26:06.000000000,25.92478,-80.154122,25.925974,-80.153147,0.102355196594,Slow traffic on US-1 N - FL-826 - FL-5 from US-1 to NE 26th Ave due to roadwork.,16125.0,Biscayne Blvd,L,Aventura,Miami-Dade,FL,33160-4337,US,US/Eastern,KHWO,2021-11-23 18:53:00,64.0,64.0,65.0,30.06,10.0,N,15.0,0.0,Mostly Cloudy,False,False,False,False,False,False,False,False,True,False,False,False,False,Night,Night,Night,Day
C-1543716,2,2021-08-13 14:01:00.000000000,2021-08-13 16:03:12.000000000,41.852379,-87.66466700000002,41.851513,-87.666078,0.0940936059902,Slow traffic from S Laflin St to I-55 S due to roadwork.,1555.0,W Cermak Rd,L,Chicago,Cook,IL,60608,US,US/Central,KMDW,2021-08-13 13:53:00,79.0,79.0,40.0,29.44,10.0,ENE,6.0,0.0,Mostly Cloudy,False,False,False,False,False,False,False,False,False,False,False,False,False,Day,Day,Day,Day
C-1543717,2,2021-11-16 15:01:30.000000000,2021-11-16 17:12:06.000000000,25.684807,-80.430801,25.68584,-80.429948,0.088967251262,Stationary traffic on FL-94 from SW 149th Ave to SW 86th St due to roadwork.,14738.0,SW 88th St,R,Miami,Miami-Dade,FL,33196-1481,US,US/Eastern,KTMB,2021-11-16 14:53:00,80.0,80.0,56.0,30.1,10.0,ENE,15.0,0.0,Fair,False,False,False,False,False,False,False,False,True,False,False,False,False,Day,Day,Day,Day
C-1543718,2,2019-05-13 23:03:29.000000000,2019-05-17 23:02:52.000000000,25.92487,-80.29894,25.92479,-80.3155,1.02906050067,Between SR-823/57th Ave/Red Rd and 67th Ave/Ludlam Rd - Construction work.,,Palmetto Expy S,R,Hialeah,Miami-Dade,FL,33014,US,US/Eastern,KOPF,2019-05-13 22:53:00,76.0,76.0,87.0,29.93,10.0,CALM,0.0,0.0,Fair,False,False,False,False,False,False,False,False,False,False,False,False,False,Night,Night,Night,Night
C-1543719,2,2021-04-08 00:00:00.000000000,2021-04-09 00:45:00.000000000,39.720934,-105.000187,39.720931,-105.004111,0.2085384088329999,Construction on W 3RD AVE WB near N MARIPOSA ST Expect delays.,918.0,W 3rd Ave,L,Denver,Denver,CO,80223-1335,US,US/Mountain,KAPA,2021-04-08 00:53:00,46.0,43.0,42.0,24.1,10.0,SSW,6.0,0.0,Fair,False,False,True,False,False,False,True,False,False,False,False,True,False,Night,Night,Night,Night
C-1543720,2,2021-05-06 02:59:00.000000000,2021-12-24 12:34:30.000000000,34.797798,-92.380108,34.791971000000004,-92.389361,0.661610965656,Slow traffic on I-430 S from AR-100 exit [12] to exit [9] due to roadwork.,,I-430 S,R,Little Rock,Pulaski,AR,72212,US,US/Central,KLZK,2021-08-31 15:56:00,94.0,94.0,37.0,29.37,10.0,NNW,9.0,0.0,Fair,False,False,False,False,False,False,False,False,False,False,False,False,False,Night,Night,Night,Night
C-1543721,2,2021-08-02 13:29:00.000000000,2021-08-02 16:45:00.000000000,37.554692,-79.661425,37.556572,-79.659355,0.172420093161,Construction on I-81 NB near MM 168 Expect delays.,,I-81 N,R,Buchanan,Botetourt,VA,24066,US,US/Eastern,KROA,2021-08-02 13:54:00,81.0,81.0,38.0,28.83,10.0,VAR,5.0,0.0,Fair,False,False,False,False,True,False,False,False,False,False,False,False,False,Day,Day,Day,Day
C-1543722,2,2020-09-14 13:51:30.000000000,2020-09-15 04:03:10.000000000,33.480463,-112.014642,33.480013,-112.012917,0.104159143716,Stationary traffic from N 31st St to E Windsor Ave due to roadwork.,3121.0,E Thomas Rd,R,Phoenix,Maricopa,AZ,85016-8015,US,US/Mountain,KPHX,2020-09-14 13:51:00,102.0,102.0,13.0,28.76,10.0,ESE,13.0,0.0,Fair,True,False,False,False,False,False,False,False,True,False,False,False,False,Day,Day,Day,Day
C-1543723,2,2021-09-09 00:16:00.000000000,2021-09-09 00:27:00.000000000,35.162727000000004,-92.645617,35.162927,-92.636718,0.502851376756,Stationary traffic on I-40 E from AR-9/Exit 108 (I-40) to AR-92/Exit 112 (I-40) due to roadwork.,,I-40 E,R,Plumerville,Conway,AR,72127,US,US/Central,KRUE,2021-09-09 00:53:00,63.0,63.0,67.0,29.59,10.0,CALM,0.0,0.0,Fair,False,False,False,False,False,False,False,False,False,False,False,False,False,Night,Night,Night,Night
C-1543724,2,2021-09-09 16:56:01.000000000,2021-09-09 17:17:51.000000000,42.67728,-83.307559,42.676997,-83.300667,0.350634795623,Slow traffic from Telegraph Dr (W Walton Blvd) to Baldwin Ave (Walton Blvd) due to roadwork.,178.0,W Walton Blvd,R,Pontiac,Oakland,MI,48340-1165,US,US/Eastern,KPTK,2021-09-09 16:53:00,67.0,67.0,51.0,28.89,10.0,NW,10.0,0.0,Mostly Cloudy,False,False,True,False,False,False,False,False,False,False,False,True,False,Day,Day,Day,Day
C-1543725,2,2020-05-08 07:00:37.000000000,2020-05-10 17:29:59.000000000,42.1393,-75.90196,42.16431,-75.8392,3.64979826592,Between I-81 and RT-369/Exit 3 - Roadwork. Roadway reduced to 1 lane.,,I-88 E,R,Binghamton,Broome,NY,13905,US,US/Eastern,KBGM,2020-05-08 06:53:00,34.0,29.0,82.0,28.09,10.0,WSW,6.0,0.0,Fair,False,False,False,False,True,False,False,False,False,False,False,False,False,Day,Day,Day,Day
C-1543726,2,2020-10-09 13:21:30.000000000,2020-10-10 04:29:21.000000000,33.50057,-112.134233,33.495525,-112.134218,0.348577373047,Queuing traffic from W Camelback Rd (N 35th Ave) to US-60/W Grand Ave (N 35th Ave) due to roadwork.,4411.0,N 35th Ave,R,Phoenix,Maricopa,AZ,85017-3803,US,US/Mountain,KPHX,2020-10-09 12:51:00,93.0,93.0,12.0,28.66,10.0,VAR,6.0,0.0,Fair,False,False,False,True,False,False,False,False,False,False,False,False,False,Day,Day,Day,Day
C-1543727,2,2021-12-16 18:13:30.000000000,2021-12-16 20:22:52.000000000,27.30038900000001,-80.305532,27.298240000000003,-80.303349,0.200028385159,Stationary traffic on US-1 S - FL-5 from SE Village Green Dr / Crosstown Pkwy to SE Main St due to roadwork.,9059.0,S US Highway 1,R,Port Saint Lucie,St. Lucie,FL,34952,US,US/Eastern,KSUA,2021-12-16 17:48:00,75.0,75.0,69.0,30.15,10.0,ESE,8.0,0.0,Fair,False,False,False,False,False,False,False,False,False,False,False,False,False,Night,Night,Day,Day
C-1543728,2,2021-11-24 17:25:26.000000000,2021-11-24 19:28:07.000000000,33.53918400000001,-92.469718,33.537137,-92.469811,0.141535604412,Stationary traffic on AR-274 - US-167 S - US-167 N from AR-274 (US-167) to AR-172 (US-167) due to roadwork.,116.0,Dunn St,R,Hampton,Calhoun,AR,71744,US,US/Central,KCDH,2021-11-24 17:15:00,66.0,66.0,68.0,29.94,10.0,SE,7.0,0.0,Cloudy,False,False,False,False,False,False,False,False,False,False,False,False,False,Night,Day,Day,Day
C-1543729,2,2016-09-01 08:01:12.000000000,2016-09-01 14:01:12.000000000,35.10597,-80.34756,35.10879,-80.33548,0.710061602149,Between Sandy Smith Rd and NC-218 - Construction work.,7196.0,Sandy Smith Rd,R,Marshville,Union,NC,28103-9577,US,US/Eastern,KEQY,2016-09-01 07:53:00,70.0,,93.0,29.91,10.0,SW,4.6,,Clear,False,False,False,False,False,False,False,False,False,True,False,False,False,Day,Day,Day,Day
C-1543730,2,2020-08-26 01:31:00.000000000,2020-08-26 04:15:35.000000000,40.545161,-79.834696,40.542091,-79.839286,0.321050233319,Crash on PA 28 southbound at Exit 11: TO I-76 TURNPIKE/PA 910 - HARMAR. There is a ramp closure.,,PA-28 S,R,Cheswick,Allegheny,PA,15024,US,US/Eastern,KAGC,2020-08-26 01:53:00,68.0,68.0,68.0,28.74,10.0,NW,5.0,0.0,Fair,False,False,False,False,False,False,False,False,False,False,False,False,False,Night,Night,Night,Night
C-1543731,2,2021-07-02 16:45:13.000000000,2021-07-02 18:53:39.000000000,41.662447,-87.698073,41.662923,-87.699725,0.0913949824311999,Slow traffic from Sacramento Ave to Minnesota Ave due to roadwork.,3092.0,Burr Oak Ave,R,Blue Island,Cook,IL,60406-1828,US,US/Central,KMDW,2021-07-02 16:53:00,72.0,72.0,43.0,29.39,10.0,NNE,9.0,0.0,Mostly Cloudy,False,False,False,False,False,False,False,False,True,False,False,False,False,Day,Day,Day,Day
C-1543732,2,2020-09-10 16:57:30.000000000,2020-09-10 18:02:30.000000000,36.729701,-102.509969,36.729715,-102.512599,0.145642101622,Stationary traffic on US-287 from US-56/US-412/US-64/OK-3 (US-287) to US-412/Main St/S Cimarron Ave (US-287) due to roadwork.,,Murray Ave,R,Boise City,Cimarron,OK,73933,US,US/Mountain,KSPD,2020-09-10 16:56:00,49.0,49.0,71.0,25.82,,CALM,0.0,0.0,,False,False,True,False,False,False,False,False,False,True,False,False,False,Day,Day,Day,Day
C-1543733,2,2021-09-07 08:17:00.000000000,2021-09-07 10:25:17.000000000,33.551609,-112.258457,33.551738,-112.254122,0.2497753423580001,Stationary traffic from AZ-101 (W Northern Ave) to 83rd Ave (W Northern Ave) due to roadwork.,9259.0,W Northern Ave,R,Glendale,Maricopa,AZ,85305,US,US/Mountain,KGEU,2021-09-07 07:58:00,86.0,86.0,50.0,28.75,10.0,SW,6.0,0.0,Fair,False,False,True,False,False,False,False,False,False,False,False,False,False,Day,Day,Day,Day
C-1543734,3,2017-11-20 20:00:00.000000000,2017-11-22 05:00:00.000000000,32.880165000000005,-96.809762,32.83424,-96.81533,3.18952946149,Between Walnut Hill Ln and Mockingbird Ln - Construction work.,,Dallas North Tollway S,R,Dallas,Dallas,TX,75229,US,US/Central,KDAL,2017-11-20 19:53:00,59.0,,35.0,29.96,10.0,South,16.1,,Clear,False,False,False,False,True,False,False,False,False,False,False,True,False,Night,Night,Night,Night
C-1543735,4,2021-01-27 08:00:00.000000000,2021-02-04 07:59:59.000000000,38.748584,-77.510456,38.745775,-77.50828800000002,0.226532406644,Closed road from Godwin Dr to Nokesville Rd due to roadwork.,,University Blvd,R,Manassas,Manassas,VA,20110,US,US/Eastern,KHEF,2021-01-27 07:56:00,40.0,33.0,93.0,29.86,10.0,NNW,13.0,0.0,Cloudy,False,False,False,False,False,False,False,False,False,False,False,False,False,Day,Day,Day,Day
C-1543736,2,2021-11-13 23:04:30.000000000,2021-11-14 01:06:23.000000000,33.420999,-111.926257,33.422024,-111.927154,0.0877006559922,Slow traffic from E 8th St to E Alpha Dr due to roadwork.,843.0,S Rural Rd,L,Tempe,Maricopa,AZ,85281-2013,US,US/Mountain,KPHX,2021-11-13 22:51:00,68.0,68.0,30.0,28.87,10.0,E,7.0,0.0,Fair,False,False,True,False,False,False,False,False,False,False,False,False,False,Night,Night,Night,Night
C-1543737,2,2019-01-29 23:24:29.000000000,2019-01-30 04:59:00.000000000,34.206257,-118.218437,,,0.0,One lane closed due to electricity work on CA-2 Southbound at Exit 21C I-210.,,CA-2 S,R,La Canada Flintridge,Los Angeles,CA,91011,US,US/Pacific,KMWS,,,,,,,,,,,False,False,False,False,False,False,False,False,False,False,False,False,False,Night,Night,Night,Night
C-1543738,2,2021-12-09 15:48:50.000000000,2021-12-09 18:05:45.000000000,27.818073,-82.679458,27.821140000000003,-82.6802,0.216706096843,Slow traffic on US-19 N from 50th Ave N to 35th Way N due to roadwork.,5071.0,34th St N,R,Saint Petersburg,Pinellas,FL,33714-2430,US,US/Eastern,KSPG,2021-12-09 15:53:00,77.0,77.0,76.0,30.06,9.0,CALM,0.0,0.0,Cloudy,False,False,True,False,False,False,False,False,False,False,False,False,False,Day,Day,Day,Day
C-1543739,2,2021-09-01 15:46:00.000000000,2021-09-01 17:52:07.000000000,42.044661,-87.984499,42.04362,-87.983251,0.0963014883607999,Stationary traffic on IL-62 from S Reserve Dr to I-90 W due to roadwork.,43.0,W Algonquin Rd,R,Arlington Heights,Cook,IL,60005-4401,US,US/Central,KPWK,2021-09-01 15:52:00,76.0,76.0,45.0,29.32,10.0,N,14.0,0.0,Fair,False,False,False,False,False,False,False,False,False,False,False,False,False,Day,Day,Day,Day
C-1543740,2,2019-07-27 14:11:47.000000000,2019-07-31 14:11:28.000000000,39.55561,-104.87308,39.55655,-104.87786,0.262788383298,At I-25/US-87/E-470 - Roadwork.,,CO-470 W,R,Lone Tree,Douglas,CO,80124,US,US/Mountain,KAPA,2019-07-27 14:12:00,83.0,83.0,34.0,24.3,10.0,VAR,5.0,0.0,Mostly Cloudy,False,False,False,False,False,False,False,False,False,False,False,False,False,Day,Day,Day,Day
C-1543741,2,2021-09-08 10:18:00.000000000,2021-09-08 12:20:53.000000000,42.282029,-83.780366,42.280518,-83.779151,0.121478264429,Slow traffic on I-94 Bus W - I-94 Bus E from Dexter Ave / Dexter Rd to Collingwood Dr due to roadwork.,166.0,N Maple Rd,R,Ann Arbor,Washtenaw,MI,48103,US,US/Eastern,KARB,2021-09-08 09:53:00,68.0,68.0,78.0,28.85,10.0,W,12.0,0.0,Fair,False,False,True,False,False,False,False,False,False,True,False,False,False,Day,Day,Day,Day
C-1543742,2,2020-08-31 21:11:30.000000000,2020-08-31 22:28:28.000000000,40.747568,-73.88486400000002,40.753605,-73.885964,0.421071996026,Slow traffic from Roosevelt Ave (81st St) to NY-25A/Northern Blvd (81st St) due to resurfacing work.,3779.0,81st St,L,Jackson Heights,Queens,NY,11372-6977,US,US/Eastern,KLGA,2020-08-31 20:51:00,74.0,74.0,62.0,30.08,10.0,SE,7.0,0.0,Mostly Cloudy,True,False,True,False,False,False,True,False,True,False,False,True,False,Night,Night,Night,Night
C-1543743,4,2019-05-13 15:32:04.000000000,2019-05-13 17:30:00.000000000,33.81333,-118.16798,33.8131,-118.16712,0.0518643620774,Ramp closed to I-405/San Diego Fwy Southbound and E Spring St - Closed due to roadwork.,,I-405 S,R,Long Beach,Los Angeles,CA,90807,US,US/Pacific,KLGB,2019-05-13 15:53:00,68.0,68.0,65.0,29.92,10.0,S,7.0,0.0,Cloudy,False,False,False,False,False,False,False,False,False,False,False,False,False,Day,Day,Day,Day
C-1543744,2,2021-09-15 14:42:00.000000000,2021-09-15 18:00:17.000000000,38.927482,-77.036466,38.928644,-77.03535500000002,0.100059935789,Slow traffic from Harvard St NW to 14th St NW due to roadwork.,,16th St NW,R,Washington,District of Columbia,DC,20009,US,US/Eastern,KDCA,2021-09-15 14:52:00,90.0,90.0,40.0,29.92,10.0,SSW,13.0,0.0,Mostly Cloudy,True,False,False,False,False,False,False,False,False,False,False,False,False,Day,Day,Day,Day
C-1543745,2,2021-10-16 11:47:30.000000000,2021-10-16 13:48:58.000000000,26.273153000000004,-80.097658,26.275542,-80.09812099999998,0.1675381220099999,Slow traffic on US-1 N - FL-834 - FL-5 from NE 33rd St to NE 18th Ter due to roadwork.,3400.0,N Federal Hwy,L,Lighthouse Point,Broward,FL,33064-6608,US,US/Eastern,KPMP,2021-10-16 11:53:00,87.0,87.0,48.0,29.94,10.0,NNW,7.0,0.0,Partly Cloudy,False,False,False,False,False,False,False,False,False,False,False,False,False,Day,Day,Day,Day
C-1543746,2,2021-10-18 17:06:00.000000000,2021-10-18 17:26:40.000000000,40.747808,-73.98095699999998,40.748448,-73.982467,0.0905686336331,Stationary traffic from Park Ave to Madison Ave due to roadwork.,,E 35th St,R,New York,New York,NY,10016,US,US/Eastern,KNYC,2021-10-18 16:51:00,56.0,56.0,42.0,29.77,10.0,NW,15.0,0.0,Mostly Cloudy,True,False,False,False,False,False,False,False,True,False,False,True,False,Day,Day,Day,Day
C-1543747,2,2019-12-13 19:01:00.000000000,2019-12-14 08:01:00.000000000,37.92665,-122.06077,37.90789,-122.069,1.3716252350100002,Between Treat Blvd/Geary Rd and Route 24 - Maintenance work.,,I-680 S,R,Walnut Creek,Contra Costa,CA,94597,US,US/Pacific,KCCR,2019-12-13 18:53:00,59.0,59.0,69.0,30.03,10.0,CALM,0.0,0.0,Cloudy,False,False,False,False,False,False,False,False,False,False,False,False,False,Night,Night,Night,Night
C-1543748,3,2019-02-22 09:03:46.000000000,2019-02-27 09:01:29.000000000,34.021025,-84.489124,34.014781,-84.494419,0.527329704808,Between Ebenezer Rd NE and Marietta - Construction work. Lane blocked.,2883.0,Sandy Plains Rd,L,Marietta,Cobb,GA,30066-4552,US,US/Eastern,KRYY,2019-02-22 08:48:00,51.1,,96.0,29.35,0.5,Calm,,,Fog,False,False,True,False,False,False,False,False,False,False,False,True,False,Day,Day,Day,Day
C-1543749,3,2019-05-24 21:02:18.000000000,2019-05-30 21:01:13.000000000,25.84871,-80.31539000000002,25.8522,-80.31985999999998,0.367965741435,At W 18th Ave - Construction work. Left lane blocked.,2974.0,W Okeechobee Rd,R,Hialeah,Miami-Dade,FL,33012,US,US/Eastern,KOPF,2019-05-26 20:53:00,80.0,80.0,71.0,30.09,10.0,E,8.0,0.0,Fair,False,False,False,False,False,False,False,False,False,False,False,True,False,Night,Night,Night,Day
C-1543750,2,2021-11-30 10:16:30.000000000,2021-11-30 10:37:30.000000000,40.879579,-73.875365,40.881083,-73.87849399999998,0.193694345313,Slow traffic from Bronx River Pkwy (E Gun Hill Rd) to Jerome Ave (Gun Hill Rd) due to roadwork.,271.0,E Gun Hill Rd,L,Bronx,Bronx,NY,10467-2205,US,US/Eastern,KLGA,2021-11-30 09:51:00,41.0,36.0,47.0,30.0,10.0,SW,8.0,0.0,Cloudy,False,False,False,False,False,False,False,False,False,False,False,True,False,Day,Day,Day,Day
C-1543751,2,2021-05-06 07:40:25.000000000,2021-05-06 15:00:00.000000000,41.656712,-72.77172900000002,,,0.939999997616,Right hand shoulder closed due to construction work on CT-9 Northbound between Exit 24 CT-372 and Exit 25 Ellis St.,,CT-9 N,R,New Britain,Hartford,CT,06051,US,US/Eastern,KHFD,2021-05-06 07:53:00,54.0,54.0,55.0,29.87,10.0,NNW,14.0,0.0,Fair,False,False,False,False,False,False,False,False,False,False,False,False,False,Day,Day,Day,Day
C-1543752,2,2019-10-22 21:00:00.000000000,2019-10-23 05:00:00.000000000,40.33164,-104.98035,40.33136,-104.98035,0.0193461574738,At CO-56/Exit 250 - Construction work.,,I-25 S,R,Berthoud,Weld,CO,80513,US,US/Mountain,KFNL,2019-10-22 20:56:00,57.0,57.0,32.0,24.91,10.0,WNW,10.0,0.0,Partly Cloudy,False,False,False,False,False,False,False,False,False,False,False,False,False,Night,Night,Night,Night
C-1543753,2,2017-01-06 09:00:00.000000000,2017-01-06 15:00:00.000000000,37.35245,-121.99709,37.35245,-121.99709,0.0,At N Lawrence Expy - Construction work.,3599.0,El Camino Real,L,Santa Clara,Santa Clara,CA,95051-2123,US,US/Pacific,KSJC,2017-01-06 08:53:00,36.0,32.1,79.0,30.14,10.0,SSE,4.6,,Scattered Clouds,False,False,True,False,False,False,False,False,False,False,False,True,False,Day,Day,Day,Day
C-1543754,2,2021-12-17 09:27:30.000000000,2021-12-17 11:39:51.000000000,32.933466,-97.312364,32.933378000000005,-97.315346,0.173033950617,Slow traffic on FM-1709 from Alta Vista Rd (Golden Triangle Blvd) to I-35W/North Fwy (Golden Triangle Blvd) due to roadwork.,3199.0,Golden Triangle Blvd,R,Fort Worth,Tarrant,TX,76177-7100,US,US/Central,KAFW,2021-12-17 09:53:00,72.0,72.0,81.0,29.16,10.0,S,21.0,0.0,Cloudy / Windy,True,False,False,False,False,False,False,False,False,False,False,False,False,Day,Day,Day,Day
C-1543755,2,2016-07-28 08:58:04.000000000,2016-07-28 14:58:04.000000000,38.93788,-94.47671,38.93876,-94.50454,1.4968877506600002,Between Raytown Rd/Exit 4 and Blue Ridge Blvd/Exit 1 - Roadwork.,,I-470 W,R,Kansas City,Jackson,MO,64134,US,US/Central,KLXT,2016-07-28 08:53:00,78.1,,84.0,29.95,10.0,WNW,3.5,,Clear,False,False,False,False,False,False,False,False,False,False,False,False,False,Day,Day,Day,Day
C-1543756,2,2021-11-16 07:23:30.000000000,2021-11-16 07:44:30.000000000,39.703762,-104.912964,39.701744,-104.91141299999998,0.161983442431,Slow traffic on CO-83 from E Exposition Ave to S Niagara St due to roadwork.,701.0,S Monaco Street Pkwy,R,Denver,Denver,CO,80224-1526,US,US/Mountain,KBKF,2021-11-16 06:58:00,51.0,51.0,27.0,24.18,10.0,S,9.0,0.0,Mostly Cloudy,True,False,True,False,False,True,False,False,False,False,False,True,False,Day,Day,Day,Day
C-1543757,2,2018-07-20 09:02:01.000000000,2018-07-24 09:01:59.000000000,38.597091,-77.335668,38.592417,-77.33438000000002,0.33034794704,At Dumfries Rd - Construction work. Hard shoulder closed.,16370.0,Dumfries Rd,R,Dumfries,Prince William,VA,22025-1506,US,US/Eastern,KNYG,2018-07-20 08:56:00,75.9,,79.0,30.14,10.0,South,3.5,,Mostly Cloudy,False,False,False,False,False,False,False,False,False,False,False,True,False,Day,Day,Day,Day
C-1543758,2,2020-11-18 13:03:00.000000000,2020-11-18 17:01:30.000000000,40.757336,-73.98599399999998,40.756052,-73.986942,0.101647730187,Slow traffic from Broadway (7th Ave) to W 42nd St (7th Ave) due to roadwork.,198.0,W 44th St,L,New York,New York,NY,10036-4011,US,US/Eastern,KNYC,2020-11-18 12:51:00,34.0,26.0,38.0,30.36,10.0,NNW,10.0,0.0,Fair,True,False,True,False,False,False,True,False,True,False,False,True,False,Day,Day,Day,Day
C-1543759,2,2020-11-24 15:17:00.000000000,2020-11-24 23:45:55.000000000,41.133841,-112.064492,41.139865,-112.064452,0.416223964007,Stationary traffic on UT-108 from W 800 N (N 2000 W/UT-108) to UT-37/W 1800 N (N 2000 W/UT-108) due to roadwork.,1390.0,N 2000 W,R,Clearfield,Davis,UT,84015-8340,US,US/Mountain,KHIF,2020-11-24 14:58:00,37.0,33.0,52.0,25.29,10.0,NW,5.0,0.0,Partly Cloudy,True,False,False,False,False,False,False,False,False,False,False,True,False,Day,Day,Day,Day
C-1543760,2,2021-09-21 18:57:00.000000000,2021-09-21 20:59:04.000000000,25.923781,-80.15441899999998,25.926209,-80.154884,0.170229136235,Slow traffic on US-1 N - FL-826 - FL-5 from US-1 to W Dixie Hwy due to roadwork.,16007.0,Biscayne Blvd,L,North Miami Beach,Miami-Dade,FL,33160,US,US/Eastern,KHWO,2021-09-21 18:53:00,76.0,76.0,91.0,30.0,10.0,WNW,3.0,0.0,Fair,False,False,False,False,False,False,False,False,True,False,False,False,False,Day,Day,Day,Day
C-1543761,2,2020-08-24 16:00:00.000000000,2020-08-27 22:45:00.000000000,45.821724,-92.983571,45.849582,-92.974165,1.97734502014,Construction on I-35 near HILLSIDE AVE Construction. Expect long delays.,,I-35 N,R,Pine City,Pine,MN,55063,US,US/Central,KROS,2020-08-24 15:46:00,81.0,81.0,65.0,28.99,10.0,NNE,9.0,0.0,Mostly Cloudy,False,False,False,False,False,False,False,False,False,False,False,False,False,Day,Day,Day,Day
C-1543762,2,2020-06-09 07:06:39.000000000,2020-06-09 18:59:59.000000000,38.04678,-84.55195,38.04678,-84.55195,0.0,At Mason Headley Rd - Resurfacing work during the day time.,2300.0,Versailles Rd,R,Lexington,Fayette,KY,40504-1606,US,US/Eastern,KLEX,2020-06-09 06:54:00,72.0,72.0,78.0,28.85,10.0,ESE,8.0,0.0,Fair,False,False,False,False,False,False,False,False,False,False,False,True,False,Day,Day,Day,Day
C-1543763,2,2020-09-07 16:44:30.000000000,2020-09-07 22:55:53.000000000,43.61953,-116.351918,43.618685,-116.354611,0.146811227982,Queuing traffic on ID-55 from N Records Way to E Florence Dr due to roadwork.,3510.0,E Fairview Ave,L,Meridian,Ada,ID,83646,US,US/Mountain,KMAN,2020-09-07 16:35:00,82.0,82.0,21.0,27.2,3.0,NW,29.0,0.0,Haze / Windy,False,False,False,False,False,False,False,False,False,False,False,False,False,Day,Day,Day,Day
C-1543764,2,2021-11-03 15:57:30.000000000,2021-11-03 16:18:30.000000000,46.97417100000001,-109.745069,46.982964,-109.737116,0.713904226871,Stationary traffic on US-87 N - MT-200 - US-191 N - US-87 S - US-191 S from US-191/US-12 (US-191) to MT-238/1st Ave/Main St (US-191) due to roadwork.,,US Highway 191,R,Moore,Fergus,MT,59464,US,US/Mountain,KLWT,2021-11-03 15:54:00,57.0,57.0,39.0,25.8,,WNW,5.0,0.0,Fair,False,False,False,False,False,False,False,False,False,False,False,False,False,Day,Day,Day,Day
C-1543765,2,2021-10-25 06:46:00.000000000,2021-10-25 07:06:00.000000000,30.207219,-92.000473,30.200679,-91.999586,0.454964541026,Stationary traffic on US-90 E from Surrey St/E University Ave (US-90) to E Kaliste Saloom Rd (US-90) due to roadwork.,1600.0,SW Evangeline Trwy,R,Lafayette,Lafayette,LA,70508-2153,US,US/Central,KLFT,2021-10-25 06:53:00,71.0,71.0,100.0,29.89,0.25,CALM,0.0,0.0,Fog,False,False,False,False,False,False,False,False,False,False,False,False,False,Night,Night,Day,Day
C-1543766,2,2020-07-16 14:01:30.000000000,2020-07-17 00:15:00.000000000,41.51880900000001,-73.985303,41.520675,-74.003906,0.970970687697,Construction on Newburgh Beacon Bridge westbound Dutchess County Side (Beacon) to Orange County Bound (Newburgh/Beacon) right lane closed until 4:30 P.M. Speed Limit 45 mph.,,Beacon Brg W,R,Beacon,Dutchess,NY,12508,US,US/Eastern,KSWF,2020-07-16 13:45:00,77.0,77.0,61.0,29.76,10.0,SE,14.0,0.0,Mostly Cloudy,False,False,False,False,False,False,False,False,False,False,False,False,False,Day,Day,Day,Day
C-1543767,2,2021-11-11 07:02:00.000000000,2021-11-11 11:30:56.000000000,40.738616,-73.939566,40.74144,-73.953845,0.772560246896,Stationary traffic on I-495 E - I-495 W from Van Dam St exit [15] to Borden Ave due to roadwork.,,Long Island Expy W,R,Long Island City,Queens,NY,11101,US,US/Eastern,KNYC,2021-11-11 06:51:00,46.0,46.0,63.0,30.22,10.0,CALM,0.0,0.0,Fair,False,False,True,False,False,False,False,False,False,True,False,False,False,Day,Day,Day,Day
C-1543768,2,2020-04-17 06:15:36.000000000,2020-04-17 07:30:36.000000000,32.9487,-83.81267,32.9487,-83.81267,0.0,At US-41/Exit 15 - Roadwork. Left lane closed.,,GA-408 S,R,Macon,Monroe,GA,31210,US,US/Eastern,KMCN,2020-04-17 05:53:00,42.0,42.0,89.0,29.86,10.0,CALM,0.0,0.0,Fair,False,False,False,False,False,False,False,False,False,False,False,False,False,Night,Night,Day,Day
C-1543769,2,2021-10-15 21:10:00.000000000,2021-10-15 21:30:00.000000000,40.813893,-73.911817,40.81661,-73.919516,0.44420828693,Slow traffic from Bruckner Blvd (E 149th St) to Grand Concourse (E 149th St) due to roadwork.,501.0,Eagle Ave,L,Bronx,Bronx,NY,10455-2926,US,US/Eastern,KLGA,2021-10-15 20:51:00,72.0,72.0,66.0,29.85,10.0,S,7.0,0.0,Partly Cloudy,True,False,False,False,False,False,False,False,True,False,False,True,False,Night,Night,Night,Night
C-1543770,2,2021-11-05 16:34:33.000000000,2021-11-05 19:03:06.000000000,25.749454,-80.335813,25.746905,-80.335719,0.1762162545019999,Stationary traffic on County Hwy-913 - FL-973 from US-41/Tamiami Trl/SW 8th St (Galloway Rd/SW 87th Ave/FL-973) to FL-976/SW 40th St/Bird Rd (Galloway Rd/SW 87th Ave/FL-973) due to roadwork.,2214.0,SW 87th Ave,R,Miami,Miami-Dade,FL,33165-2090,US,US/Eastern,KMIA,2021-11-05 16:53:00,75.0,75.0,94.0,29.86,10.0,NE,7.0,0.01,Mostly Cloudy,False,False,True,False,False,False,False,False,True,False,False,False,False,Day,Day,Day,Day
C-1543771,2,2021-10-09 14:58:07.000000000,2021-10-09 15:18:07.000000000,35.186227,-89.79258,35.191902,-89.79241,0.392222642634,Stationary traffic on TN-177 from Chimney Rock Pkwy/Ambergate Ln (TN-177) to I-40 (TN-177) due to roadwork.,2238.0,N Germantown Pkwy,R,Cordova,Shelby,TN,38016-4487,US,US/Central,KNQA,2021-10-09 14:50:00,86.0,86.0,45.0,29.62,10.0,SW,14.0,0.0,Fair,False,False,False,False,False,False,False,False,False,False,False,False,False,Day,Day,Day,Day
C-1543772,2,2021-08-30 19:48:30.000000000,2021-09-17 00:44:00.000000000,33.557106,-117.681373,33.539476,-117.674623,1.2786280657200002,Construction on CA-73 SB near I-5 Construction. Drive with caution.,,CA-73 S,R,Laguna Niguel,Orange,CA,92677,US,US/Pacific,KSNA,2021-09-16 21:53:00,65.0,65.0,73.0,29.84,10.0,SW,3.0,0.0,Fair,False,False,False,False,False,False,False,False,False,False,False,False,False,Night,Night,Day,Day
C-1543773,2,2021-04-26 07:53:30.000000000,2021-04-26 13:02:00.000000000,29.760539,-98.712281,29.753979,-98.705034,0.628009686765,Stationary traffic from Daisy Ln to Scenic Loop Rd due to roadwork.,,IH 10 W,R,Boerne,Kendall,TX,78006,US,US/Central,K5C1,2021-04-26 07:55:00,63.0,63.0,100.0,28.45,7.0,SSE,12.0,0.0,Cloudy,False,False,False,False,False,False,False,False,False,False,False,True,False,Day,Day,Day,Day
C-1543774,2,2020-09-23 03:00:00.000000000,2020-09-23 12:45:00.000000000,30.342875,-91.026502,30.346415000000004,-91.028282,0.266626644099,Construction on I-10 WB near LA-427 Expect delays.,,I-10 W,R,Baton Rouge,East Baton Rouge,LA,70810,US,US/Central,KBTR,2020-09-23 02:53:00,73.0,73.0,90.0,29.84,10.0,E,10.0,0.0,Haze,False,False,False,False,False,False,False,False,False,False,False,False,False,Night,Night,Night,Night
C-1543775,2,2019-12-18 21:30:00.000000000,2019-12-19 06:00:00.000000000,28.368492,-81.368279,,,7.369999885560001,Intermittent lane closures due to construction work on FL-417-TOLL Central Florida Greeneway both ways from Exit 11 US-441 Orange Blossom Trl to Exit 14 Landstar Blvd.,,Central Florida Greeneway N,R,Orlando,Orange,FL,32824,US,US/Eastern,KMCO,2019-12-18 21:53:00,52.0,52.0,63.0,30.07,10.0,NNW,14.0,0.0,Fair,False,False,False,False,False,False,False,False,False,False,False,False,False,Night,Night,Night,Night
C-1543776,2,2021-08-30 05:06:49.000000000,2021-09-01 02:58:37.000000000,29.609949,-81.995311,29.620724,-81.967651,1.82063223573,Roadwork on FL-21/CR-20A/F T McMeekin Hwy (FL-20) from Medlock Ln (FL-20) to FL-20.,1823.0,State Road 20,R,Hawthorne,Putnam,FL,32640-5341,US,US/Eastern,KGNV,2021-08-30 04:53:00,77.0,77.0,96.0,29.88,9.0,SE,5.0,0.0,Fair,False,False,False,False,False,False,False,False,False,False,False,False,False,Night,Night,Night,Night
C-1543777,2,2021-02-24 09:01:00.000000000,2021-02-24 15:46:00.000000000,33.968936,-117.549017,33.898713,-117.560068,4.893129954019999,Construction on I-15 SB near 68TH ST Expect delays.,,I-15 S,R,Mira Loma,Riverside,CA,91752,US,US/Pacific,KRAL,2021-02-24 08:53:00,59.0,59.0,39.0,29.2,10.0,CALM,0.0,0.0,Fair,False,False,False,False,False,False,False,False,False,False,False,False,False,Day,Day,Day,Day
C-1543778,2,2020-10-30 14:22:30.000000000,2020-10-31 00:28:14.000000000,33.39145,-112.064671,33.392235,-112.06553,0.0734669124638,Stationary traffic from E Old Southern Ave to S 6th St due to roadwork.,5992.0,S 7th St,R,Phoenix,Maricopa,AZ,85042,US,US/Mountain,KPHX,2020-10-30 14:51:00,86.0,86.0,14.0,28.75,10.0,ESE,7.0,0.0,Mostly Cloudy,False,False,False,False,False,False,False,False,True,True,False,False,False,Day,Day,Day,Day
C-1543779,2,2021-03-07 13:55:25.000000000,2021-03-07 17:31:00.000000000,32.802266,-96.626423,32.818199,-96.628648,1.10842203636,Slow traffic on I-635 N - LBJ Fwy N from Town East Blvd exit [7] to exit [8A] due to roadwork.,,I-635 N,R,Mesquite,Dallas,TX,75150,US,US/Central,KHQZ,2021-03-07 13:50:00,64.0,64.0,26.0,29.88,10.0,E,14.0,0.0,Fair,False,False,False,False,True,False,False,False,False,False,False,False,False,Day,Day,Day,Day
C-1543780,2,2016-08-09 22:00:58.000000000,2016-08-10 04:00:58.000000000,41.31083,-112.02611,41.19216,-112.00466000000002,8.2746792871,Between UT-134/Exit 349 and I-84/Exit 340 - Roadwork.,,I-84 E,R,Ogden,Weber,UT,84404,US,US/Mountain,KOGD,2016-08-09 21:53:00,75.0,,27.0,29.63,10.0,NNW,18.4,,Clear,False,False,False,False,True,False,False,False,False,False,False,False,False,Night,Night,Night,Day
C-1543781,2,2021-01-30 19:02:00.000000000,2021-01-31 19:55:14.000000000,40.75352700000001,-78.534295,40.752189,-78.534662,0.0944215616633999,Construction on PA-53 SB near PRINCE ST Drive with caution.,1454.0,Main St,R,Coalport,Clearfield,PA,16627-9322,US,US/Eastern,KFIG,2021-01-30 18:54:00,23.0,23.0,60.0,28.61,10.0,CALM,0.0,0.0,Fair,False,False,False,False,False,False,False,False,False,False,False,False,False,Night,Night,Night,Day
C-1543782,2,2018-03-05 04:49:28.000000000,2018-03-05 06:18:00.000000000,40.747475,-74.00795,,,0.0599999986589,Right lane closed due to paving repairs on NY-9A 11th Ave Northbound between 20th St and 21st St.,,11th Ave,R,New York,New York,NY,10011,US,US/Eastern,KNYC,2018-03-05 04:51:00,34.0,28.8,61.0,30.02,10.0,Variable,5.8,,Overcast,True,False,True,False,False,False,False,False,False,False,False,False,False,Night,Night,Night,Night
C-1543783,2,2017-05-31 07:53:24.000000000,2017-05-31 15:26:36.000000000,40.44195,-79.82573000000002,40.44214,-79.82311999999997,0.137871727481,At PA-791/Exit 81 - Roadwork. Hard shoulder closed.,,Parkway East,R,Pittsburgh,Allegheny,PA,15235,US,US/Eastern,KAGC,2017-05-31 07:53:00,60.1,,78.0,30.03,10.0,South,8.1,,Clear,False,False,False,False,False,False,False,False,False,False,False,False,False,Day,Day,Day,Day
C-1543784,2,2021-11-09 17:19:01.000000000,2021-11-09 17:39:30.000000000,40.12883400000001,-74.976025,40.131526,-74.974132,0.211178437483,Slow traffic on PA-132 from Somerton Rd to US-1 S / Street Rd due to roadwork.,2799.0,Old Lincoln Hwy,R,Feasterville Trevose,Bucks,PA,19053-6809,US,US/Eastern,KPNE,2021-11-09 16:54:00,65.0,65.0,47.0,29.93,10.0,W,7.0,0.0,Fair,False,False,False,False,False,False,False,False,False,False,False,False,False,Night,Night,Day,Day
C-1543785,2,2020-11-17 14:06:00.000000000,2020-11-18 01:34:41.000000000,27.841978000000005,-82.78715799999998,27.839651,-82.78714000000002,0.160784148253,Stationary traffic on US-19 Alt S - FL-595 from 102nd Ave (US-19 Alt) to Park Blvd (US-19 Alt) due to roadwork.,,Johnson Blvd,R,Seminole,Pinellas,FL,33772,US,US/Eastern,KPIE,2020-11-17 13:53:00,75.0,75.0,33.0,30.18,10.0,NE,10.0,0.0,Fair,False,False,True,False,False,False,False,False,False,False,False,True,False,Day,Day,Day,Day
C-1543786,2,2021-03-04 09:57:44.000000000,2021-03-04 15:15:00.000000000,40.711679,-73.993234,40.702478,-73.988068,0.690914452668,Construction on MANHATTAN BRG EB near MANHATTAN Construction. Right lane closed.,,Manhattan Brg S,R,New York,New York,NY,10002,US,US/Eastern,KJRB,2021-03-04 09:51:00,40.0,32.0,45.0,29.73,10.0,WNW,14.0,0.0,Cloudy,False,False,True,False,False,False,False,False,False,False,False,False,False,Day,Day,Day,Day
C-1543787,4,2020-11-19 08:00:00.000000000,2020-11-20 08:45:00.000000000,41.611256,-93.694256,41.611277,-93.697735,0.179727190497,Construction on FRANKLIN AVE WB near MERLE HAY RD Road closed. Take alternate route.,1901.0,Merklin Way,R,Des Moines,Polk,IA,50310-1037,US,US/Central,KIKV,2020-11-19 07:55:00,57.0,57.0,51.0,28.86,10.0,SSW,15.0,0.0,Fair,True,False,False,False,False,False,False,False,False,False,False,False,False,Day,Day,Day,Day
C-1543788,2,2021-05-02 07:00:00.000000000,2021-05-02 19:45:00.000000000,40.272977,-118.364808,40.341796,-118.313734,5.46363455377,Construction on I-80 EB near US-95 Allow extra time.,,I-80 E,R,Lovelock,Pershing,NV,89419,US,US/Pacific,KLOL,2021-05-02 06:53:00,50.0,50.0,63.0,25.98,10.0,NNE,5.0,0.0,Cloudy,False,False,False,False,False,False,False,False,False,False,False,False,False,Day,Day,Day,Day
C-1543789,2,2021-10-30 14:45:00.000000000,2021-10-30 15:25:30.000000000,39.763541,-105.02528999999998,39.759093,-105.025296,0.307327695379,Slow traffic on US-287 S from W 38th Ave (Federal Blvd/US-287) to W 26th Ave (Federal Blvd/US-287) due to roadwork.,3307.0,N Federal Blvd,R,Denver,Denver,CO,80211-3213,US,US/Mountain,KBJC,2021-10-30 14:47:00,68.0,68.0,18.0,24.39,10.0,NE,10.0,0.0,Mostly Cloudy,False,False,True,False,False,True,False,False,False,False,False,True,False,Day,Day,Day,Day
C-1543790,2,2020-08-29 15:59:30.000000000,2020-08-29 20:00:05.000000000,33.024299,-97.310904,33.018469,-97.314922,0.465234273015,Stationary traffic on FM-156 from TX-114 (FM-156) to Old FM-156 (FM-156) due to roadwork.,,Texan Dr,R,Justin,Denton,TX,76247,US,US/Central,KAFW,2020-08-29 15:53:00,106.0,106.0,27.0,28.97,10.0,WSW,14.0,0.0,Partly Cloudy,False,False,False,False,False,False,False,False,False,False,False,True,False,Day,Day,Day,Day
C-1543791,2,2021-05-11 20:00:00.000000000,2021-05-12 06:45:00.000000000,39.593085,-86.541849,39.574015,-86.619019,4.31537822725,Construction on I-70 WB near IN-39 Right lane blocked. Expect delays.,,I-70 W,R,Clayton,Morgan,IN,46118,US,US/Eastern,KIND,2021-05-11 19:54:00,53.0,53.0,43.0,29.43,10.0,N,10.0,0.0,Cloudy,False,False,False,False,False,False,False,False,False,False,False,False,False,Day,Day,Day,Day
C-1543792,2,2021-12-02 09:04:00.000000000,2021-12-02 09:18:00.000000000,40.580631,-75.71310600000002,40.577231,-75.793716,4.23670337315,Slow traffic on US-22 W - I-78 W from PA-863/Exit 45 (I-78) to PA-737/Exit 40 (I-78) due to roadwork.,,I-78 W,R,Kutztown,Lehigh,PA,19530,US,US/Eastern,KRDG,2021-12-02 08:54:00,42.0,42.0,100.0,29.44,4.0,CALM,0.0,0.0,Patches of Fog,False,False,False,False,True,False,False,False,False,False,False,False,False,Day,Day,Day,Day
C-1543793,2,2017-07-15 21:01:46.000000000,2017-07-16 03:01:46.000000000,41.68255300000001,-83.695061,41.654697,-83.6952,1.9246796658400005,Between US-23/Exit 14 and OH-2/Airport Hwy/Exit 8 - Construction work.,,I-475 W,R,Toledo,Lucas,OH,43615,US,US/Eastern,KDUH,2017-07-15 20:54:00,70.9,,78.0,30.01,10.0,Calm,,,Clear,False,False,False,False,False,False,False,False,False,False,False,False,False,Day,Day,Day,Day
C-1543794,2,2021-06-30 16:44:30.000000000,2021-06-30 18:51:28.000000000,33.496301,-111.926172,33.494906,-111.925513,0.103594972149,Slow traffic from E 3rd Ave to N Brown Ave due to roadwork.,4171.0,N Scottsdale Rd,R,Scottsdale,Maricopa,AZ,85251-3907,US,US/Mountain,KPHX,2021-06-30 16:51:00,102.0,102.0,21.0,28.6,10.0,NW,8.0,0.0,Fair,True,False,False,False,False,False,False,False,True,False,False,False,False,Day,Day,Day,Day
C-1543795,4,2021-01-05 15:15:47.000000000,2021-01-13 07:59:00.000000000,25.814368,-80.12204,25.814461,-80.12279699999998,0.0475207316802,Closed road from Miami Beach to Collins Ave due to roadwork.,1.0,43rd St,R,Miami Beach,Miami-Dade,FL,33140,US,US/Eastern,KMIA,2021-01-05 14:53:00,71.0,71.0,35.0,30.0,10.0,NW,8.0,0.0,Fair,True,False,True,False,False,False,False,False,True,False,False,True,False,Day,Day,Day,Day
C-1543796,2,2021-04-22 06:14:00.000000000,2021-04-22 09:40:00.000000000,37.838155,-94.703389,37.839458,-94.702563,0.100680680251,Stationary traffic on KS-7 - KS-7 N - US-69 N from Jayhawk Rd (KS-7/Fairway Dr/US-69) to US-54/E Wall St (US-54/KS-7/US-69) due to roadwork.,,KS-7,R,Fort Scott,Bourbon,KS,66701,US,US/Central,KFSK,2021-04-22 06:15:00,31.0,31.0,98.0,29.19,10.0,CALM,0.0,0.0,Fair,False,False,False,False,False,False,False,False,False,False,False,False,False,Night,Day,Day,Day
C-1543797,2,2021-10-29 14:31:30.000000000,2021-10-29 14:53:30.000000000,40.054131,-75.35035500000002,40.05288400000001,-75.34944300000002,0.0987415153643,Stationary traffic from Gulph Creek Rd to I-476 S due to roadwork.,1382.0,County Line Rd,L,Wayne,Montgomery,PA,19087-4611,US,US/Eastern,KLOM,2021-10-29 14:35:00,58.0,58.0,69.0,29.36,10.0,E,20.0,0.0,Cloudy,False,False,False,False,False,False,False,False,False,False,False,True,False,Day,Day,Day,Day
C-1543798,2,2021-06-11 18:44:28.000000000,2021-06-11 19:05:07.000000000,42.718552,-87.839127,42.717554,-87.836138,0.166664326698,Slow traffic on WI-20 from Perry Ave to 13th St due to roadwork.,4923.0,Washington Ave,L,Racine,Racine,WI,53406-4221,US,US/Central,KRAC,2021-06-11 18:53:00,75.0,75.0,82.0,29.16,10.0,N,10.0,0.0,Thunder in the Vicinity,False,False,True,False,False,False,False,False,True,False,False,False,False,Day,Day,Day,Day
C-1543799,2,2021-05-07 12:01:38.000000000,2021-05-07 15:15:00.000000000,35.859814,-121.42361499999998,,,4.44000005722,One lane closed due to maintenance work on CA-1 Southbound between Los Burros Rd and Cruickshank.,73527.0,Cabrillo Hwy,L,Big Sur,Monterey,CA,93920,US,US/Pacific,KMRY,2021-05-07 11:54:00,60.0,60.0,57.0,29.88,10.0,W,9.0,0.0,Partly Cloudy,False,False,False,False,False,False,False,False,False,False,False,False,False,Day,Day,Day,Day
C-1543800,4,2019-05-02 22:50:44.000000000,2019-05-06 22:50:29.000000000,28.548140000000004,-81.43652,28.54819,-81.4355,0.0620029165768,Closed at SR-408-TOLL/East-West Expy - Closed due to roadwork.,,E West Expy E,R,Orlando,Orange,FL,32811,US,US/Eastern,KORL,2019-05-02 22:53:00,75.0,75.0,90.0,29.89,10.0,E,6.0,0.0,Fair,False,False,False,False,False,False,False,False,False,False,False,False,False,Night,Night,Night,Night
C-1543801,2,2021-08-16 17:23:22.000000000,2021-08-16 17:46:37.000000000,25.939957,-80.27284399999998,25.939774,-80.27740899999998,0.283916593413,Stationary traffic on FL-860 from Douglas Rd/37th Ave (FL-860) to FL-847/47th Ave (FL-860) due to roadwork.,,NW 183rd St,R,Opa Locka,Miami-Dade,FL,33055,US,US/Eastern,KOPF,2021-08-16 16:53:00,86.0,86.0,63.0,29.93,10.0,SSW,7.0,0.0,Fair,False,False,True,False,False,False,False,False,True,True,False,True,False,Day,Day,Day,Day
C-1543802,4,2019-05-17 05:09:10.000000000,2019-05-17 10:08:55.000000000,25.785183,-80.175289,25.787452,-80.178081,0.233985628547,Closed at Trooper Robert G Smith Brg - Closed due to roadwork.,,MacArthur Cswy W,R,Miami,Miami-Dade,FL,33132,US,US/Eastern,KMIA,2019-05-17 04:53:00,75.0,75.0,73.0,29.98,10.0,NNE,3.0,0.0,Fair,False,False,False,False,False,False,False,False,False,False,False,False,False,Night,Night,Night,Day
C-1543803,2,2021-03-10 12:30:00.000000000,2021-10-15 16:45:00.000000000,39.651444,-75.324963,39.649023,-75.30955300000002,0.8366847630230001,Construction on US-40 EB near NJ-45 Drive with caution.,60.0,East Ave,R,Woodstown,Salem,NJ,08098-1418,US,US/Eastern,KILG,2021-10-15 06:51:00,58.0,58.0,97.0,29.85,10.0,CALM,0.0,0.0,Fair,False,False,False,False,False,False,False,False,False,False,False,True,False,Day,Day,Day,Day
C-1543804,2,2019-06-10 06:30:00.000000000,2019-06-27 20:15:00.000000000,40.7394,-93.83858,40.73965,-93.76105,4.05880965488,At US-69/SW Lorraine St - Roadwork.,19229.0,State Highway 2,R,Decatur,Decatur,IA,50067,US,US/Central,KLWD,2019-06-10 12:53:00,74.0,74.0,34.0,29.1,10.0,WNW,10.0,0.0,Fair,False,False,False,False,False,False,False,False,False,False,False,False,False,Day,Day,Day,Day
C-1543805,3,2018-07-17 05:00:00.000000000,2018-12-31 17:01:00.000000000,38.266685,-104.605103,,,0.6399999856949999,Entry ramp to I-25 Southbound from E 1st St restrictions on entry ramp due to construction.,,US-85 S,R,Pueblo,Pueblo,CO,81003,US,US/Mountain,KPUB,2018-07-17 04:53:00,66.9,,81.0,29.99,10.0,NNW,5.8,,Clear,False,False,False,False,False,False,False,False,False,False,False,False,False,Night,Night,Day,Day
C-1543806,4,2021-04-24 19:10:00.000000000,2021-06-30 07:00:00.000000000,34.984106,-83.38467299999998,34.957079,-83.386415,1.86999066694,GA-15 - US-23 S - US-441 N - US-23 N - US-441 S is closed from GA--NC State Border (US-23) to US-76/GA-2/Rickman St/Savannah St (US-23) due to roadwork.,7649.0,Highway 441 N,L,Dillard,Rabun,GA,30537,US,US/Eastern,K1A5,2021-04-24 19:15:00,60.0,60.0,77.0,27.63,10.0,CALM,0.0,0.0,Cloudy,False,False,False,False,False,False,False,False,False,False,False,True,False,Day,Day,Day,Day
C-1543807,3,2020-03-26 16:07:48.000000000,2020-05-06 16:00:00.000000000,40.25907,-74.84733,40.26116,-74.84379,0.235990931001,Between Taylorsville Rd/Exit 51 and RT-29/Exit 1 - Roadwork. Lane blocked.,,I-295 N,R,Washington Crossing,Bucks,PA,18977,US,US/Eastern,KTTN,2020-03-26 15:53:00,57.0,57.0,49.0,29.69,10.0,SW,12.0,0.0,Fair,False,False,False,False,False,False,False,False,False,False,False,False,False,Day,Day,Day,Day
C-1543808,3,2018-09-21 21:00:00.000000000,2018-09-24 06:00:00.000000000,47.239449,-122.407227,,,9.88000011444,Intermittent lane closures narrow lanes and delays expected due to major construction on I-5 Southbound between WA-161 Enchanted Pkwy and WA-167 Bay St.,,E Bay St,R,Tacoma,Pierce,WA,98421,US,US/Pacific,KTIW,2018-09-21 20:53:00,62.1,,78.0,29.86,10.0,SSW,9.2,0.0,Light Rain,False,False,False,False,False,False,False,False,False,False,False,False,False,Night,Night,Night,Night
C-1543809,2,2021-03-15 06:25:17.000000000,2021-03-18 14:25:04.000000000,25.928198,-80.19918,25.928253,-80.204391,0.323826792522,Stationary traffic on FL-826 from NE 1st Ave to NW 2nd Ave due to roadwork.,59.0,NE 167th St,L,Miami,Miami-Dade,FL,33162-3402,US,US/Eastern,KHWO,2021-03-15 06:34:00,66.0,66.0,90.0,30.1,10.0,CALM,0.0,0.0,Mostly Cloudy,False,False,False,False,False,False,False,False,False,False,False,False,False,Night,Night,Night,Day
C-1543810,2,2021-12-21 15:32:30.000000000,2021-12-21 17:35:06.000000000,33.581458000000005,-112.218997,33.58079,-112.22037,0.0915225576577,Slow traffic from N 73rd Dr to W Comet Ave due to roadwork.,,W Peoria Ave,R,Peoria,Maricopa,AZ,85345,US,US/Mountain,KGEU,2021-12-21 15:58:00,64.0,64.0,29.0,28.89,10.0,CALM,0.0,0.0,Cloudy,False,False,False,False,False,False,False,False,False,False,False,False,False,Day,Day,Day,Day
C-1543811,2,2020-10-27 20:17:00.000000000,2020-10-28 00:55:04.000000000,38.733383,-105.526825,38.611603,-105.441435,9.59249491931,Roadwork on CO-9 from CR-102 (CO-9) to CR-11/High Park Rd (CO-9).,14599.0,State Highway 9,L,Guffey,Park,CO,80820,US,US/Mountain,K4BM,2020-10-27 20:15:00,30.0,30.0,32.0,20.85,10.0,CALM,0.0,0.0,Fair,False,False,False,False,False,False,False,False,False,False,False,False,False,Night,Night,Night,Night
C-1543812,2,2020-06-01 09:30:00.000000000,2020-06-01 15:30:00.000000000,41.2146,-73.72022,41.2146,-73.72022,0.0,At Green Ln - Roadwork. Ramp restrictions.,198.0,Preston Way,L,Mount Kisco,Westchester,NY,10549,US,US/Eastern,KHPN,2020-06-01 09:56:00,,,,29.75,,,,0.0,,False,False,False,False,False,False,False,False,False,False,False,False,False,Day,Day,Day,Day
C-1543813,2,2017-02-06 19:01:42.000000000,2017-02-07 01:01:42.000000000,36.059057,-80.17806999999998,35.97936,-79.97417,12.6555422351,Between Exit 196 and Greensboro Rd/Exit 69 - Construction work.,,US-311 S,R,Winston Salem,Forsyth,NC,27107,US,US/Eastern,KINT,2017-02-06 18:54:00,61.0,,34.0,30.11,10.0,South,4.6,,Clear,False,False,False,False,False,False,False,False,False,False,False,False,False,Night,Night,Night,Day
C-1543814,4,2018-10-02 01:00:13.000000000,2018-10-06 01:00:04.000000000,26.23387,-80.13683,26.23143,-80.13776999999997,0.178370293464,Ramp closed to Exit 36B - Closed due to roadwork.,,I-95 S,R,Pompano Beach,Broward,FL,33069,US,US/Eastern,KFXE,2018-10-02 01:04:00,80.1,,90.0,30.04,10.0,East,12.7,,Scattered Clouds,False,False,False,False,True,False,False,False,False,False,False,True,False,Night,Night,Night,Night
C-1543815,2,2021-04-07 03:00:30.000000000,2021-05-03 16:50:18.000000000,33.469906,-111.926208,33.465808,-111.926899,0.2859321987929999,Slow traffic from E Oak St to N 70th St due to roadwork.,2038.0,N Scottsdale Rd,R,Scottsdale,Maricopa,AZ,85257-2121,US,US/Mountain,KPHX,2021-05-03 05:51:00,68.0,68.0,28.0,28.46,10.0,E,7.0,0.0,Fair,False,False,False,False,False,False,False,False,True,False,False,False,False,Night,Night,Night,Night
C-1543816,2,2021-03-24 19:00:00.000000000,2021-03-25 00:00:01.000000000,39.744439,-105.456477,39.722294,-105.413456,2.75072852908,Crews are working behind barrier and in shoulders during daytime hours and various lane closures and mobile closures exist during overnight hours for construction activities related to the new Express Lane. Work also includes toll system testing.,,I-70 E,R,Evergreen,Clear Creek,CO,80439,US,US/Mountain,K0CO,2021-03-24 19:02:00,20.0,12.0,92.0,20.5,0.75,S,6.0,0.0,Light Snow,False,False,False,False,True,False,False,False,False,False,False,False,False,Day,Day,Day,Day
C-1543817,2,2021-05-13 06:37:00.000000000,2021-05-13 18:54:17.000000000,33.638853000000005,-112.175423,33.63903,-112.169255,0.355014888456,Slow traffic from N 55th Ave / W Talavi Blvd to N 51st Ave due to roadwork.,5395.0,W Bell Rd,L,Glendale,Maricopa,AZ,85308-3912,US,US/Mountain,KDVT,2021-05-13 06:53:00,66.0,66.0,21.0,28.35,10.0,CALM,0.0,0.0,Fair,False,False,True,False,False,False,False,False,False,False,False,True,False,Day,Day,Day,Day
C-1543818,2,2021-09-08 21:27:00.000000000,2021-09-08 21:40:00.000000000,40.762688,-74.009118,40.760076,-74.002832,0.375222016375,Slow traffic on NY-495 W - NY-495 E from NY--NJ State Border (Lincoln Tunnel (Inner Lane)/NY-495) to NY-495/Lincoln Tunnel Expy/Dyer Ave (Lincoln Tunnel (Inner Lane)/NY-495) due to roadwork.,,Lincoln Tunl,R,New York,New York,NY,10019,US,US/Eastern,KNYC,2021-09-08 21:51:00,76.0,,74.0,29.7,10.0,,,0.0,Fair,False,False,True,False,False,False,False,False,False,False,False,True,False,Night,Night,Night,Night
C-1543819,2,2020-11-05 14:15:30.000000000,2020-11-06 02:38:30.000000000,30.243866,-90.920803,30.246171,-90.920832,0.159269738497,Stationary traffic on LA-44 from LA-429/LA-3038 (LA-44) to US-61/N Airline Hwy (N Burnside Ave/LA-44) due to roadwork.,1423.0,N Burnside Ave,L,Gonzales,Ascension,LA,70737-2105,US,US/Central,KL38,2020-11-05 13:53:00,75.0,75.0,43.0,30.12,10.0,E,6.0,0.0,Fair,False,False,False,False,False,False,False,False,False,False,False,False,False,Day,Day,Day,Day
C-1543820,2,2021-04-30 05:29:00.000000000,2021-05-02 15:47:20.000000000,26.033335,-80.153419,26.032946,-80.14329599999998,0.6290429426690001,Slow traffic on US-1 N - FL-822 - US-1 S - FL-5 from N 23rd Ave to Sherman St due to roadwork.,2419.0,N 23rd Ave,R,Hollywood,Broward,FL,33020-2009,US,US/Eastern,KFLL,2021-04-30 05:30:00,77.0,77.0,90.0,30.0,7.0,NE,3.0,0.0,Light Rain,False,False,False,False,False,False,False,False,False,False,False,True,False,Night,Night,Night,Day
C-1543821,2,2021-03-29 07:43:05.000000000,2021-09-11 16:21:31.000000000,40.747662,-73.988597,40.749102,-73.992006,0.204304374644,Slow traffic from Broadway/6th Ave/Avenue of the Americas (W 31st St) to 7th Ave (W 31st St) due to roadwork.,64.0,W 31st St,L,New York,New York,NY,10001-3410,US,US/Eastern,KNYC,2021-09-11 15:51:00,75.0,,51.0,30.03,10.0,,,0.0,Mostly Cloudy,True,False,True,False,False,False,False,False,True,False,False,True,False,Day,Day,Day,Day
C-1543822,2,2020-08-31 13:03:00.000000000,2020-09-01 01:51:30.000000000,40.804695,-73.926541,40.80840900000001,-73.923326,0.30679122076,Queuing traffic from New York--Bronx County Border (Willis Ave) to 3rd Ave (Willis Ave) due to roadwork.,,Willis Ave,R,Bronx,Bronx,NY,10454,US,US/Eastern,KLGA,2020-08-31 12:51:00,73.0,73.0,59.0,30.06,10.0,NE,9.0,0.0,Mostly Cloudy,False,False,False,False,True,False,False,False,False,False,False,True,False,Day,Day,Day,Day
C-1543823,4,2019-04-07 23:16:11.000000000,2019-04-08 04:15:54.000000000,33.53009,-86.80253,33.52155,-86.823074,1.32226763537,Closed between 31st St/Exit 126B and I-65/Exit 124A - Closed due to roadwork.,,I-20 W,R,Birmingham,Jefferson,AL,35203,US,US/Central,KBHM,2019-04-07 22:53:00,71.0,71.0,75.0,29.39,10.0,SE,6.0,0.0,Partly Cloudy,False,False,False,False,True,False,False,False,False,False,False,False,False,Night,Night,Night,Night
C-1543824,2,2020-09-15 05:00:00.000000000,2020-09-20 23:45:00.000000000,40.925674,-73.841831,40.936298,-73.836515,0.784748910522,Construction on BRONX RIVER PKWY NB near CROSS COUNTY PKWY Construction. Expect long delays.,,Bronx River Pkwy N,R,Bronxville,Westchester,NY,10708,US,US/Eastern,KHPN,2020-09-15 04:56:00,48.0,44.0,68.0,29.81,10.0,NNW,8.0,0.0,Fair,False,False,False,False,False,False,False,False,False,False,False,False,False,Night,Night,Night,Night
C-1543825,2,2021-06-16 08:32:41.000000000,2021-06-16 09:00:22.000000000,40.796626,-73.970461,40.793392,-73.97284,0.2557618985379999,Slow traffic from W 110th St (Broadway) to W 86th St (Broadway) due to roadwork.,234.0,W 99th St,L,New York,New York,NY,10025-5433,US,US/Eastern,KNYC,2021-06-16 08:51:00,67.0,67.0,57.0,29.75,,CALM,0.0,0.0,Fair,True,False,True,False,False,False,True,False,True,False,False,True,False,Day,Day,Day,Day
C-1543827,2,2016-12-02 09:02:03.000000000,2016-12-02 15:02:03.000000000,39.312361,-76.45342,39.3071,-76.449729,0.413603527682,At Hyde Park Rd - Construction work.,,Southeast Blvd,R,Essex,Baltimore County,MD,21221,US,US/Eastern,KMTN,2016-12-02 08:45:00,46.4,41.5,53.0,30.05,10.0,West,10.4,,Mostly Cloudy,False,False,False,False,False,False,False,False,False,False,False,False,False,Day,Day,Day,Day
C-1543828,3,2018-11-15 21:00:00.000000000,2018-11-16 05:00:00.000000000,33.806923,-117.507568,,,4.94999980927,#3 lane closed due to construction work on I-15 Southbound between Exit 93 Ontario Ave and Exit 90 Weirick Rd.,,Weirick Rd,R,Corona,Riverside,CA,92883,US,US/Pacific,KAJO,2018-11-15 20:56:00,54.0,,37.0,30.07,10.0,North,,,Clear,False,False,False,False,False,False,False,False,False,False,False,False,False,Night,Night,Night,Night
C-1543829,2,2021-10-07 16:20:19.000000000,2021-10-14 02:58:45.000000000,25.845821,-80.245816,25.845961,-80.241811,0.249226685592,Stationary traffic on FL-934 from NW 32nd Ave (FL-934) to FL-9/NW 27th Ave (FL-934) due to roadwork.,7899.0,NW 30th Ave,R,Miami,Miami-Dade,FL,33147,US,US/Eastern,KOPF,2021-10-07 15:53:00,89.0,89.0,61.0,30.01,10.0,SE,16.0,0.0,Partly Cloudy,False,False,False,False,False,False,False,False,True,False,False,True,False,Day,Day,Day,Day
