ID,Severity,Start_Time,End_Time,Start_Lat,Start_Lng,End_Lat,End_Lng,Distance(mi),Description,Number,Street,Side,City,County,State,Zipcode,Country,Timezone,Airport_Code,Weather_Timestamp,Temperature(F),Wind_Chill(F),Humidity(%),Pressure(in),Visibility(mi),Wind_Direction,Wind_Speed(mph),Precipitation(in),Weather_Condition,Amenity,Bump,Crossing,Give_Way,Junction,No_Exit,Railway,Roundabout,Station,Stop,Traffic_Calming,Traffic_Signal,Turning_Loop,Sunrise_Sunset,Civil_Twilight,Nautical_Twilight,Astronomical_Twilight
C-1443677,2,2020-08-25 03:00:00,2020-08-27 09:06:07,39.833883,-75.09079,39.827993,-75.08633,0.470762738772,Construction roadwork on NJ 42 both directions from Exit 12 - NJ 41 (Deptford Twp) to Exit 10A - NJ 168/Black Horse Pike (Gloucester Twp) 1 lane closed until 5:00 A.M.,,N South Fwy S,R,Woodbury,Gloucester,NJ,08096,US,US/Eastern,KPHL,2020-08-25 02:54:00,77.0,77.0,90.0,29.92,10.0,SSW,7.0,0.0,Fair,False,False,False,False,False,False,False,False,False,False,False,False,False,Night,Night,Night,Night
C-1443678,2,2021-06-08 19:00:00,2021-12-20 17:57:30,25.897871,-80.180391,25.899849,-80.176793,0.26208476987,Slow traffic on FL-916 - FL-909 from NE 133rd St to NE 11th Ave due to roadwork.,13299.0,W Dixie Hwy,R,North Miami,Miami-Dade,FL,33161-4132,US,US/Eastern,KOPF,2021-11-09 15:53:00,78.0,78.0,50.0,30.08,10.0,NE,10.0,0.0,Partly Cloudy,False,False,False,False,False,False,False,False,True,False,False,False,False,Day,Day,Day,Day
C-1443679,2,2020-04-25 21:01:00,2020-04-26 06:59:00,33.70173,-117.94968,33.69551,-117.93506,0.943917871093,Between Talbert Ave and Euclid St / Ellis Ave - Maintenance work. Lane closed.,,I-405 S,R,Fountain Valley,Orange,CA,92708,US,US/Pacific,KSNA,2020-04-25 20:53:00,67.0,67.0,76.0,29.87,10.0,SSW,8.0,0.0,Fair,False,False,False,False,False,False,False,False,False,False,False,False,False,Night,Night,Night,Night
C-1443680,2,2021-09-25 15:15:00,2021-09-25 15:35:00,29.721626,-95.427739,29.725044,-95.427729,0.236162070279,Slow traffic from W Holcombe Blvd (Buffalo Speedway) to Bissonnet St (Buffalo Speedway) due to roadwork.,5609.0,Buffalo Speedway,L,Houston,Harris,TX,77005-2203,US,US/Central,KMCJ,2021-09-25 14:53:00,86.0,86.0,33.0,30.02,10.0,ENE,6.0,0.0,Fair,False,False,False,False,False,False,False,False,False,True,False,True,False,Day,Day,Day,Day
C-1443681,2,2021-11-17 15:26:02,2021-11-17 15:46:02,35.99856099999999,-93.70266,35.990288,-93.703219,0.5724633920109999,Stationary traffic on AR-23 - AR-127 from AR-74 (AR-127/AR-23) to CR-4 (AR-23) due to roadwork.,20956.0,Highway 23,R,Huntsville,Madison,AR,72740,US,US/Central,KASG,2021-11-17 15:48:00,54.0,54.0,67.0,28.58,10.0,N,14.0,,Cloudy,False,False,False,False,False,False,False,False,False,False,False,False,False,Day,Day,Day,Day
C-1443682,3,2020-06-19 01:06:32,2020-06-19 05:00:00,47.127251,-122.542267,,,0.0,Intermittent lane closures due to construction during the night on I-5 Southbound at Thorne Ln.,,I-5 S,R,Lakewood,Pierce,WA,98439,US,US/Pacific,KTCM,2020-06-19 00:58:00,55.0,55.0,83.0,29.7,10.0,CALM,0.0,0.0,Fair,False,False,False,False,False,False,False,False,False,False,False,True,False,Night,Night,Night,Day
C-1443683,2,2021-08-26 16:59:25,2021-08-26 17:24:13,42.265917,-71.121057,42.261607,-71.122157,0.303057926521,Slow traffic from Thatcher St/Greenwood Ave (Hyde Park Ave) to River St (Hyde Park Ave) due to roadwork.,,Thatcher St,R,Hyde Park,Suffolk,MA,02136,US,US/Eastern,KMQE,2021-08-26 16:53:00,93.0,93.0,49.0,29.96,10.0,WSW,8.0,0.0,Fair,False,False,False,False,False,False,False,False,True,False,False,True,False,Day,Day,Day,Day
C-1443684,2,2018-01-15 21:01:52,2018-01-16 03:01:52,27.77921,-82.659425,27.77921,-82.659425,0.0,At I-275/US-19-ALT/SR-595/5th Ave N - Construction work.,,I-275 N,R,Saint Petersburg,Pinellas,FL,33713,US,US/Eastern,KSPG,2018-01-15 20:53:00,57.0,,69.0,30.34,10.0,ENE,18.4,,Clear,False,False,False,False,False,False,False,False,False,False,False,False,False,Night,Night,Night,Night
C-1443685,2,2020-12-06 05:49:20,2020-12-07 06:34:21,33.228028,-80.591497,33.19520900000001,-80.6056,2.40967768347,Construction on I-95 SB near EXIT 77 Construction. Right lane closed.,,I-95 S,R,Saint George,Dorchester,SC,29477,US,US/Eastern,KRBW,2020-12-06 05:55:00,34.0,34.0,100.0,29.93,10.0,CALM,0.0,0.0,Fair,False,False,False,False,False,False,False,False,False,False,False,False,False,Night,Night,Night,Day
C-1443686,2,2021-11-29 16:20:01,2021-11-29 19:08:42,32.748061,-96.799383,32.750412,-96.802293,0.2344821945279999,Slow traffic on TX-342 from G C and S F R R to Monaghan Ct due to roadwork.,106.0,S Corinth Street Rd,L,Dallas,Dallas,TX,75203,US,US/Central,KRBD,2021-11-29 16:53:00,68.0,68.0,33.0,29.32,10.0,S,12.0,0.0,Fair,False,False,False,False,False,False,False,False,False,False,False,False,False,Day,Day,Day,Day
C-1443687,2,2016-08-31 20:27:53,2016-09-01 02:27:53,40.21016,-75.323662,40.227741,-75.333967,1.33084809341,Between I-276/Pennsylvania Tpke/Exit 20 and PA-63/Sumneytown Pike/Exit 31 - Construction work.,,NE Extension Penn Tpke N,R,Lansdale,Montgomery,PA,19446,US,US/Eastern,KLOM,2016-08-31 20:35:00,77.0,,78.0,29.89,10.0,WSW,4.6,,Scattered Clouds,False,False,False,False,False,False,False,False,False,False,False,False,False,Night,Night,Day,Day
C-1443688,2,2021-10-17 14:02:22,2021-10-17 16:05:55,33.909208,-84.37878,33.912126,-84.37894200000002,0.201828483815,Slow traffic on US-19 N - GA-9 - US-19 S from Glenridge Dr (GA-9/US-19) to I-285 (GA-9/US-19) due to roadwork.,5666.0,Roswell Rd NE,L,Atlanta,Fulton,GA,30342-1158,US,US/Eastern,KPDK,2021-10-17 13:53:00,66.0,66.0,34.0,29.09,10.0,NW,9.0,0.0,Fair,False,False,True,False,False,False,False,False,False,False,False,True,False,Day,Day,Day,Day
C-1443689,2,2021-10-14 07:10:00,2021-10-14 07:51:00,27.91658,-82.791092,27.91664500000001,-82.787873,0.196580956202,Stationary traffic on FL-686 from FL-686/Clearwater Largo Rd/W Bay Dr (US-19 Alt) to FL-686/Missouri Ave/Bay Dr (US-19 Alt) due to roadwork.,323.0,W Bay Dr,L,Largo,Pinellas,FL,33770-3303,US,US/Eastern,KPIE,2021-10-14 06:53:00,76.0,76.0,91.0,29.94,10.0,E,5.0,0.0,Fair,False,False,False,False,False,False,False,False,False,False,False,True,False,Night,Day,Day,Day
C-1443690,2,2018-08-06 18:55:30,2018-08-07 00:55:30,34.03393,-117.31361,34.039164,-117.30151399999998,0.781305005671,At Grand Terrace Rd - Roadwork.,22500.0,Barton Rd,L,Grand Terrace,San Bernardino,CA,92313,US,US/Pacific,KSBD,2018-08-06 18:50:00,100.4,,20.0,29.78,5.0,SW,11.5,,Smoke,False,False,False,False,False,False,False,False,False,False,False,True,False,Day,Day,Day,Day
C-1443691,2,2021-09-12 10:38:30,2021-09-12 12:44:38,27.464685,-81.434721,27.464631,-81.43377199999998,0.058299171741,Stationary traffic on US-27 S - FL-25 - FL-700 - US-98 E from L A Dr to Commerce Center Ln due to roadwork.,3793.0,US Highway 27 S,L,Sebring,Highlands,FL,33870-5459,US,US/Eastern,KBOW,2021-09-12 10:50:00,86.0,86.0,74.0,30.08,10.0,ENE,9.0,0.0,Mostly Cloudy,False,False,False,False,False,False,False,False,False,False,False,False,False,Day,Day,Day,Day
C-1443692,2,2020-08-24 16:30:00,2020-09-12 00:00:00,33.364847999999995,-111.652344,33.364787,-111.653404,0.0613132199188,Guadalupe &amp;#38; Joslyn - Construction - East and westbound right lane closed for underground COX Communication utility work by Talus Development TTCP Number: TTC20-02177,,E Guadalupe Rd,R,Mesa,Maricopa,AZ,85209,US,US/Mountain,KIWA,2020-08-24 16:50:00,111.0,111.0,12.0,28.25,10.0,VAR,6.0,0.0,Fair,False,False,True,False,False,False,False,False,False,False,False,True,False,Day,Day,Day,Day
C-1443693,2,2021-10-19 21:00:00,2021-10-19 23:59:59,41.702481,-73.93684,41.703511,-73.95178,0.773964422738,NYS Bridge Authority: construction on Mid Hudson Bridge westbound Dutchess County Side (Poughkeepsie) to Ulster County Side (Highland) Tuesday October 19th 2021 thru Wednesday October 20th 2021 09:00 PM thru 03:00 AM All lanes open,,Church St,R,Poughkeepsie,Dutchess,NY,12601,US,US/Eastern,KPOU,2021-10-19 20:53:00,57.0,57.0,57.0,29.72,10.0,SW,8.0,0.0,Fair,False,False,False,False,False,False,False,False,False,False,False,False,False,Night,Night,Night,Night
C-1443694,3,2020-07-14 08:10:51,2020-07-14 19:01:00,37.136383,-104.52047,,,3.47000002861,Speed restriction of 55 mph and right lane closed due to maintenance work on I-25 Southbound from Exit 13B US-160 Main St to Exit 11 County Road 69.4.,,I-25 N,R,Trinidad,Las Animas,CO,81082,US,US/Mountain,KTAD,2020-07-14 07:54:00,73.0,73.0,41.0,24.32,10.0,WSW,10.0,0.0,Fair,False,False,False,False,False,False,False,False,False,False,False,False,False,Day,Day,Day,Day
C-1443695,2,2021-01-13 16:30:00,2021-01-22 12:15:00,33.348872,-111.980416,33.348877,-111.98018700000002,0.0132215718611,Construction on ELLIOT RD near CHEYENNE DR Allow extra time.,,E Elliot Rd,R,Phoenix,Maricopa,AZ,85044,US,US/Mountain,KPHX,2021-01-13 16:51:00,66.0,66.0,11.0,28.94,10.0,SW,5.0,0.0,Mostly Cloudy,False,False,True,False,False,False,False,False,False,False,False,True,False,Day,Day,Day,Day
C-1443696,2,2020-11-20 23:32:34,2020-11-21 00:56:39,35.87013599999999,-80.705577,35.90734600000001,-80.622117,5.33250149688,Slow traffic on I-40 E from US-64/Exit 162 (I-40) to US-64/Exit 168 (I-40) due to roadwork.,,I-40 E,R,Mocksville,Davie,NC,27028,US,US/Eastern,KEXX,2020-11-20 23:35:00,44.0,44.0,100.0,29.61,10.0,CALM,0.0,0.0,Fair,False,False,False,False,False,False,False,False,False,False,False,False,False,Night,Night,Night,Night
C-1443697,2,2021-06-09 16:17:00,2021-06-09 19:53:30,39.80073,-100.534247,39.77178,-100.534507,2.00030212986,Stationary traffic on US-83 N - US-83 S from US-36/W Frontier Pkwy/N Antelope Ave (US-83) to KS-383 (Selden) (North) (US-83) due to roadwork.,,Highway 83,R,Oberlin,Decatur,KS,67749,US,US/Central,KMCK,2021-06-09 15:53:00,87.0,87.0,49.0,27.32,10.0,S,8.0,0.0,Mostly Cloudy,False,False,False,False,False,False,False,False,False,False,False,False,False,Day,Day,Day,Day
C-1443698,4,2019-08-05 22:52:20,2019-08-06 03:51:18,41.39856,-81.65201,41.41495,-81.64329000000002,1.21927369173,Closed at I-480/Exit 156 - Closed due to roadwork.,,I-77 N,R,Independence,Cuyahoga,OH,44131,US,US/Eastern,KBKL,2019-08-05 22:53:00,79.0,79.0,56.0,29.25,10.0,S,5.0,0.0,Fair,False,False,False,False,False,False,False,False,False,False,False,False,False,Night,Night,Night,Night
C-1443699,2,2021-08-16 17:12:35,2021-08-16 17:33:30,45.715058,-121.466281,45.720688,-121.470422,0.4372910073009999,Slow traffic on WA-141 from WA-14/W Steuben St/N Oak St (WA-141) to N Main Ave (WA-141) due to roadwork.,96.0,N Oak St,R,Bingen,Klickitat,WA,98605,US,US/Pacific,KDLS,2021-08-16 16:53:00,89.0,89.0,25.0,29.48,10.0,NW,20.0,0.0,Fair,False,False,True,False,False,False,False,False,False,False,False,False,False,Day,Day,Day,Day
C-1443700,2,2021-09-01 17:54:30,2021-09-01 18:32:30,41.688797,-87.700726,41.691576,-87.699608,0.200488186472,Stationary traffic from W 112th Pl to S Troy St due to roadwork.,11233.0,S Kedzie Ave,L,Chicago,Cook,IL,60655-2313,US,US/Central,KMDW,2021-09-01 17:53:00,74.0,74.0,46.0,29.33,10.0,NE,14.0,0.0,Fair,False,False,False,False,False,False,False,False,False,False,False,False,False,Day,Day,Day,Day
C-1443701,2,2019-04-01 05:36:00,2020-09-05 01:19:24,47.182619,-121.027907,47.186111,-120.990277,1.78345368137,Whether taking in the great outdoors or staying close to home the last holiday weekend of the summer typically brings additional traffic so planning and allowing extra travel time is crucial for this Labor Day weekend especially if you plan to travel on I-90 between North Bend and Cle Elum. The heaviest travel days will be eastbound on Friday and westbound on Monday. After the holiday weekend we will resume rock blasting closures with the first closure planned for an hour starting at 6:30 p.,,I-90 E,R,Cle Elum,Kittitas,WA,98922,US,US/Pacific,KSMP,2019-04-01 05:53:00,37.0,37.0,82.0,28.13,10.0,CALM,0.0,0.0,Mostly Cloudy,False,False,False,False,False,False,False,False,False,False,False,False,False,Night,Night,Day,Day
C-1443702,2,2021-08-31 12:09:30,2021-08-31 12:29:30,44.763668,-73.286908,44.769461,-73.29305,0.500985068113,Stationary traffic on US-2 W - US-2 E from VT-314/Island Acres/Allen Rd (US-2) to Lakeview Dr/Jerusalem Pl (US-2) due to roadwork.,418.0,US Route 2,R,Grand Isle,Grand Isle,VT,05458-2306,US,US/Eastern,KPBG,2021-08-31 11:53:00,77.0,77.0,54.0,29.48,10.0,VAR,7.0,0.0,Partly Cloudy,False,False,False,False,False,False,False,False,False,False,False,False,False,Day,Day,Day,Day
C-1443703,2,2019-08-13 05:21:40,2019-08-16 15:00:00,40.335251,-80.18177800000002,,,0.0,Intermittent lane closures due to construction work on Millers Run Rd both ways at Cecil Sturgeon Rd.,803.0,Millers Run Rd,L,Mc Donald,Allegheny,PA,15057,US,US/Eastern,KPIT,2019-08-13 05:51:00,68.0,68.0,84.0,28.56,10.0,CALM,0.0,0.0,Cloudy,False,False,False,False,False,False,False,False,False,False,False,False,False,Night,Night,Night,Day
C-1443704,1,2020-06-02 09:32:49,2020-06-02 15:00:00,39.22454000000001,-77.42638000000002,39.24866,-77.44242,1.87461156548,At Park Mills Rd - Roadwork. Single alternate lane traffic.,22546.0,Dickerson Rd,L,Dickerson,Montgomery,MD,20842,US,US/Eastern,KJYO,2020-06-02 09:52:00,59.0,59.0,72.0,29.78,10.0,CALM,0.0,0.0,Light Rain,False,False,False,False,False,False,False,False,False,False,False,False,False,Day,Day,Day,Day
C-1443705,2,2021-03-23 11:44:30,2021-03-23 17:07:00,47.391417,-122.626092,47.384691,-122.626101,0.4647225305879999,Stationary traffic on WA-302 from WA-16 (Port Orchard) (Purdy Dr/WA-302) to WA-302 NW (Purdy Dr/WA-302) due to roadwork.,,145th St NW,R,Gig Harbor,Pierce,WA,98332,US,US/Pacific,KTIW,2021-03-23 11:40:00,41.0,38.0,86.0,30.19,2.0,VAR,5.0,0.0,Fog,False,False,False,False,False,False,False,False,False,False,False,False,False,Day,Day,Day,Day
C-1443706,2,2020-04-24 07:04:20,2020-04-24 17:00:00,39.69197,-84.09886999999998,39.65767,-84.104,2.38555507899,At Wilmington Pike/Exit 7 - Roadwork. Single alternate lane traffic.,,I-675 S,R,Dayton,Greene,OH,45440,US,US/Eastern,KMGY,2020-04-24 06:53:00,48.0,44.0,96.0,28.69,3.0,N,8.0,0.0,Cloudy,False,False,False,False,True,False,False,False,False,False,False,False,False,Day,Day,Day,Day
C-1443707,2,2020-09-08 13:04:30,2020-09-09 00:33:11,41.864516,-88.2793,41.868911,-88.280273,0.307764919191,Slow traffic from Douglas Rd to Cleanwater Dr due to resurfacing work.,1339.0,N Kirk Rd,R,Batavia,Kane,IL,60510-1442,US,US/Central,KDPA,2020-09-08 12:59:00,60.0,60.0,90.0,29.24,10.0,E,16.0,0.0,Light Rain,False,False,False,False,False,False,False,False,False,False,False,False,False,Day,Day,Day,Day
C-1443708,2,2019-04-30 21:00:00,2019-05-01 05:00:00,28.574539,-81.558159,,,1.09000003338,Entry ramp to FL-429-Toll Southbound from Plant St closed due to construction work.,,Daniel Webster Western Beltway S,R,Ocoee,Orange,FL,34761,US,US/Eastern,KORL,2019-04-30 20:53:00,77.0,77.0,71.0,30.08,10.0,E,13.0,0.0,Fair,False,False,False,False,False,False,False,False,False,False,False,False,False,Night,Night,Night,Day
C-1443709,2,2021-11-13 14:40:00,2021-11-13 15:01:30,32.917821999999994,-105.960621,32.915004,-105.959196,0.2115218709919999,Slow traffic on US-70 Bus W - US-54 Bus S from 24th St to Indiana Ave due to roadwork.,2299.0,N White Sands Blvd,L,Alamogordo,Otero,NM,88310-6139,US,US/Mountain,KALM,2021-11-13 14:35:00,70.0,70.0,15.0,25.88,10.0,CALM,0.0,0.0,Fair,False,False,False,False,False,False,False,False,False,False,False,False,False,Day,Day,Day,Day
C-1443710,4,2021-10-05 17:44:40,2021-10-12 23:59:00,40.756737,-73.873609,40.7578,-73.860414,0.694481805018,NYSDOT - Region 11: Construction construction on Northern Blvd westbound between 108th Street (New York) and 97th Street (New York) All lanes closed from 7:00 P.M. until 6:00 A.M.,,Junction Blvd,R,Jackson Heights,Queens,NY,11372,US,US/Eastern,KLGA,2021-10-05 17:51:00,65.0,65.0,75.0,30.24,10.0,NE,6.0,0.0,Cloudy,True,False,False,False,False,False,False,False,True,False,False,True,False,Day,Day,Day,Day
C-1443711,2,2021-08-31 08:43:30,2021-08-31 09:24:30,42.689998,-83.371082,42.689583,-83.37288199999998,0.09580650922,Slow traffic from Seebaldt Ave to Blanchard Ct due to roadwork.,4163.0,W Walton Blvd,L,Waterford,Oakland,MI,48329-4179,US,US/Eastern,KPTK,2021-08-31 08:53:00,67.0,67.0,81.0,28.84,10.0,NE,5.0,0.0,Mostly Cloudy,True,False,True,False,False,False,False,False,False,False,False,False,False,Day,Day,Day,Day
C-1443712,2,2021-05-11 19:09:42,2021-05-12 06:45:00,41.163979,-73.379906,41.143129,-73.423536,2.6883648268,Construction on CT-15 SB near EXIT 41 Construction. Left lane closed.,,CT-15 S,R,Westport,Fairfield,CT,06880,US,US/Eastern,KBDR,2021-05-11 18:52:00,61.0,61.0,32.0,29.97,10.0,WNW,8.0,0.0,Cloudy,False,False,False,False,True,False,False,False,False,False,False,False,False,Day,Day,Day,Day
C-1443713,2,2021-11-19 17:28:07,2021-11-19 18:18:44,25.83867,-80.301788,25.841275,-80.306562,0.3471723180359999,Stationary traffic on FL-25 - US-27 N from W 19th St to NW South River Dr due to roadwork.,998.0,W 19th St,L,Hialeah,Miami-Dade,FL,33010-2309,US,US/Eastern,KMIA,2021-11-19 17:38:00,72.0,72.0,97.0,30.04,4.0,NNE,12.0,0.07,Rain,False,False,False,False,False,False,False,False,False,False,False,True,False,Day,Day,Day,Day
C-1443714,2,2021-05-04 14:43:30,2021-05-04 16:51:00,47.383392,-122.629873,47.383971,-122.626052,0.1831764847109999,Slow traffic on WA-302 from Goodrich Dr NW to Purdy Dr NW due to roadwork.,6894.0,State Route 302 NW,L,Gig Harbor,Pierce,WA,98329,US,US/Pacific,KPWT,2021-05-04 14:56:00,58.0,58.0,67.0,29.74,10.0,VAR,6.0,0.0,Mostly Cloudy,False,False,False,False,False,False,False,False,False,False,False,False,False,Day,Day,Day,Day
C-1443715,2,2020-11-13 04:58:55,2020-11-13 12:58:55,45.52968,-122.665172,45.531381,-122.665202,0.1175368764099999,Roadwork has the right lane closed NB between I-84 and Weidler. The off and on ramps to. NB at Weidler/Broadway are both closed. Ramps Affected.,,I-5 N,R,Portland,Multnomah,OR,97232,US,US/Pacific,KPDX,2020-11-13 04:53:00,48.0,43.0,86.0,29.36,7.0,SSE,13.0,0.18,Rain,False,False,False,False,False,False,False,False,False,False,False,False,False,Night,Night,Night,Night
C-1443717,2,2021-05-27 19:42:07,2021-05-28 01:06:21,29.537032,-95.1385,29.577142,-95.17536,3.54797331325,Roadwork on Bay Area Blvd exit [26] from Clear Lake City Blvd to I-45 N - I-45 S.,,I-45 S,R,Webster,Harris,TX,77598,US,US/Central,KEFD,2021-05-27 17:50:00,86.0,86.0,66.0,29.89,10.0,SSE,16.0,,Partly Cloudy,False,False,False,False,False,False,False,False,False,False,False,False,False,Day,Day,Day,Day
C-1443718,2,2021-11-24 16:00:00,2021-11-24 16:21:30,41.112984,-81.577143,41.109564,-81.569242,0.474351395411,Slow traffic on OH-18 from Ghent Rd (W Market St/OH-18) to OH-59 (W Market St/OH-18) due to roadwork.,1927.0,W Market St,R,Akron,Summit,OH,44313-6911,US,US/Eastern,KAKR,2021-11-24 15:54:00,49.0,45.0,36.0,29.03,10.0,S,9.0,0.0,Fair,True,False,True,False,False,False,False,False,False,False,False,True,False,Day,Day,Day,Day
C-1443719,2,2021-12-18 18:28:00,2021-12-18 21:14:51,33.055904,-96.682743,33.056396,-96.681075,0.102400556914,Stationary traffic from Desmoines Dr to Hickory Hill Dr due to roadwork.,2034.0,E Spring Creek Pkwy,R,Plano,Collin,TX,75074-3205,US,US/Central,KADS,2021-12-18 18:47:00,46.0,41.0,53.0,29.56,10.0,N,12.0,0.0,Fair,False,False,False,False,False,False,False,False,False,False,False,False,False,Night,Night,Night,Day
C-1443720,2,2020-12-30 13:30:30,2020-12-30 20:14:30,39.686994,-75.594918,39.689249,-75.596331,0.172973166257,Stationary traffic on US-202 N - DE-141 from US-40/US-13/N Dupont Pkwy (US-202/Basin Rd/DE-141) to DE-37/Commons Blvd (US-202/Basin Rd/DE-141) due to roadwork.,708.0,W Basin Rd,L,New Castle,New Castle,DE,19720-1706,US,US/Eastern,KILG,2020-12-30 13:51:00,43.0,36.0,45.0,30.25,10.0,SSW,14.0,0.0,Fair,False,False,False,False,False,False,False,False,False,False,False,False,False,Day,Day,Day,Day
C-1443721,4,2021-08-05 08:00:00,2021-08-05 17:00:00,39.804814,-76.866334,39.804097,-76.870699,0.236930796999,SR 3041 is closed from Pentland Rd to Park Rd due to roadwork.,1502.0,Sinsheim Rd,R,Spring Grove,York,PA,17362-8300,US,US/Eastern,KTHV,2021-08-05 07:53:00,62.0,62.0,86.0,29.62,10.0,CALM,0.0,0.0,Fair,False,False,True,False,False,False,True,False,False,False,False,False,False,Day,Day,Day,Day
C-1443722,2,2021-06-12 08:43:00,2021-06-12 09:34:30,43.695083,-100.705479,43.637673,-100.742919,4.38588146815,Stationary traffic on US-83 N - US-83 S from I-90 Bus (US-83) to SD-44 (White River) (North) (US-83) due to roadwork.,,US Highway 83,R,White River,Mellette,SD,57579,US,US/Central,KICR,2021-06-12 08:53:00,71.0,71.0,42.0,27.94,10.0,S,12.0,0.0,Fair,False,False,False,False,False,False,False,False,False,False,False,False,False,Day,Day,Day,Day
C-1443724,2,2020-04-29 01:18:00,2020-04-29 03:23:45,33.749717,-117.867591,33.749717,-117.867591,0.0,At 1st St - Lane control signs not working.,100.0,E Santa Ana Blvd,R,Santa Ana,Orange,CA,92701,US,US/Pacific,KSNA,2020-04-29 00:57:00,67.0,67.0,76.0,29.92,9.0,SSW,5.0,0.0,Mostly Cloudy,True,False,False,False,False,False,False,False,False,False,False,True,False,Night,Night,Night,Night
C-1443725,2,2021-12-01 14:12:30,2021-12-01 16:14:52,27.893197,-82.787025,27.895501,-82.78704300000003,0.159195033396,Slow traffic on US-19 Alt N - FL-595 from Walsingham Rd (US-19 Alt) to 8th Ave (US-19 Alt) due to roadwork.,13233.0,Seminole Blvd,L,Largo,Pinellas,FL,33773,US,US/Eastern,KPIE,2021-12-01 13:53:00,73.0,73.0,57.0,30.14,10.0,NE,6.0,0.0,Fair,False,False,False,False,False,False,False,False,True,False,False,False,False,Day,Day,Day,Day
C-1443726,2,2018-12-10 08:00:00,2018-12-10 16:30:00,37.427759,-105.436194,37.42765900000001,-105.435149,0.0577524016941999,At CO-150 - Roadwork.,407.0,4th Ave,R,Fort Garland,Costilla,CO,81133,US,US/Mountain,KVTP,,,,,,,,,,,False,False,False,False,False,False,False,False,False,False,False,False,False,Day,Day,Day,Day
C-1443727,2,2021-04-15 05:49:30,2021-04-16 05:21:00,39.625557,-105.189295,39.619555,-105.228172,2.11018596621,Slow traffic on US-285 S from CO-470 (US-285) to CR-120/S Parmalee Gulch Rd (US-285) due to roadwork.,,US-285 S,R,Morrison,Jefferson,CO,80465,US,US/Mountain,KBJC,2021-04-15 05:52:00,32.0,27.0,75.0,24.37,10.0,N,5.0,0.0,Cloudy,False,False,False,False,False,False,False,False,False,False,False,False,False,Night,Night,Day,Day
C-1443728,2,2021-12-16 13:50:00,2021-12-16 15:59:02,27.91545300000001,-82.787706,27.91664,-82.787061,0.0909781022218,Slow traffic on FL-686 - US-19 Alt N - FL-595 from US-19 Alt to Central Park Dr due to roadwork.,150.0,Seminole Blvd,L,Largo,Pinellas,FL,33771,US,US/Eastern,KPIE,2021-12-16 13:53:00,82.0,82.0,58.0,30.13,10.0,ESE,14.0,0.0,Partly Cloudy,False,False,True,False,False,False,True,False,False,False,False,False,False,Day,Day,Day,Day
C-1443729,2,2020-10-15 16:37:30,2020-10-15 18:20:30,40.748953,-73.996835,40.746044,-73.99051899999998,0.386911596881,Slow traffic from 9th Ave to Avenue of the Americas due to resurfacing work.,306.0,W 28th St,L,New York,New York,NY,10001-5900,US,US/Eastern,KNYC,2020-10-15 16:51:00,67.0,67.0,68.0,29.84,10.0,VAR,6.0,0.0,Fair,True,False,False,False,False,False,False,False,False,False,False,True,False,Day,Day,Day,Day
C-1443730,3,2020-03-28 16:43:37,2020-04-01 16:42:53,42.33345,-83.04675999999998,42.33293,-83.04785,0.0662601867526,At M-1/Woodward Ave - Roadwork.,1199.0,Farmer St,L,Detroit,Wayne,MI,48226-2265,US,US/Eastern,KDET,2020-03-28 16:40:00,50.0,50.0,100.0,29.13,3.0,SE,5.0,0.0,Cloudy,True,False,True,False,False,False,True,False,True,False,False,True,False,Day,Day,Day,Day
C-1443731,2,2021-07-26 19:00:00,2021-07-28 23:59:59,42.924109,-78.84214899999998,42.924939,-78.845969,0.201596924012,Roadwork on NY 198 westbound between Exit - NY 33; Kensington Expressway (Buffalo) and Agassiz Circle Access; Parkside Avenue (Buffalo) Monday July 26th 2021 thru Thursday July 29th 2021 Monday/Tuesday/Wednesday 07:00 PM thru 02:00 AM 1 Right lane of 2 lanes closed,,Kensington Expy W,R,Buffalo,Erie,NY,14214,US,US/Eastern,KBUF,2021-07-26 18:54:00,79.0,79.0,69.0,29.16,10.0,SW,10.0,0.0,Partly Cloudy,False,False,False,False,True,False,False,False,False,False,False,False,False,Day,Day,Day,Day
C-1443732,2,2021-03-01 07:30:00,2021-12-20 21:52:29,26.652113,-80.203547,26.650667,-80.199787,0.252771772886,Slow traffic on FL-7 - FL-882 - US-441 S from Medical Park Blvd to Olympia Blvd due to roadwork.,1693.0,S State Road 7,L,Wellington,Palm Beach,FL,33414,US,US/Eastern,KPBI,2021-12-13 14:53:00,81.0,81.0,67.0,30.2,10.0,E,8.0,0.0,Partly Cloudy,False,False,False,False,False,False,False,False,False,False,False,False,False,Day,Day,Day,Day
C-1443733,2,2021-02-24 23:45:00,2021-02-25 06:00:00,37.549364,-77.432149,37.549885,-77.434831,0.151263195229,On I-64 West in the City of Richmond at mile marker 191 motorists can expect potential delays in this area from 02/24/21 at 11:45 PM until 02/25/21 at 6:00 AM due to bridge work. Alternating lane closures exist.,,I-64 W,R,Richmond,Richmond City,VA,23219,US,US/Eastern,KRIC,2021-02-24 23:54:00,56.0,56.0,45.0,29.72,10.0,SSW,13.0,0.0,Fair,False,False,False,False,False,False,False,False,False,False,False,False,False,Night,Night,Night,Night
C-1443734,2,2021-02-14 22:23:30,2021-02-15 00:30:00,30.80634,-101.985373,30.840323,-102.041015,4.05127005005,Slow traffic on I-10 W from Frontage Rd/Exit 320 (I-10) to US-190/Exit 307 (I-10) due to roadwork.,,I-10 W,R,Iraan,Pecos,TX,79744,US,US/Central,KOZA,2021-02-14 13:35:00,18.0,,79.0,27.64,2.0,,,0.0,Light Snow,False,False,False,False,True,False,False,False,False,False,False,False,False,Night,Night,Night,Night
C-1443735,2,2020-11-24 05:31:37,2020-11-24 18:00:00,39.28186,-77.132103,,,8.460000038150001,Intermittent lane closures due to construction on MD-94 Woodbine Rd both ways between Old Annapolis Rd and Annapolis Rock Rd.,3794.0,Woodbine Rd,R,Woodbine,Howard,MD,21797-7903,US,US/Eastern,KGAI,2020-11-24 05:56:00,30.0,30.0,85.0,29.75,10.0,CALM,0.0,0.0,Fair,False,False,False,False,False,False,False,False,False,False,False,False,False,Night,Night,Night,Day
C-1443736,2,2019-09-19 00:01:00,2019-10-04 23:59:00,35.580139,-97.656242,,,0.330000013113,Lane closed due to utility work on Council Rd Southbound between 111th St and Hefner Rd.,8000.0,W Hefner Rd,L,Oklahoma City,Oklahoma,OK,73162,US,US/Central,KPWA,2019-09-19 00:53:00,80.0,80.0,69.0,28.58,10.0,SSE,8.0,0.0,Fair,False,False,True,False,False,False,False,False,False,False,False,True,False,Night,Night,Night,Night
C-1443737,2,2021-02-16 05:41:49,2021-02-16 15:53:07,31.741896,-97.649922,31.743519,-97.646484,0.231048968659,Roadwork on FM-182 (FM-219) from TX-6 (FM-219) to FM-219.,6375.0,FM 219,R,Clifton,Bosque,TX,76634-3634,US,US/Central,KACT,2021-02-16 05:51:00,2.0,-9.0,76.0,29.69,10.0,NNW,6.0,0.0,Fair,False,False,False,False,False,False,False,False,False,False,False,False,False,Night,Night,Night,Night
C-1443738,2,2021-05-18 20:14:30,2021-05-18 22:07:30,44.312674,-116.079829,44.312139,-116.077836,0.105237978298,Stationary traffic on ID-55 from Smiths Ferry Dr (ID-55) to Clear Creek Rd/Cabarton Rd (ID-55) due to roadwork.,10898.0,Main St,L,Cascade,Valley,ID,83611-5303,US,US/Mountain,KMYL,2021-05-18 19:51:00,54.0,54.0,34.0,24.88,10.0,NW,10.0,0.0,Fair,False,False,False,False,False,False,False,False,False,False,False,False,False,Day,Day,Day,Day
C-1443739,2,2021-09-16 16:20:30,2021-09-16 18:53:46,33.538639,-112.102645,33.539336,-112.099495,0.187692078882,Stationary traffic from N 21st Ave to W Myrtle Ave due to roadwork.,2031.0,W Glendale Ave,L,Phoenix,Maricopa,AZ,85021-7841,US,US/Mountain,KDVT,2021-09-16 15:53:00,100.0,100.0,14.0,28.14,10.0,WSW,9.0,0.0,Fair,True,False,False,False,False,False,False,False,True,False,False,False,False,Day,Day,Day,Day
C-1443740,2,2019-01-07 12:38:30,2019-01-11 12:38:28,42.58379,-83.24555,42.58379,-83.24555,0.0,At Long Lake Rd - Roadwork.,2.0,W Long Lake Rd,R,Bloomfield Hills,Oakland,MI,48304-2746,US,US/Eastern,KVLL,2019-01-07 12:36:00,36.0,29.0,75.0,29.94,10.0,ESE,9.2,,Clear,False,False,False,False,False,False,False,False,False,False,False,True,False,Day,Day,Day,Day
C-1443741,2,2021-02-19 05:36:00,2021-02-19 22:40:00,39.03188400000001,-95.585789,39.033572,-95.595932,0.556736507351,Slow traffic on I-70 W from I-470/Kansas Tpke (I-70) to I-470/KS-4/Exit 366 (I-70) due to roadwork.,,I-70 W,R,Tecumseh,Shawnee,KS,66542,US,US/Central,KTOP,2021-02-19 05:53:00,5.0,5.0,80.0,29.43,10.0,CALM,0.0,0.0,Fair,False,False,False,False,False,False,False,False,False,False,False,False,False,Night,Night,Night,Night
C-1443742,3,2020-02-03 07:30:00,2020-03-05 16:00:00,41.39974,-81.50865,41.38465,-81.5129,1.06563851134,Between I-271/I-480 Northern Split and Broadway Ave/Forbes Rd/Exit 23 - Roadwork. Lane blocked.,,I-480 E,R,Bedford,Cuyahoga,OH,44146,US,US/Eastern,KBKL,2020-02-03 07:53:00,40.0,34.0,73.0,29.24,10.0,S,8.0,0.0,Fair,False,False,False,False,False,False,False,False,False,False,False,False,False,Night,Day,Day,Day
C-1443743,4,2021-05-11 09:57:00,2021-10-29 19:00:00,38.871782,-77.161063,38.871689,-77.161523,0.0255654222799,On FR-712 (Arlington Blvd Service Rd) in the County of Fairfax from Leesburg Pike; VA-7E; Rt. 613N/S (Fairfax County) to Aspen Ln; Rt. 1759N/S (Fairfax County) motorists can expect potential delays in this area from 10/29/21 at 7:00 AM until 10/29/21 at 7:00 PM due to maintenance activities. All east lanes are closed.,,Arlington Blvd,R,Falls Church,Fairfax County,VA,22042,US,US/Eastern,KDCA,2021-10-29 06:52:00,58.0,58.0,87.0,29.67,4.0,E,16.0,0.01,Light Rain,False,False,False,False,False,False,False,False,False,True,False,False,False,Day,Day,Day,Day
C-1443744,2,2018-10-09 22:00:00,2018-10-10 16:30:00,37.803181,-122.469421,,,2.23000001907,Intermittent lane closures due to electricity work on US-101 Presidio Pkwy Northbound between Baker St and Exit 438 CA-1.,,CA-1,R,San Francisco,San Francisco,CA,94129,US,US/Pacific,KSFO,2018-10-09 21:56:00,57.9,,81.0,29.78,10.0,SW,9.2,,Partly Cloudy,False,False,False,False,False,False,False,False,False,False,False,False,False,Night,Night,Night,Night
C-1443745,2,2021-06-21 10:10:30,2021-09-20 17:45:00,37.41238,-77.72438100000002,37.41581,-77.72819799999998,0.316295205713,On Rt. 667 (Otterdale Rd) in the County of Chesterfield from Duval Rd; Rt. 668E/W (Chesterfield County) to Woolridge Rd; Rt. 668E/W (Chesterfield County) motorists can expect potential delays in this area from 09/20/21 at 8:00 AM until 09/20/21 at 5:00 PM due to paving operations. The north through lanes are alternating closures. The south through lanes are alternating closures.,6590.0,Otterdale Rd,R,Moseley,Chesterfield,VA,23120-1217,US,US/Eastern,KFCI,2021-09-20 07:56:00,66.0,66.0,96.0,30.0,10.0,E,7.0,0.0,Partly Cloudy,False,False,False,False,False,False,False,False,False,False,False,False,False,Day,Day,Day,Day
C-1443746,2,2016-04-22 07:00:00,2016-04-22 13:00:00,39.4141,-74.53471,39.42838,-74.56818,2.0408026161,Between Fire Rd and Westcoat Rd - Construction work.,6798.0,Delilah Rd,R,Egg Harbor Township,Atlantic,NJ,08234-5623,US,US/Eastern,KACY,2016-04-22 06:54:00,63.0,,84.0,29.96,10.0,SSW,8.1,,Clear,False,False,False,False,False,False,False,False,False,False,False,True,False,Day,Day,Day,Day
C-1443747,2,2020-04-20 23:11:08,2020-05-31 03:22:57,40.98242,-75.21453000000002,40.98534,-75.1941,1.08452352731,Between I-80/US-209 and PA-611/7th St - Roadwork. Traffic problem.,1642.0,W Main St,R,Stroudsburg,Monroe,PA,18360-1024,US,US/Eastern,KMPO,2020-04-21 10:53:00,44.0,38.0,82.0,27.48,8.0,SW,12.0,0.02,Light Rain,True,False,True,False,False,False,False,False,True,False,False,True,False,Night,Night,Night,Night
C-1443748,4,2020-08-21 18:45:00,2020-11-14 07:59:00,34.130035,-117.863796,34.132397,-117.865482,0.189556988666,Closed road from Historic Rte 66 (Glendora Ave) to Foothill Blvd (Glendora Ave) due to roadwork.,519.0,S Glendora Ave,R,Glendora,Los Angeles,CA,91741-6212,US,US/Pacific,KPOC,2020-08-21 17:47:00,90.0,90.0,43.0,28.77,10.0,W,10.0,,Fair,False,False,False,False,False,False,False,False,False,True,False,False,False,Day,Day,Day,Day
C-1443749,2,2021-02-19 15:08:10,2021-02-19 17:49:36,35.834094,-89.389264,35.826824,-89.39061,0.5079366314079999,Roadwork on Wardlow Rd E / Lawrence Rd from Forked Deer Rd to TN-88 - TN-180.,999.0,Wardlow Rd E,R,Gates,Lauderdale,TN,38037-4715,US,US/Central,KDYR,2021-02-19 14:53:00,,,,30.16,,,,0.0,Fair,False,False,False,False,False,False,False,False,False,False,False,False,False,Day,Day,Day,Day
C-1443750,2,2021-07-18 11:31:44,2021-07-18 14:47:15,40.602157,-74.06379,40.613341,-74.028947,1.98431916868,Slow traffic on I-278 W - I-278 E from I-278/Gowanus Expy (South) (Gowanus Expy E HOV Ln) to 86th St (Gowanus Expy E HOV Ln) due to roadwork.,,Brooklyn Queens Expy,R,Staten Island,Richmond,NY,10305,US,US/Eastern,KEWR,2021-07-18 11:51:00,84.0,84.0,63.0,29.92,10.0,SW,16.0,0.0,Mostly Cloudy,False,False,False,False,False,False,False,False,False,False,False,False,False,Day,Day,Day,Day
C-1443751,2,2020-06-08 07:02:52,2020-06-09 15:59:59,40.70764000000001,-74.15528,40.69276,-74.11015,2.57788497801,Between Toll Plaza and Avenue E/Exit 14A - Roadwork. Left lane closed.,,I-78 E,R,Newark,Essex,NJ,07114,US,US/Eastern,KEWR,2020-06-08 06:51:00,63.0,63.0,54.0,30.02,10.0,N,9.0,0.0,Fair,False,False,False,False,True,False,False,False,False,False,False,False,False,Day,Day,Day,Day
C-1443752,4,2019-03-20 04:05:26,2019-03-20 09:03:25,47.57446,-122.17556,47.5776,-122.17389,0.230494957828,Ramp closed to I-90 and 113th Ave SE/SE 30th St - Closed due to roadwork.,,I-405 N,R,Bellevue,King,WA,98006,US,US/Pacific,KRNT,2019-03-20 03:53:00,55.0,,43.0,29.93,10.0,Variable,4.6,,Clear,False,False,False,False,True,False,False,False,False,False,False,False,False,Night,Night,Night,Night
C-1443753,2,2020-11-19 13:29:00,2020-11-20 01:51:05,40.609775,-73.964303,40.609977,-73.962436,0.0989191272022,Stationary traffic from Ocean Pkwy (Avenue P) to Coney Island Ave (Avenue P) due to roadwork.,1600.0,E 9th St,R,Brooklyn,Kings,NY,11223-2302,US,US/Eastern,KJRB,2020-11-19 13:51:00,47.0,47.0,41.0,30.39,10.0,VAR,3.0,0.0,Fair,False,False,True,False,False,False,False,False,False,False,False,True,False,Day,Day,Day,Day
C-1443754,2,2021-09-25 10:42:00,2021-09-25 11:02:00,36.259089,-90.202605,36.259226,-90.167447,1.9587975589,Slow traffic on AR-139 - AR-90 from County Road 527 to County Road 535 due to roadwork.,498.0,County Road 527,L,Rector,Clay,AR,72461,US,US/Central,K4M9,2021-09-25 10:35:00,72.0,72.0,69.0,29.82,10.0,NE,12.0,0.0,Fair,False,False,False,False,False,False,False,False,False,False,False,False,False,Day,Day,Day,Day
C-1443755,2,2021-02-02 14:27:00,2021-02-03 00:46:34,27.995319,-82.523663,27.996295,-82.52465699999998,0.0906916682749,Slow traffic on FL-580 from W Crest Ave to Airport Blvd due to roadwork.,5329.0,Air Cargo Rd,R,Tampa,Hillsborough,FL,33614,US,US/Eastern,KTPA,2021-02-02 14:53:00,53.0,53.0,55.0,29.94,10.0,NW,17.0,0.0,Fair,False,False,False,False,False,False,False,False,True,False,False,False,False,Day,Day,Day,Day
C-1443756,2,2021-11-29 07:20:30,2021-11-29 10:25:01,25.850268,-80.180396,25.848677,-80.184671,0.287653175298,Stationary traffic on US-1 N - FL-934 - US-1 S - FL-5 from NE 8th Ct to NE 80th St due to roadwork.,788.0,NE 82nd St,R,Miami,Miami-Dade,FL,33138-4161,US,US/Eastern,KOPF,2021-11-29 06:53:00,63.0,63.0,48.0,30.04,10.0,N,13.0,0.0,Partly Cloudy,True,False,False,False,False,False,False,False,True,True,False,False,False,Day,Day,Day,Day
C-1443757,2,2021-09-25 13:29:00,2021-09-25 13:56:30,29.224722,-90.008888,29.214894,-90.024906,1.1807161116,Stationary traffic on LA-1 - LA-3235 from Cheramie Dr (LA-1) to Central Ave (LA-1) due to roadwork.,2698.0,Highway 1,R,Grand Isle,Jefferson,LA,70358-9726,US,US/Central,KAXO,,,,,,,,,,,False,False,False,False,False,False,False,False,False,False,False,False,False,Day,Day,Day,Day
C-1443758,2,2020-12-30 13:29:30,2020-12-31 02:29:29,25.798901,-80.239991,25.793269,-80.239747,0.389430062701,Slow traffic on FL-9 from US-27 (FL-9) to 17th St (FL-9) due to roadwork.,2665.0,NW 24th St,R,Miami,Miami-Dade,FL,33142-7211,US,US/Eastern,KMIA,2020-12-30 13:53:00,79.0,79.0,60.0,30.09,10.0,E,22.0,0.0,Mostly Cloudy / Windy,False,False,False,False,False,False,False,False,False,False,False,True,False,Day,Day,Day,Day
C-1443759,3,2020-02-12 02:04:06,2020-02-12 04:30:00,47.118706,-122.556908,,,9.48999977112,Intermittent lane closures due to construction during the night on I-5 Northbound between Nisqually Rd and Jackson Ave .,,I-5 S,R,Tacoma,Pierce,WA,98433,US,US/Pacific,KGRF,2020-02-12 01:58:00,44.0,44.0,100.0,29.96,5.0,CALM,0.0,0.04,Light Rain,False,False,False,False,False,False,False,False,False,False,False,False,False,Night,Night,Night,Night
C-1443760,2,2018-01-12 10:23:11,2018-02-28 19:00:00,35.769531,-95.269875,,,0.0,Intermittent lane closures due to construction work on US-62 Shawnee Rd both ways at N4350 Rd.,4891.0,E Shawnee Rd,L,Fort Gibson,Muskogee,OK,74434,US,US/Central,KMKO,2018-01-12 09:53:00,19.9,6.2,60.0,30.39,10.0,North,15.0,,Clear,False,False,False,False,False,False,False,False,False,False,False,False,False,Day,Day,Day,Day
C-1443761,2,2021-11-17 13:14:30,2021-11-17 15:19:45,33.426588,-112.06513,33.429313,-112.065093,0.188291656561,Slow traffic from E Broadway Rd (S 7th St) to I-17/US-60/Maricopa Fwy (S 7th St) due to roadwork.,2248.0,S 7th St,R,Phoenix,Maricopa,AZ,85034-5511,US,US/Mountain,KPHX,2021-11-17 12:51:00,75.0,75.0,16.0,28.78,10.0,CALM,0.0,0.0,Mostly Cloudy,False,False,True,False,False,False,True,False,False,False,False,True,False,Day,Day,Day,Day
C-1443762,2,2020-09-22 13:55:30,2020-09-22 22:54:45,40.701811,-73.808812,40.701769,-73.80690600000001,0.0998797531696,Queuing traffic from I-678/Van Wyck Expy (Jamaica Ave) to 168th St (Jamaica Ave) due to roadwork.,14618.0,Jamaica Ave,R,Jamaica,Queens,NY,11435-3628,US,US/Eastern,KJFK,2020-09-22 13:51:00,70.0,70.0,25.0,30.01,10.0,NNW,22.0,0.0,Mostly Cloudy / Windy,True,False,True,False,False,False,False,False,True,False,False,True,False,Day,Day,Day,Day
C-1443763,2,2020-10-15 21:27:00,2020-10-15 21:48:00,32.198411,-108.275924,32.19321,-108.303295,1.6402067832700002,Slow traffic on I-10 from Quincy Rd/Exit 55 (I-10) to NM-146/Exit 49 (I-10) due to roadwork.,,I-10 W,R,Hurley,Grant,NM,88043,US,US/Mountain,KSVC,2020-10-15 21:35:00,59.0,59.0,23.0,24.71,10.0,NE,6.0,0.0,Fair,False,False,False,False,True,False,False,False,False,False,False,False,False,Night,Night,Night,Night
C-1443764,2,2017-08-09 07:26:41,2017-08-30 23:59:00,33.616722,-111.871002,,,0.409999996424,Intermittent lane closures due to gas main work on Frank Lloyd Wright Blvd Westbound between Thunderbird Rd and Redfield Rd.,14298.0,N Frank Lloyd Wright Blvd,R,Scottsdale,Maricopa,AZ,85260,US,US/Mountain,KSDL,2017-08-09 07:53:00,86.0,,31.0,29.81,10.0,SSE,3.5,,Clear,False,False,False,False,False,False,False,False,False,False,False,False,False,Day,Day,Day,Day
C-1443765,3,2017-10-20 20:00:00,2017-10-21 06:00:00,40.575329,-74.567238,,,0.0,Left lane closed due to bridge maintenance work on I-287 Northbound at Exits 14A 14B US-22.,,I-287 N,R,Bridgewater,Somerset,NJ,08807,US,US/Eastern,KSMQ,2017-10-20 19:53:00,54.0,,69.0,30.17,10.0,Calm,,,Clear,False,False,False,False,False,False,False,False,False,False,False,False,False,Night,Night,Night,Night
C-1443766,2,2020-10-09 12:29:00,2020-10-10 03:08:54,35.388406,-97.423624,35.39084000000001,-97.423561,0.168210818548,Queuing traffic from SE 104th St (Sooner Rd) to E I-240 Service Rd/OK-3/74th St (Sooner Rd) due to bridge maintenance work.,7800.0,S Sooner Rd,L,Oklahoma City,Oklahoma,OK,73135-6602,US,US/Central,KTIK,2020-10-09 12:41:00,75.0,75.0,73.0,28.6,10.0,S,12.0,0.0,Mostly Cloudy,True,False,False,False,False,False,False,False,False,False,False,False,False,Day,Day,Day,Day
C-1443767,2,2020-05-24 11:41:08,2020-05-25 11:41:08,47.66505,-122.3593,47.66495,-122.31745,1.94737412011,Between 2nd Ave NW and 21st Ave NE - Resurfacing work. Single alternate lane traffic.,208.0,NW 50th St,R,Seattle,King,WA,98107-3443,US,US/Pacific,KBFI,2020-05-24 11:53:00,62.0,62.0,58.0,30.19,10.0,CALM,0.0,0.0,Cloudy,True,False,True,False,False,False,False,False,True,False,False,True,False,Day,Day,Day,Day
C-1443768,2,2021-09-01 14:46:51,2021-09-01 15:07:45,40.73341,-73.999696,40.736668,-73.997334,0.25683655447,Slow traffic from Bleecker St/Downing St/Minetta St (6th Ave) to W 13th St (6th Ave) due to roadwork.,394.0,Avenue of the Americas,R,New York,New York,NY,10011-8415,US,US/Eastern,KNYC,2021-09-01 14:51:00,72.0,72.0,81.0,29.65,10.0,ENE,12.0,0.0,Cloudy,True,False,True,False,False,False,True,False,True,False,False,True,False,Day,Day,Day,Day
C-1443769,2,2021-12-22 13:05:00,2021-12-22 15:07:33,37.30412800000001,-76.750712,37.307105,-76.751689,0.2125837763109999,Stationary traffic from Williamsburg Plantation Dr to Westmoreland Dr due to roadwork.,,Longhill Rd,R,Williamsburg,James City,VA,23188,US,US/Eastern,KJGG,2021-12-22 13:15:00,54.0,54.0,58.0,29.7,10.0,W,7.0,0.0,Fair,False,False,False,False,False,False,False,False,False,False,False,False,False,Day,Day,Day,Day
C-1443770,2,2021-11-22 16:44:30,2021-11-22 17:11:30,39.175527,-84.242471,39.175052,-84.236311,0.331572587089,Stationary traffic on OH-131 from Willnean Dr (OH-131) to Pleasant Hill Rd (OH-131) due to roadwork.,1063.0,State Route 131,R,Milford,Clermont,OH,45150-2708,US,US/Eastern,KI69,2021-11-22 16:53:00,39.0,33.0,38.0,29.64,10.0,WNW,8.0,0.0,Fair,False,False,False,False,False,False,False,False,False,False,False,True,False,Day,Day,Day,Day
C-1443771,2,2016-10-31 07:00:00,2016-10-31 16:00:00,42.280369,-71.84030200000002,,,0.0,Intermittent lane closures due to resurfacing work on Hillcrest Ave both ways around Oak Knoll St.,2.0,Oak Knoll St,R,Worcester,Worcester,MA,01609,US,US/Eastern,KORH,2016-10-31 06:54:00,35.1,26.4,82.0,30.05,10.0,WNW,12.7,,Clear,False,False,False,False,False,False,False,False,False,False,False,False,False,Night,Day,Day,Day
C-1443772,2,2021-10-12 15:04:00,2021-10-12 15:24:30,25.928453,-80.189798,25.928452,-80.18250400000002,0.453238430063,Slow traffic on FL-826 from 2nd Ave (FL-826) to 167th St (FL-826) due to roadwork.,528.0,NE 167th St,R,Miami,Miami-Dade,FL,33162-3910,US,US/Eastern,KHWO,2021-10-12 14:53:00,86.0,86.0,59.0,29.91,10.0,E,14.0,0.0,Partly Cloudy,False,False,True,False,False,False,False,False,True,False,False,True,False,Day,Day,Day,Day
C-1443774,2,2021-08-28 21:07:30,2021-12-27 10:34:29,26.275194,-80.116796,26.276297,-80.119429,0.180049789608,Stationary traffic on FL-834 from N Dixie Hwy to NE 38th St due to roadwork.,483.0,E Sample Rd,L,Pompano Beach,Broward,FL,33064-4441,US,US/Eastern,KPMP,2021-11-15 07:53:00,61.0,61.0,62.0,30.13,10.0,NNW,8.0,0.0,Fair,False,False,False,False,False,False,False,False,False,False,False,False,False,Night,Night,Night,Night
C-1443775,2,2019-12-07 12:01:00,2019-12-09 11:59:00,43.016327,-88.046829,,,0.409999996424,Two left lane closed due to construction work on WI-100 108th St Southbound from Washington St to WI-59 Greenfield Ave.,,S 108th St,R,Milwaukee,Milwaukee,WI,53214,US,US/Central,KMWC,2019-12-07 11:45:00,37.0,29.0,56.0,29.48,10.0,S,14.0,0.0,Mostly Cloudy,False,False,False,False,False,False,False,False,False,False,False,True,False,Day,Day,Day,Day
C-1443776,2,2017-11-09 10:00:00,2017-11-09 14:00:00,42.70455,-71.21049000000002,42.70455,-71.21049000000002,0.0,At RT-110/RT-113/Exit 46 - Entry ramp closed. Construction work.,,I-93 S,R,Methuen,Essex,MA,01844,US,US/Eastern,KLWM,2017-11-09 09:54:00,43.0,,62.0,30.27,10.0,Calm,,,Clear,False,False,False,False,False,False,False,False,False,False,False,False,False,Day,Day,Day,Day
C-1443777,3,2019-01-15 21:02:56,2019-01-19 21:02:33,41.98549000000001,-87.8579,41.983839,-87.844941,0.6752635736399999,Between the River Rd Toll Plaza and I-190/Exit 78 - Roadwork.,,Jane Addams Memorial Tollway E,R,Des Plaines,Cook,IL,60018,US,US/Central,KORD,2019-01-15 20:51:00,30.0,19.5,92.0,30.06,7.0,WSW,13.8,,Overcast,False,False,False,False,False,False,False,False,False,False,False,False,False,Night,Night,Night,Night
C-1443778,2,2021-09-09 14:54:11,2021-10-22 19:20:30,42.689904,-83.374981,42.689976,-83.372258,0.138379696464,Stationary traffic from US-24/Dixie Hwy (W Walton Blvd) to Clintonville Rd (W Walton Blvd) due to roadwork.,3498.0,Addie St,R,Waterford,Oakland,MI,48329-4002,US,US/Eastern,KPTK,2021-09-09 14:53:00,69.0,69.0,51.0,28.88,10.0,NW,8.0,0.0,Mostly Cloudy,False,False,True,False,False,False,False,False,False,False,False,False,False,Day,Day,Day,Day
C-1443779,4,2018-10-11 18:31:43,2018-10-11 23:29:23,32.8434,-96.90906,32.84557,-96.91052,0.172228137225,At TX-12-LOOP/N Walton Walker Blvd - Roadwork.,1627.0,Frontage Rd,L,Irving,Dallas,TX,75062,US,US/Central,KDFW,2018-10-11 18:53:00,66.9,,54.0,30.01,10.0,ENE,6.9,,Mostly Cloudy,False,False,False,False,False,False,False,False,False,False,False,False,False,Day,Day,Day,Day
C-1443780,2,2021-08-20 21:36:30,2021-08-21 00:19:30,39.949288,-76.68115300000002,39.967111,-76.689382,1.30629622784,Slow traffic on I-83 N from PA-74/Queen St/Exit 16 (I-83) to PA-462/Market St/Exit 19 (I-83) due to roadwork.,,I-83 N,R,York,York,PA,17403,US,US/Eastern,KTHV,2021-08-20 21:53:00,74.0,74.0,87.0,29.41,10.0,CALM,0.0,0.0,Fair,False,False,False,False,False,False,False,False,False,False,False,False,False,Night,Night,Night,Night
C-1443781,2,2021-04-08 05:03:30,2021-04-08 23:05:30,25.813611,-80.12566899999999,25.814461,-80.12279699999998,0.188041277609,Slow traffic on FL-A1A from exit [5] to 44th St / Indian Creek Dr due to roadwork.,264.0,Arthur Godfrey Rd,R,Miami Beach,Miami-Dade,FL,33140,US,US/Eastern,KMIA,2021-04-08 04:53:00,66.0,66.0,78.0,29.99,10.0,CALM,0.0,0.0,Fair,True,False,True,False,False,False,False,False,True,False,False,True,False,Night,Night,Night,Night
C-1443782,2,2021-07-28 16:32:39,2021-07-28 17:16:03,33.974229,-81.196798,33.949838,-81.248561,3.41165689325,Slow traffic on I-20 W from US-1/Exit 58 (I-20) to SC-204/Exit 51 (I-20) due to roadwork.,,I-20 W,R,Lexington,Lexington,SC,29073,US,US/Eastern,KCAE,2021-07-28 16:10:00,91.0,91.0,57.0,29.7,10.0,S,6.0,0.0,Mostly Cloudy,False,False,False,False,True,False,False,False,False,False,False,False,False,Day,Day,Day,Day
C-1443783,2,2020-09-24 12:20:30,2020-09-25 01:07:05,41.87574,-88.278329,41.867496,-88.279472,0.572633788186,Stationary traffic from IL-38/E State St (Kirk Rd) to E Wilson St (Kirk Rd) due to roadwork.,,S Kirk Rd,R,Geneva,Kane,IL,60134,US,US/Central,KDPA,2020-09-24 11:52:00,73.0,73.0,66.0,29.15,10.0,SSW,10.0,0.0,Fair,False,False,False,False,False,False,False,False,False,False,False,False,False,Day,Day,Day,Day
C-1443784,2,2019-05-20 09:04:32,2019-05-25 09:03:38,25.91517,-80.15648,25.9151,-80.15666,0.0121870076532999,At Biscayne Blvd - Construction work.,15205.0,Biscayne Blvd,L,North Miami Beach,Miami-Dade,FL,33160,US,US/Eastern,KHWO,2019-05-20 08:53:00,80.0,80.0,71.0,30.02,10.0,VAR,3.0,0.0,Fair,False,False,True,False,False,False,False,False,False,False,False,True,False,Day,Day,Day,Day
C-1443785,2,2021-01-22 13:25:00,2021-01-23 06:31:11,33.567556,-112.106814,33.567663,-112.116793,0.574548405616,Slow traffic from N 19th Ave (W Dunlap Ave) to I-17/N Black Canyon Hwy (W Dunlap Ave) due to roadwork.,2248.0,W Dunlap Ave,R,Phoenix,Maricopa,AZ,85021-2801,US,US/Mountain,KDVT,2021-01-22 13:53:00,62.0,62.0,65.0,28.31,10.0,W,12.0,0.0,Mostly Cloudy,False,False,True,False,False,False,False,False,False,False,False,True,False,Day,Day,Day,Day
C-1443786,2,2021-07-08 12:12:55,2021-07-08 12:38:45,28.48638900000001,-81.24143000000002,28.487926,-81.241834,0.108993737771,Slow traffic on FL-417 N - Central Florida Greeneway N from exit [27] to exit [30] due to roadwork.,,Central Florida Greeneway N,R,Orlando,Orange,FL,32829,US,US/Eastern,KMCO,2021-07-08 11:53:00,88.0,88.0,61.0,29.97,10.0,SSW,9.0,0.0,Mostly Cloudy,False,False,False,False,False,False,False,False,False,False,False,False,False,Day,Day,Day,Day
C-1443787,2,2019-07-16 14:00:14,2019-07-18 14:00:00,38.38507,-121.93763,38.38848400000001,-121.933245,0.334723351233,At Leisure Town Rd - Construction work.,,I-80 E,R,Vacaville,Solano,CA,95687,US,US/Pacific,KVCB,2019-07-16 13:53:00,91.0,91.0,38.0,29.72,10.0,SSW,8.0,0.0,Fair,False,False,False,False,False,False,False,False,False,False,False,False,False,Day,Day,Day,Day
C-1443788,2,2021-11-13 17:08:00,2021-11-13 18:21:30,34.770855,-94.066075,34.810871,-94.040189,3.1307853957200003,Slow traffic on US-71 N - US-71 S from US-270 (Boles) (US-71) to US-71 (Waldron) (South) (US-71) due to roadwork.,,Highway 71 S,R,Boles,Scott,AR,72926,US,US/Central,KMEZ,2021-11-13 17:15:00,52.0,52.0,44.0,28.97,10.0,CALM,0.0,0.0,Fair,False,False,False,False,False,False,False,False,False,False,False,False,False,Day,Day,Day,Day
C-1443789,2,2021-10-06 17:49:20,2021-10-06 19:55:40,30.35168,-81.59961899999998,30.35308400000001,-81.602766,0.211226930887,Slow traffic on FL-109 from Justina Rd / Stardust Ct to Jax University Road 7 due to roadwork.,5772.0,Merrill Rd,R,Jacksonville,Duval,FL,32277-3386,US,US/Eastern,KCRG,2021-10-06 17:53:00,80.0,80.0,85.0,30.03,10.0,CALM,0.0,0.0,Fair,False,False,False,False,False,False,False,False,False,False,False,False,False,Day,Day,Day,Day
C-1443790,2,2021-04-26 05:43:30,2021-08-03 18:58:30,46.176878,-123.026329,46.181658,-123.057419,1.5235900206400002,Slow traffic on WA-4 from Coal Creek Rd (Ocean Beach Hwy/WA-4) to Oak Point Rd (Ocean Beach Hwy/WA-4) due to roadwork.,6027.0,Ocean Beach Hwy,L,Longview,Cowlitz,WA,98632,US,US/Pacific,KKLS,2021-08-03 18:56:00,75.0,75.0,55.0,30.01,10.0,VAR,7.0,0.0,Fair,False,False,False,False,False,False,False,False,False,False,False,False,False,Night,Day,Day,Day
C-1443791,2,2021-09-17 09:33:32,2021-09-17 09:54:30,40.761104,-73.98325799999998,40.759213,-73.984611,0.148609571596,Slow traffic from W 50th St (7th Ave) to Broadway/W 45th St (7th Ave) due to roadwork.,201.0,W 50th St,R,New York,New York,NY,10019-6811,US,US/Eastern,KNYC,2021-09-17 09:51:00,70.0,,87.0,30.17,9.0,,,0.0,Cloudy,True,False,True,False,False,False,True,False,True,False,False,True,False,Day,Day,Day,Day
C-1443792,2,2021-09-16 09:54:00,2021-09-16 10:17:00,38.957543,-84.620947,38.95633,-84.63033399999998,0.51126410026,Slow traffic on KY-2953 - KY-536 from US-25 (Mt Zion Rd/KY-536) to I-71/I-75 (Mt Zion Rd/KY-536) due to roadwork.,100.0,Shoemaker Ln,L,Florence,Boone,KY,41042-3242,US,US/Eastern,KCVG,2021-09-16 09:52:00,70.0,70.0,81.0,29.16,7.0,E,7.0,0.0,Cloudy,False,False,False,False,False,False,False,False,False,False,False,True,False,Day,Day,Day,Day
C-1443793,2,2021-10-14 07:43:30,2021-10-14 09:45:13,39.183528,-84.649402,39.178368,-84.645889,0.403123082118,Slow traffic from I-74/US-52 (Harrison Ave) to Race Rd (Harrison Ave) due to roadwork.,6169.0,Harrison Ave,L,Cincinnati,Hamilton,OH,45247-7812,US,US/Eastern,KCVG,2021-10-14 07:52:00,68.0,68.0,90.0,29.07,6.0,S,8.0,0.0,Mostly Cloudy,False,False,False,False,False,False,False,False,False,False,False,False,False,Night,Day,Day,Day
C-1443794,2,2017-05-03 10:48:07,2017-05-03 16:00:00,37.66746,-121.03466,37.665216,-121.03031,0.283976759982,At N Carpenter Rd/W Briggsmore Ave - Roadwork.,,CA-99 S,R,Modesto,Stanislaus,CA,95350,US,US/Pacific,KMOD,2017-05-03 10:53:00,82.9,,41.0,29.92,10.0,West,6.9,,Clear,False,False,False,False,False,False,False,False,False,False,False,False,False,Day,Day,Day,Day
C-1443795,2,2019-05-14 12:47:53,2019-05-18 12:48:48,39.98644,-75.09170999999998,40.023991,-75.031308,4.117133129,Between Allegheny Ave/Exit 25 and Cottman Ave/Exit 30 - Roadwork. Open.,,I-95 N,R,Philadelphia,Philadelphia,PA,19134,US,US/Eastern,KPNE,2019-05-14 12:54:00,55.0,55.0,64.0,29.71,10.0,W,12.0,0.0,Cloudy,False,False,False,False,False,False,False,False,False,False,False,False,False,Day,Day,Day,Day
C-1443796,2,2019-08-12 10:44:00,2019-08-26 23:59:00,36.40834,-76.75323,36.40804,-76.75356,0.0276836589866,At NC-37/Main St - Construction work. One lane closed.,56.0,E Maple St,R,Gatesville,Gates,NC,27938,US,US/Eastern,KSFQ,2019-08-12 10:35:00,83.0,83.0,60.0,29.96,10.0,CALM,0.0,0.0,Fair,False,False,False,False,False,False,False,False,False,False,False,False,False,Day,Day,Day,Day
C-1443797,2,2020-10-21 07:52:36,2020-10-25 07:51:11,41.66587,-86.894049,41.68009,-86.89397,0.982516885488,At US-20 - Construction work.,,W 400 N,R,Michigan City,LaPorte,IN,46360,US,US/Central,KMGC,2020-10-21 07:55:00,48.0,45.0,82.0,29.45,10.0,W,8.0,0.0,Cloudy,False,False,False,False,False,False,False,False,False,False,False,True,False,Day,Day,Day,Day
C-1443798,2,2021-12-07 09:00:00,2021-12-07 15:45:00,29.687745,-95.530381,29.687905,-95.530256,0.0133606457498,Construction on I-69 FRONTAGE RD SB near GESSNER RD Left lane closed. Expect delays.,,Southwest Fwy,R,Houston,Harris,TX,77074,US,US/Central,KMCJ,2021-12-07 08:53:00,59.0,59.0,67.0,30.04,10.0,NE,7.0,0.0,Cloudy,False,False,False,False,False,False,False,False,False,False,False,True,False,Day,Day,Day,Day
C-1443799,2,2021-12-02 14:41:30,2021-12-02 15:02:00,39.77461,-105.081376,39.776694,-105.082374,0.153433651554,Slow traffic on County Hwy-58 - CO-121 from 3 Acre Ln to Yarrow St due to roadwork.,4236.0,Wadsworth Blvd,R,Wheat Ridge,Jefferson,CO,80033-4620,US,US/Mountain,KBJC,2021-12-02 14:45:00,68.0,68.0,15.0,24.41,10.0,N,5.0,0.0,Fair,False,False,False,False,False,False,False,False,False,False,False,False,False,Day,Day,Day,Day
C-1443800,2,2021-10-19 18:07:00,2021-10-19 20:17:30,25.927075,-80.155991,25.926152,-80.15678,0.0804411301927,Slow traffic on FL-826 from NE 164th St to NE 21st Ave due to roadwork.,16387.0,W Dixie Hwy,R,North Miami Beach,Miami-Dade,FL,33160-3708,US,US/Eastern,KHWO,2021-10-19 17:53:00,80.0,80.0,58.0,30.07,10.0,ENE,13.0,0.0,Partly Cloudy,False,False,True,False,False,False,False,False,True,False,False,True,False,Day,Day,Day,Day
C-1443801,2,2019-07-31 09:02:34,2019-08-04 09:02:24,39.6081,-75.71531999999998,39.63295,-75.65966999999998,3.42347015641,Between Wrangle Hill Rd and SR-7/Bear Christiana Rd - Construction work.,,Pulaski Hwy,R,Bear,New Castle,DE,19701,US,US/Eastern,KILG,2019-07-31 08:51:00,80.0,80.0,79.0,29.95,10.0,CALM,0.0,0.0,Fair,False,False,True,False,False,False,False,False,False,False,False,True,False,Day,Day,Day,Day
C-1443802,2,2021-09-09 07:44:30,2021-09-09 09:49:44,45.199835,-93.394039,45.197967,-93.393298,0.13401377882,Stationary traffic on US-169 S from Branch Ave to Fremont St due to roadwork.,164.0,W Main St,L,Anoka,Anoka,MN,55303-2111,US,US/Central,KANE,2021-09-09 07:45:00,54.0,54.0,94.0,29.07,10.0,CALM,0.0,0.0,Fair,False,False,False,False,False,False,False,False,True,True,False,False,False,Day,Day,Day,Day
C-1443803,2,2021-10-05 08:01:00,2021-10-05 16:15:00,38.573491,-121.467931,38.572385,-121.46839,0.0803390864318999,Construction on 29TH SB near CAPITAL CITY FWY Expect delays.,1000.0,29th St,R,Sacramento,Sacramento,CA,95816-5109,US,US/Pacific,KSAC,2021-10-05 07:53:00,59.0,59.0,67.0,29.89,10.0,S,6.0,0.0,Fair,False,False,False,False,False,False,False,False,False,False,False,True,False,Day,Day,Day,Day
C-1443804,4,2019-10-26 23:03:10,2019-10-27 04:01:23,38.63135,-90.25291,38.63135,-90.25291,0.0,At Chouteau Ave/Boyle Ave/Exit 36 - Entry ramp closed. Construction work.,,US-40 W,R,Saint Louis,St. Louis City,MO,63110,US,US/Central,KCPS,2019-10-26 22:53:00,49.0,45.0,93.0,29.32,10.0,W,8.0,0.0,Cloudy,False,False,False,False,False,False,False,False,False,False,False,False,False,Night,Night,Night,Night
C-1443805,2,2021-04-19 19:56:00,2021-04-20 00:15:00,32.811223,-96.652096,32.824124,-96.627773,1.67010637757,Slow traffic on I-30 E - R L Thornton Fwy E - US-67 N from Big Town Blvd/Exit 54 (I-30) to I-635/Exit 56 (I-30) due to roadwork.,,I-30 E,R,Mesquite,Dallas,TX,75150,US,US/Central,KHQZ,2021-04-19 19:50:00,64.0,64.0,49.0,29.48,10.0,SE,9.0,0.0,Fair,False,False,False,False,False,False,False,False,False,False,False,False,False,Day,Day,Day,Day
C-1443806,2,2019-03-05 10:11:38,2019-03-09 10:14:02,40.11719,-74.94049,40.12065,-74.941047,0.240867897739,At Bristol Rd - Roadwork. Traffic problem.,2500.0,Galloway Rd,L,Bensalem,Bucks,PA,19020-2009,US,US/Eastern,KPNE,2019-03-05 09:54:00,28.9,21.1,43.0,30.12,10.0,West,8.1,,Clear,False,False,False,False,False,False,False,False,False,False,False,True,False,Day,Day,Day,Day
C-1443807,2,2020-12-11 03:17:00,2020-12-11 03:50:30,40.74425,-73.82953499999998,40.74463,-73.83353699999998,0.211132093556,Slow traffic from 136th St to College Point Blvd due to roadwork.,5899.0,136th St,L,Flushing,Queens,NY,11355-5206,US,US/Eastern,KLGA,2020-12-11 02:51:00,42.0,39.0,65.0,30.2,10.0,SSW,5.0,0.0,Fair,False,False,True,False,False,False,False,False,False,True,False,False,False,Night,Night,Night,Night
C-1443808,2,2021-08-28 12:09:30,2021-08-28 17:01:00,35.501104,-93.691406,35.506511,-93.757173,3.71803663638,Slow traffic on I-40 W from Lee to AR-186 exit [41] due to roadwork.,,I-40 W,R,Clarksville,Johnson,AR,72830,US,US/Central,KRUE,2021-08-28 11:53:00,87.0,87.0,57.0,29.65,10.0,S,7.0,0.0,Mostly Cloudy,False,False,False,False,True,False,False,False,False,False,False,False,False,Day,Day,Day,Day
C-1443809,2,2021-08-11 18:05:00,2021-08-11 18:29:00,33.504633,-112.237715,33.508781,-112.237694,0.286602057876,Stationary traffic from W Indian School Rd (N 83rd Ave) to W Camelback Rd (N 83rd Ave) due to roadwork.,4701.0,N 83rd Ave,R,Phoenix,Maricopa,AZ,85033,US,US/Mountain,KGEU,2021-08-11 17:58:00,92.0,92.0,43.0,28.71,10.0,NNE,8.0,0.0,Mostly Cloudy,False,False,True,False,False,False,False,False,False,True,False,True,False,Day,Day,Day,Day
C-1443810,4,2019-11-06 04:03:17,2019-11-06 09:01:47,47.23371,-122.43215,47.23832,-122.43205,0.318555209992,Closed at I-5/WA-7 - Closed due to roadwork.,,I-5 S,R,Tacoma,Pierce,WA,98402,US,US/Pacific,KTIW,2019-11-06 04:13:00,47.0,44.0,86.0,29.91,9.0,NNE,6.0,0.0,Cloudy,False,False,False,False,False,False,False,False,False,False,False,False,False,Night,Night,Night,Night
C-1443811,2,2020-06-16 17:57:23,2020-06-18 00:00:00,41.05651,-73.51565,41.05651,-73.51565,0.0,At US-1/Exit 9 - Roadwork. Right lane blocked. Hard shoulder blocked.,,I-95 S,R,Stamford,Fairfield,CT,06902,US,US/Eastern,KHPN,2020-06-16 17:56:00,72.0,72.0,41.0,29.84,10.0,E,8.0,0.0,Fair,False,False,False,False,False,False,False,False,False,False,False,False,False,Day,Day,Day,Day
C-1443812,2,2021-07-01 06:37:00,2021-12-13 15:07:35,41.837701,-87.630362,41.869457,-87.644705,2.31496874681,Slow traffic on I-94 W - I-90 W - Dan Ryan Expy N from 35th St/Exit 55A (I-90/I-94) to Taylor St/Exit 52A (I-90/I-94) due to roadwork.,,Dan Ryan Expy N,R,Chicago,Cook,IL,60616,US,US/Central,KMDW,2021-07-01 06:53:00,69.0,69.0,81.0,29.33,10.0,N,10.0,0.0,Fair,False,False,False,False,True,False,False,False,False,False,False,False,False,Day,Day,Day,Day
C-1443814,2,2021-03-04 04:32:00,2021-03-04 17:58:05,26.231373,-80.14291,26.232342,-80.141161,0.127408166023,Stationary traffic on FL-814 from Seaboard Coast Line Railroad to Dr M L King Jr Blvd due to roadwork.,1400.0,W Atlantic Blvd,L,Pompano Beach,Broward,FL,33069,US,US/Eastern,KFXE,2021-03-04 04:53:00,60.0,60.0,86.0,29.96,10.0,WNW,7.0,0.0,Cloudy,False,False,False,False,False,False,False,False,False,False,False,False,False,Night,Night,Night,Night
C-1443816,2,2020-08-13 20:57:21,2021-12-06 16:31:02,33.652778999999995,-112.082806,33.654647,-112.082264,0.1327775469979999,Stationary traffic from Villa Maria Dr to N 5th Ave due to roadwork.,18374.0,N 7th Ave,L,Phoenix,Maricopa,AZ,85023,US,US/Mountain,KDVT,2021-08-05 08:53:00,92.0,92.0,39.0,28.32,10.0,ESE,12.0,0.0,Fair,True,False,False,False,False,False,False,False,True,False,False,False,False,Night,Night,Night,Night
C-1443818,2,2021-08-10 15:11:12,2021-08-10 15:36:24,33.809303,-84.37477700000002,33.810603,-84.371324,0.217633088042,Stationary traffic from Piedmont Ave NE (Monroe Dr NE) to Piedmont Cir NE (Monroe Dr NE) due to roadwork.,2014.0,Monroe Dr NE,L,Atlanta,Fulton,GA,30324-4844,US,US/Eastern,KPDK,2021-08-10 14:53:00,89.0,89.0,53.0,29.1,10.0,W,5.0,0.0,Fair,False,False,False,False,False,False,False,False,False,False,False,False,False,Day,Day,Day,Day
C-1443819,2,2019-01-16 04:27:01,2019-01-21 12:00:00,42.197498,-88.05793,,,7.130000114439999,Intermittent lane closures due to construction work on CR-V62 Quentin Rd both ways between US-12 Rand Rd and IL-22.,22498.0,W State Route 22,L,Lake Zurich,Lake,IL,60047,US,US/Central,KPWK,2019-01-16 04:52:00,35.1,27.4,64.0,30.15,10.0,NW,10.4,,Overcast,False,False,False,False,False,False,False,False,False,False,False,True,False,Night,Night,Night,Night
C-1443820,2,2021-05-05 02:44:30,2021-10-13 13:20:30,43.971495,-124.105448,43.96438,-124.108577,0.515637228196,Stationary traffic on US-101 S - US-101 N from OR-126/Florence Eugene Hwy (US-101) to Clear Lake Rd (US-101) due to roadwork.,556.0,Highway 101,R,Florence,Lane,OR,97439-7623,US,US/Pacific,KOTH,2021-10-13 12:56:00,56.0,56.0,75.0,30.21,10.0,NNW,3.0,0.0,Cloudy,False,False,False,False,False,False,False,False,False,False,False,False,False,Night,Night,Night,Night
C-1443821,2,2020-12-09 14:08:30,2020-12-09 16:30:30,30.542055,-89.670688,30.545446,-89.66872099999998,0.261906225693,Stationary traffic on MS-43 - US-11 S - US-11 N from Circle Dr / Laird St to E Sycamore Rd / Daniels Dr due to roadwork.,2000.0,Highway 11 N,L,Picayune,Pearl River,MS,39466-2038,US,US/Central,KASD,2020-12-09 13:53:00,70.0,70.0,35.0,30.08,10.0,W,8.0,0.0,Fair,False,False,False,False,False,False,False,False,False,False,False,False,False,Day,Day,Day,Day
C-1443822,2,2020-07-09 22:14:00,2020-07-15 15:53:25,42.275191,-88.018843,42.275271,-88.018845,0.00552841917281,Construction on MIDLOTHIAN RD near IL-176 Drive with caution.,,N Midlothian Rd,R,Mundelein,Lake,IL,60060,US,US/Central,KPWK,2020-07-09 22:20:00,76.0,76.0,87.0,29.09,10.0,WNW,12.0,0.0,Light Rain with Thunder,False,False,True,False,False,False,False,False,False,False,False,True,False,Night,Night,Night,Day
C-1443823,2,2021-06-21 05:08:15,2021-12-20 19:53:20,27.894708,-82.783162,27.895501,-82.78704300000003,0.243245039607,Slow traffic on FL-688 - US-19 Alt N - FL-595 from Honeyvine Mobile Home Park to Silvercrest Dr due to roadwork.,10401.0,Honeyvine Mobile Home Park,L,Largo,Pinellas,FL,33771,US,US/Eastern,KPIE,2021-12-20 17:53:00,67.0,67.0,87.0,30.0,10.0,NNE,15.0,0.0,Light Rain,False,False,False,False,False,False,False,False,True,False,False,True,False,Night,Night,Night,Day
C-1443824,2,2019-10-17 21:03:54,2019-10-23 21:01:09,25.53961,-80.40803000000002,25.4479,-80.47519,7.59575280276,Between 244th St and 344th St - Construction work. Right lane blocked.,,SW 244th St,R,Homestead,Miami-Dade,FL,33032,US,US/Eastern,KHST,2019-10-17 20:56:00,83.0,83.0,81.0,29.89,10.0,CALM,0.0,0.0,Partly Cloudy,False,False,True,False,False,False,False,False,False,False,False,True,False,Night,Night,Night,Night
C-1443825,2,2021-09-09 06:47:00,2021-09-09 09:00:32,41.520884,-87.99669499999996,41.517264,-87.994762,0.269367690497,Slow traffic on US-30 E from E Cass St / Gougar Rd to I-80 W due to roadwork.,1500.0,W Maple St,R,New Lenox,Will,IL,60451-1529,US,US/Central,KLOT,2021-09-09 06:55:00,55.0,55.0,94.0,29.27,10.0,WNW,3.0,0.0,Fair,False,False,False,False,False,False,False,False,False,False,False,False,False,Day,Day,Day,Day
C-1443826,2,2020-10-08 12:37:30,2020-10-09 00:40:39,25.904321,-80.24255500000002,25.902585,-80.243889,0.145812260139,Slow traffic on FL-9 from 22nd Ave (FL-9) to FL-817 (FL-9) due to roadwork.,,State Road 9,R,Opa Locka,Miami-Dade,FL,33054,US,US/Eastern,KOPF,2020-10-08 12:53:00,87.0,87.0,59.0,30.01,10.0,ESE,14.0,0.0,Fair,False,False,False,False,False,False,False,False,False,False,False,False,False,Day,Day,Day,Day
C-1443827,2,2021-08-05 22:54:30,2021-08-05 23:08:30,41.628949,-84.746884,41.62945300000001,-84.75671700000002,0.509013344506,Slow traffic on I-90 W - I-80 W - Ohio Tpke W from CR-15/Exit 13 (I-90/I-80) to OH-49/Exit 2 (I-90/I-80) due to roadwork.,,County Road 4,R,Edon,Williams,OH,43518,US,US/Eastern,KANQ,2021-08-05 22:55:00,64.0,64.0,88.0,29.03,10.0,CALM,0.0,0.0,Fair,False,False,False,False,True,False,False,False,False,False,False,False,False,Night,Night,Night,Night
C-1443828,2,2021-04-01 04:22:30,2021-09-17 16:44:42,26.724825,-80.06487299999998,26.72380900000001,-80.066707,0.133183825099,Slow traffic from Carver Ave to 11th Ct due to roadwork.,,Palm Beach Lakes Blvd,R,West Palm Beach,Palm Beach,FL,33401,US,US/Eastern,KPBI,2021-05-10 05:53:00,80.0,80.0,71.0,30.04,10.0,SSE,8.0,0.0,Fair,False,False,False,False,False,False,False,False,False,False,False,False,False,Night,Night,Night,Night
C-1443829,4,2018-04-30 03:52:48,2018-05-01 11:55:24,33.87386,-118.01177,33.882706,-118.027826,1.10537054671,Closed at I-5/Santa Ana Fwy - Closed due to roadwork.,15072.0,Firestone Blvd,R,La Mirada,Los Angeles,CA,90638-6018,US,US/Pacific,KFUL,2018-04-30 03:53:00,59.0,,75.0,29.97,10.0,SSE,4.6,,Overcast,False,False,False,False,False,False,False,False,False,False,False,False,False,Night,Night,Night,Night
C-1443830,2,2021-08-21 18:15:41,2021-08-21 20:42:34,44.980808,-93.266157,44.979126,-93.26485,0.132613399201,Slow traffic on County Hwy-152 from Washington Ave N / Hennepin Ave to S 3rd St due to roadwork.,151.0,Washington Ave S,R,Minneapolis,Hennepin,MN,55401,US,US/Central,KMIC,2021-08-21 17:53:00,74.0,74.0,40.0,29.01,10.0,NNW,10.0,0.0,Fair,True,False,False,False,False,False,False,False,True,False,False,True,False,Day,Day,Day,Day
C-1443831,2,2019-01-18 19:16:23,2019-01-22 19:16:23,40.08353,-74.934421,40.10400300000001,-74.903018,2.18082468634,Between PA-63/Woodhaven Rd/Exit 35 and PA-413/Exit 40 - Roadwork. Lane blocked.,,I-95 N,R,Bensalem,Bucks,PA,19020,US,US/Eastern,KPNE,2019-01-18 18:54:00,35.1,32.2,82.0,30.13,5.0,West,3.5,,Haze,False,False,False,False,False,False,False,False,False,False,False,False,False,Night,Night,Night,Night
C-1443832,2,2021-08-24 15:34:30,2021-08-24 17:48:25,42.182688,-87.959808,42.181427,-87.965437,0.301082491674,Slow traffic on County Hwy-33 from N Prairie Rd to Thompson Blvd due to roadwork.,16716.0,W Aptakisic Rd,L,Lincolnshire,Lake,IL,60069-4107,US,US/Central,KPWK,2021-08-24 15:52:00,93.0,93.0,50.0,29.24,10.0,SSW,9.0,0.0,Partly Cloudy,False,False,False,False,False,False,False,False,False,False,False,False,False,Day,Day,Day,Day
C-1443833,2,2021-12-26 13:10:30,2021-12-26 13:31:00,39.102011,-119.905759,39.104507,-119.895508,0.576051007208,Stationary traffic on US-50 E from NV-28 (US-50) to Kings Canyon Rd/NFS-039 (US-50) due to roadwork.,3041.0,US Highway 50,L,Glenbrook,Douglas,NV,89413,US,US/Pacific,KCXP,2021-12-26 13:15:00,32.0,19.0,51.0,25.05,5.0,SW,22.0,0.0,N/A Precipitation,False,False,False,False,False,False,False,False,False,False,False,False,False,Day,Day,Day,Day
C-1443834,4,2020-06-08 11:34:12,2020-06-08 16:33:55,38.67296,-90.02983,38.61132,-90.07806,4.99128235056,Closed between Horseshoe Lake Rd/Exit 26 and I-64/I-255/US-50/Exit 20 - Closed due to roadwork.,,I-255 S,R,Collinsville,Madison,IL,62234,US,US/Central,KCPS,2020-06-08 11:53:00,85.0,85.0,48.0,29.43,10.0,ENE,9.0,0.0,Fair,False,False,False,False,True,False,False,False,False,False,False,False,False,Day,Day,Day,Day
C-1443835,2,2016-12-23 09:01:35,2016-12-23 15:01:35,39.484272,-76.829771,39.497263,-76.83171899999998,0.903582557751,At Westminster - Construction work.,13298.0,Hanover Pike,L,Reisterstown,Baltimore,MD,21136-4705,US,US/Eastern,KDMW,2016-12-23 09:00:00,33.8,30.8,70.0,30.47,10.0,WNW,3.5,,,False,False,False,False,False,False,False,False,False,False,False,False,False,Day,Day,Day,Day
C-1443836,2,2020-04-08 08:01:17,2020-04-08 16:00:00,37.36342,-77.0747,37.34387,-77.0713,1.36362296819,At VA-5/John Tyler Memorial Hwy - Construction work.,,Courthouse Rd,R,Charles City,Charles City,VA,23030,US,US/Eastern,KRIC,2020-04-08 07:54:00,60.0,60.0,75.0,29.55,10.0,NNW,13.0,0.0,Light Rain,False,False,False,False,False,False,False,False,False,False,False,False,False,Day,Day,Day,Day
C-1443837,2,2020-07-14 04:22:00,2020-07-14 12:45:00,38.862322,-77.345777,38.861712,-77.349147,0.186141121939,Construction on I-66 WB near MM 58 Construction. Expect long delays.,,I-66 W,R,Fairfax,Fairfax County,VA,22033,US,US/Eastern,KIAD,2020-07-14 03:52:00,71.0,71.0,78.0,29.6,10.0,WNW,6.0,0.0,Mostly Cloudy,False,False,False,False,False,False,False,False,False,False,False,False,False,Night,Night,Night,Day
C-1443838,2,2020-06-24 10:30:21,2020-06-28 10:31:44,41.3859,-75.23983,41.34918,-75.30735,4.32377401754,At I-84 - Roadwork. Open.,,Lake Wallenpaupack Rd,R,Greentown,Pike,PA,18426,US,US/Eastern,KMPO,2020-06-24 10:53:00,69.0,69.0,58.0,27.8,10.0,W,13.0,0.0,Light Rain,False,False,False,False,False,False,False,False,False,False,False,False,False,Day,Day,Day,Day
C-1443839,2,2020-05-26 10:17:44,2020-05-26 18:17:44,43.9849,-121.34005,43.98505,-121.33995,0.0114946862485,At Baker Rd/Knott Rd - Maintenance work.,60105.0,S Highway 97,L,Bend,Deschutes,OR,97702,US,US/Pacific,KBDN,2020-05-26 10:15:00,66.0,66.0,46.0,26.53,10.0,CALM,0.0,0.0,Fair,False,False,False,False,False,False,False,False,False,False,False,False,False,Day,Day,Day,Day
C-1443840,2,2019-08-09 00:00:01,2019-08-10 00:00:01,37.98228,-103.674626,37.98231,-103.683694,0.49384309361,At CO-71/CR-19.5 - Construction work.,22000.0,State Highway 10,R,La Junta,Otero,CO,81050-9767,US,US/Mountain,KLHX,2019-08-09 00:53:00,68.0,68.0,84.0,25.81,10.0,S,7.0,0.0,Cloudy,False,False,False,False,False,False,False,False,False,False,False,False,False,Night,Night,Night,Night
C-1443841,3,2017-02-27 07:00:00,2017-02-27 15:00:00,41.253448,-73.67627,,,0.01,Intermittent lane closures due to construction work on I-684 Northbound at Exit 6 Saw Mill River Pkwy.,,I-684 N,R,Katonah,Westchester,NY,10536,US,US/Eastern,KDXR,2017-02-27 06:53:00,21.9,,85.0,30.36,10.0,Calm,,,Clear,False,False,False,False,False,False,False,False,False,False,False,False,False,Day,Day,Day,Day
C-1443842,2,2021-12-17 13:46:19,2021-12-17 19:27:08,27.918393,-82.787764,27.91664,-82.787061,0.128500420971,Slow traffic on US-19 Alt S - FL-686 from Golden Gate Dr to Central Park Dr due to roadwork.,133.0,Missouri Ave N,L,Largo,Pinellas,FL,33770-3763,US,US/Eastern,KPIE,2021-12-17 13:53:00,81.0,81.0,54.0,30.12,10.0,E,10.0,0.0,Fair,False,False,False,False,False,False,False,False,False,False,False,False,False,Day,Day,Day,Day
C-1443843,2,2018-02-07 10:09:20,2018-02-09 15:00:00,30.73702,-95.05529,,,0.0,Intermittent lane closures due to construction work on FM-3126 both ways between FM-350 and FM-2457.,2824.0,FM 2457,L,Livingston,Polk,TX,77351-8351,US,US/Central,K6R3,2018-02-07 10:15:00,43.9,39.3,93.0,30.3,7.0,North,8.1,,Overcast,False,False,False,False,False,False,False,False,False,False,False,False,False,Day,Day,Day,Day
C-1443844,2,2021-07-23 13:37:30,2021-12-22 11:01:46,42.424262,-83.472605,42.424857,-83.47407199999998,0.0853709375592,Stationary traffic from I-275/I-96 (7 Mile Rd) to S Center St/Sheldon Rd (7 Mile Rd/Edward N Hines Dr) due to roadwork.,43330.0,7 Mile Rd,R,Northville,Wayne,MI,48167-2280,US,US/Eastern,KYIP,2021-08-20 07:53:00,69.0,69.0,87.0,29.25,10.0,CALM,0.0,0.0,Shallow Fog,False,False,False,False,False,False,False,False,False,False,False,False,False,Day,Day,Day,Day
C-1443845,2,2021-12-14 16:00:21,2021-12-14 18:02:00,27.917551,-82.7878,27.914917,-82.787864,0.182034008664,Slow traffic on US-19 Alt S - FL-595 from Golden Gate Dr to US-19 Alt due to roadwork.,115.0,Missouri Ave N,L,Largo,Pinellas,FL,33770-3763,US,US/Eastern,KPIE,2021-12-14 15:53:00,76.0,76.0,74.0,30.22,10.0,N,5.0,0.0,Fair,False,False,False,False,False,False,False,False,False,False,False,False,False,Day,Day,Day,Day
C-1443846,2,2020-07-13 15:30:00,2020-07-14 06:59:59,40.708132,-74.188925,40.707412,-74.198045,0.480252452223,Construction on US 22 eastbound at CR 27/Frelinghuysen Av (Newark) Monday July 13th 2020 08:30 AM thru 03:00 PM left lane closed for repairs,,US-22 W,R,Newark,Essex,NJ,07114,US,US/Eastern,KEWR,2020-07-13 15:51:00,89.0,89.0,38.0,29.76,10.0,W,14.0,0.0,Partly Cloudy,False,False,False,False,True,False,False,False,False,False,False,False,False,Day,Day,Day,Day
C-1443848,2,2021-07-28 09:19:00,2021-11-02 00:30:00,31.258653,-94.302737,31.237642,-94.315642,1.63969324648,Construction on TX-147 SB near FM-2851 Drive with caution.,21349.0,State Highway 147 S,R,Broaddus,San Augustine,TX,75929,US,US/Central,KLFK,2021-07-28 08:53:00,82.0,82.0,74.0,29.76,10.0,CALM,0.0,0.0,Fair,False,False,False,False,False,False,False,False,False,False,False,False,False,Day,Day,Day,Day
C-1443849,2,2021-02-05 05:14:03,2021-02-05 09:00:00,40.994259,-73.659796,40.992362,-73.661836,0.1688126524439999,Road maintenance operations left and center lanes closed on I-95 - New England Thruway southbound from Before Connecticut State Line (I-95) to After Exit 21 (I-95) - White Plains - Governor Mario M. Cuomo Bridge (I-287) until 12:15 AM 02/05/2021 [CARS CAD-210350509],,New England Trwy S,R,Port Chester,Westchester,NY,10573,US,US/Eastern,KHPN,2021-02-05 04:56:00,30.0,25.0,79.0,29.3,10.0,SSE,5.0,0.0,Cloudy,False,False,False,False,False,False,False,False,False,False,False,False,False,Night,Night,Night,Night
C-1443850,2,2018-12-07 08:01:10,2018-12-07 12:01:10,42.391979,-122.422621,42.394163,-122.327115,4.87581923133,Between Heppsie Mountain Rd and Dead Indian Rd - Maintenance work.,25406.0,Highway 140,L,Eagle Point,Jackson,OR,97524,US,US/Pacific,KMFR,2018-12-07 07:53:00,24.1,19.7,91.0,30.17,10.0,NNE,3.5,,Clear,False,False,False,False,False,False,False,False,False,False,False,False,False,Day,Day,Day,Day
C-1443851,2,2021-04-09 05:30:00,2021-04-09 14:43:20,40.737876,-74.179472,40.735598,-74.172188,0.412545548326,Slow traffic on County Hwy-510 from Bergen St/1st St/Hartford St (W Market St) to Broad St (Market St) due to roadwork.,,W Market St,R,Newark,Essex,NJ,07102,US,US/Eastern,KEWR,2021-04-09 05:51:00,50.0,50.0,83.0,30.13,10.0,SE,5.0,0.0,Partly Cloudy,False,False,True,False,False,False,False,False,False,False,False,True,False,Night,Night,Day,Day
C-1443852,3,2020-03-23 23:20:34,2020-03-24 01:20:34,30.2435,-97.73547,30.226740000000003,-97.74546,1.30253862703,Between Riverside Dr/Exit 233 and Woodward St - Roadwork. Two lanes closed.,,I-35 S,R,Austin,Travis,TX,78741,US,US/Central,KAUS,2020-03-23 22:53:00,73.0,73.0,81.0,29.35,10.0,SSE,9.0,0.0,Mostly Cloudy,False,False,False,False,True,False,False,False,False,False,False,False,False,Night,Night,Night,Night
C-1443853,2,2020-11-16 22:06:08,2020-11-16 22:41:32,38.34524,-88.95275500000002,38.34095,-88.95453,0.311627271669,Stationary traffic on I-57 S from CR-39/Exit 103 (I-57) to I-64 (I-57) due to roadwork.,,I-57 S,R,Mount Vernon,Jefferson,IL,62864,US,US/Central,KMVN,2020-11-16 21:56:00,45.0,43.0,60.0,29.7,10.0,W,5.0,0.0,Fair,False,False,False,False,False,False,False,False,False,False,False,False,False,Night,Night,Night,Night
C-1443854,3,2018-05-16 06:54:35,2018-05-16 12:54:35,33.530843,-111.382418,33.418,-111.5461,12.2384372102,Between AZ-188/NF-147/NF-80 and N Apache Trl/N Idaho Rd - Roadwork.,17754.0,Apache Trl,L,Fort McDowell,Maricopa,AZ,85264,US,US/Mountain,KFFZ,2018-05-16 06:47:00,71.6,,20.0,29.92,50.0,NE,6.9,,Clear,False,False,False,False,False,False,False,False,False,False,False,False,False,Day,Day,Day,Day
C-1443855,2,2021-09-12 15:23:10,2021-09-12 15:43:52,40.717333,-73.831211,40.716095,-73.824988,0.3369306493550001,Slow traffic on Grand Central Pkwy E from 69th Rd/Jewel Ave/Exit 11 (Grand Central Pkwy) to Jackie Robinson Pkwy/Union Tpke/Exit 13/Exit 14 (Grand Central Pkwy) due to roadwork.,,Grand Central Pkwy E,R,Forest Hills,Queens,NY,11375,US,US/Eastern,KLGA,2021-09-12 15:51:00,85.0,85.0,44.0,29.97,10.0,WSW,14.0,0.0,Mostly Cloudy,False,False,False,False,False,False,False,False,False,False,False,False,False,Day,Day,Day,Day
C-1443856,3,2018-05-21 08:31:13,2019-06-28 16:00:00,34.021025,-84.489124,34.014781,-84.494419,0.527329704808,Between Trickum Rd NE and Piedmont Rd NE - Construction work. Lane blocked.,2883.0,Sandy Plains Rd,L,Marietta,Cobb,GA,30066-4552,US,US/Eastern,KRYY,2018-05-21 08:48:00,71.1,,73.0,30.19,10.0,East,3.5,,Clear,False,False,True,False,False,False,False,False,False,False,False,True,False,Day,Day,Day,Day
C-1443857,3,2020-06-09 10:50:08,2020-06-13 10:49:23,42.01868,-88.1983,42.01348,-88.1834,0.845050129255,At S Bartlett Rd - Roadwork.,798.0,W Irving Park Rd,L,Streamwood,Cook,IL,60107-2817,US,US/Central,KDPA,2020-06-09 10:52:00,83.0,83.0,58.0,28.86,10.0,ESE,15.0,0.0,Fair,False,False,False,False,False,False,False,False,False,False,False,True,False,Day,Day,Day,Day
C-1443858,2,2016-08-22 19:49:00,2016-08-23 03:49:00,33.925670000000004,-84.21195999999998,33.92287,-84.21146,0.1955738278069999,Between Northbelt Pkwy NW and Western Hills Dr NW - Construction work.,802.0,N Norcross Tucker Rd,R,Norcross,Gwinnett,GA,30071,US,US/Eastern,KPDK,2016-08-22 19:53:00,81.0,,50.0,30.11,10.0,Calm,,,Clear,False,False,True,False,False,False,False,False,False,False,False,False,False,Day,Day,Day,Day
C-1443859,2,2019-07-04 00:00:01,2019-07-05 00:00:01,38.463158,-105.851051,38.464001,-105.856639,0.307872945742,At CO-291/Oak St - Construction work.,6797.0,US Highway 50,R,Howard,Fremont,CO,81233-9618,US,US/Mountain,KANK,2019-07-04 00:15:00,64.0,64.0,30.0,22.87,10.0,W,3.0,,Fair,False,False,False,False,False,False,False,False,False,False,False,False,False,Night,Night,Night,Night
C-1443860,2,2021-10-08 14:39:28,2021-10-08 15:08:53,29.738558,-95.410702,29.742651,-95.409864,0.287233221314,Stationary traffic from W Alabama St to Huldy St due to roadwork.,2081.0,W Alabama St,R,Houston,Harris,TX,77098-2733,US,US/Central,KMCJ,2021-10-08 14:53:00,90.0,,37.0,29.98,10.0,,,0.0,Fair,False,False,False,False,False,False,False,False,False,True,False,True,False,Day,Day,Day,Day
C-1443861,3,2016-10-26 10:12:10,2016-10-26 15:00:00,41.318314,-72.90258,,,0.36,Left lane closed due to construction work on I-91 Southbound between Exit 4 Humphrey St and Exits 5 6 US-5 State St.,14.0,Willow St,L,New Haven,New Haven,CT,06511-2704,US,US/Eastern,KHVN,2016-10-26 09:53:00,44.1,38.6,47.0,30.4,10.0,NNW,10.4,,Clear,False,False,False,False,False,False,False,False,False,False,False,False,False,Day,Day,Day,Day
C-1443862,2,2020-10-14 09:32:57,2020-10-14 12:17:57,44.899631,-122.940906,44.887691,-122.923736,1.17766323746,Construction on OR-22 EB near MP 5 Drive with caution.,,N Santiam Hwy E,R,Salem,Marion,OR,97317,US,US/Pacific,KSLE,2020-10-14 09:56:00,54.0,54.0,86.0,30.21,10.0,SSE,8.0,0.0,Cloudy,False,False,False,False,True,False,False,False,False,False,False,False,False,Day,Day,Day,Day
C-1443863,2,2017-02-21 02:57:01,2017-02-21 08:57:01,28.53836,-81.38195,28.54201,-81.38215,0.252482985106,At South St/Exit 83 - Construction work.,,I-4 E,R,Orlando,Orange,FL,32801,US,US/Eastern,KORL,2017-02-21 02:53:00,64.0,,96.0,30.1,10.0,Calm,,,Clear,False,False,False,False,False,False,False,False,True,False,False,False,False,Night,Night,Night,Night
C-1443864,2,2021-09-04 13:35:56,2021-09-04 13:58:06,40.757914,-73.989304,40.761034,-73.987014,0.246646631023,Slow traffic from W 42nd St (8th Ave) to 56th St (8th Ave) due to roadwork.,301.0,W 43rd St,R,New York,New York,NY,10036-6406,US,US/Eastern,KNYC,2021-09-04 13:51:00,77.0,77.0,42.0,29.89,10.0,CALM,0.0,0.0,Fair,True,False,True,False,False,False,True,False,True,False,False,True,False,Day,Day,Day,Day
C-1443865,2,2021-10-12 14:21:30,2021-10-12 16:53:32,25.683394,-80.41639599999998,25.685397,-80.417449,0.1531402472959999,Slow traffic on FL-825 - FL-94 from SW 96th St to SW 137th Ct due to roadwork.,8971.0,SW 137th Ave,L,Miami,Miami-Dade,FL,33186,US,US/Eastern,KTMB,2021-10-12 13:53:00,86.0,86.0,61.0,29.91,10.0,E,10.0,0.0,Partly Cloudy,True,False,True,False,False,False,False,False,True,False,False,False,False,Day,Day,Day,Day
C-1443866,2,2020-10-05 21:04:00,2020-10-06 01:17:06,41.177736,-85.163913,41.176611,-85.166089,0.137287392794,Stationary traffic on IN-3 from Radbourne Dr / Dupont Road Access to Northbrook Blvd due to roadwork.,1524.0,W Dupont Rd,R,Fort Wayne,Allen,IN,46825-1016,US,US/Eastern,KGWB,2020-10-05 20:55:00,45.0,45.0,81.0,29.15,10.0,CALM,0.0,0.0,Fair,False,False,False,False,False,False,False,False,False,False,False,False,False,Night,Night,Night,Night
C-1443867,2,2021-05-30 15:51:52,2021-05-30 16:11:52,30.457133,-81.417455,30.461134,-81.42404,0.479825644234,Stationary traffic on FL-105 - FL-A1A from FL-105/Heckscher Dr (FL-A1A) to Houston Ave (FL-A1A) due to roadwork.,11289.0,Heckscher Dr,L,Jacksonville,Duval,FL,32226-2528,US,US/Eastern,KJAX,2021-05-30 15:56:00,83.0,83.0,46.0,30.0,10.0,CALM,0.0,0.0,Mostly Cloudy,False,False,False,False,False,False,False,False,False,False,False,False,False,Day,Day,Day,Day
C-1443868,3,2019-05-29 06:57:46,2019-06-01 00:27:41,33.99557,-118.17683,34.03695,-118.16989,2.8865794566400003,Between Florence Ave and CA-60 - Roadwork.,,Long Beach Fwy N,R,Bell Gardens,Los Angeles,CA,90201,US,US/Pacific,KCQT,2019-05-29 06:47:00,60.0,60.0,80.0,29.68,8.0,CALM,0.0,0.0,Fair,False,False,False,False,True,False,False,False,False,False,False,False,False,Day,Day,Day,Day
C-1443869,2,2020-04-27 13:04:32,2020-05-02 13:06:25,40.86457,-74.42033,40.86457,-74.42033,0.0,At I-287/Exit 43 - Roadwork.,,I-80 E,R,Parsippany,Morris,NJ,07054,US,US/Eastern,KMMU,2020-04-27 12:45:00,48.0,43.0,66.0,29.72,10.0,NNE,14.0,0.0,Cloudy,False,False,False,False,False,False,False,False,False,False,False,False,False,Day,Day,Day,Day
C-1443870,2,2020-07-16 16:00:00,2020-07-17 06:59:00,42.685012,-73.728409,42.685071,-73.72839,0.00418917559258,Bridge work on 913T; Broadway (Rt 32) Ramp to I-787 both directions over I787 (Colonie) Thursday July 16th 2020 09:00 AM thru 03:30 PM right lane closed,139.0,Broadway,R,Menands,Albany,NY,12204-2721,US,US/Eastern,KALB,2020-07-16 15:51:00,79.0,79.0,54.0,29.91,10.0,SSE,15.0,0.0,Mostly Cloudy,False,False,False,False,False,False,False,False,False,False,False,False,False,Day,Day,Day,Day
C-1443871,3,2019-01-11 09:00:00,2019-01-11 13:00:00,44.517715,-87.950722,,,0.0,Right lane closed due to maintenance work on I-43 Northbound at Exit 185 WI-54 University Ave.,,I-43 N,R,Green Bay,Brown,WI,54311,US,US/Central,KGRB,2019-01-11 08:53:00,24.1,17.0,75.0,30.4,10.0,South,5.8,,Overcast,False,False,False,False,False,False,False,False,False,False,False,False,False,Day,Day,Day,Day
C-1443872,2,2021-01-20 14:42:00,2021-01-20 16:52:40,33.451241,-112.167772,33.450453,-112.169117,0.0947438266448,Stationary traffic from N 49th Ave to S 51st Ave due to roadwork.,4953.0,W Van Buren St,L,Phoenix,Maricopa,AZ,85043-3816,US,US/Mountain,KGEU,2021-01-20 11:56:00,70.0,70.0,28.0,28.93,10.0,E,14.0,0.0,Cloudy,False,False,False,False,False,False,False,False,True,False,False,False,False,Day,Day,Day,Day
C-1443873,2,2021-07-29 15:55:00,2021-07-29 18:02:19,33.391545,-112.099132,33.39309,-112.099141,0.106750595764,Stationary traffic from W Baseline Rd (S 19th Ave) to W Broadway Rd (S 19th Ave) due to roadwork.,6015.0,S 19th Ave,L,Phoenix,Maricopa,AZ,85041,US,US/Mountain,KPHX,2021-07-29 15:51:00,102.0,102.0,21.0,28.61,10.0,CALM,0.0,0.0,Mostly Cloudy,True,False,False,False,False,False,False,False,True,False,False,False,False,Day,Day,Day,Day
C-1443874,2,2021-08-24 13:46:30,2021-08-24 15:49:36,41.733458,-87.70219,41.73523,-87.703645,0.14358966215,Slow traffic from W 88th St to S Central Park Ave due to roadwork.,8795.0,S Kedzie Ave,L,Evergreen Park,Cook,IL,60805-1025,US,US/Central,KMDW,2021-08-24 13:53:00,95.0,95.0,46.0,29.27,10.0,SW,17.0,0.0,Fair,False,False,False,False,False,False,False,False,True,False,False,False,False,Day,Day,Day,Day
C-1443875,4,2021-06-11 18:01:00,2021-06-12 06:44:00,35.148593,-118.995299,35.148166,-118.99618,0.0578593041055,Construction on CA-99 NB near HERRING RD Take alternate route.,8651.0,Herring Rd,R,Bakersfield,Kern,CA,93307,US,US/Pacific,KBFL,2021-06-11 17:54:00,83.0,83.0,18.0,29.4,9.0,NW,10.0,0.0,Fair,False,False,False,False,False,False,False,False,False,False,False,False,False,Day,Day,Day,Day
C-1443876,3,2019-10-11 07:20:33,2019-10-15 07:19:49,35.20858,-119.00343,35.2091,-119.16527,9.13645385896,Between Union Ave and I-5 - Construction work. Single alternate lane traffic.,135.0,Bear Mountain Blvd,R,Bakersfield,Kern,CA,93307-9758,US,US/Pacific,KBFL,2019-10-11 06:54:00,53.0,53.0,38.0,29.5,10.0,N,5.0,0.0,Fair,False,False,False,False,False,False,False,False,False,True,False,False,False,Day,Day,Day,Day
C-1443877,4,2020-11-23 03:00:00,2020-11-23 07:59:00,39.197899,-77.719192,39.20019,-77.727474,0.4708587731199999,VA-690 - VA-9 is closed from Mountain Rd (Charles Town Pike/VA-9) to Stony Point Rd (Charles Town Pike/VA-9) due to roadwork.,37130.0,Charles Town Pike,R,Purcellville,Loudoun,VA,20132-2942,US,US/Eastern,KJYO,2020-11-23 02:52:00,56.0,56.0,93.0,29.62,10.0,SW,5.0,0.0,Cloudy,False,False,False,False,False,False,False,False,False,False,False,False,False,Night,Night,Night,Night
C-1443878,2,2019-01-22 21:00:00,2019-01-23 05:00:00,40.679474,-74.278152,,,4.44999980927,Intermittent lane closures due to construction work on Garden State Pkwy Northbound between Exit 136 CR-607 Raritan Rd and Exit 138 CR-509 Boulevard.,,Garden State Pkwy N,R,Kenilworth,Union,NJ,07033,US,US/Eastern,KLDJ,2019-01-22 20:55:00,27.3,,44.0,30.61,10.0,Calm,,,Clear,False,False,False,False,True,False,False,False,False,False,False,False,False,Night,Night,Night,Night
C-1443879,4,2020-10-17 02:01:00,2020-10-17 19:44:00,34.005142,-118.174084,34.004402,-118.173104,0.0759277241578,Construction on I-710 SB near WASHINGTON BLVD Take alternate route.,4630.0,E Washington Blvd,R,Commerce,Los Angeles,CA,90040-1025,US,US/Pacific,KCQT,2020-10-17 01:52:00,71.0,71.0,63.0,29.66,10.0,CALM,0.0,0.0,Fair,False,False,False,False,False,False,False,False,False,False,False,True,False,Night,Night,Night,Night
C-1443880,2,2019-02-15 08:07:55,2019-02-19 08:10:24,39.972736,-76.694028,39.948714,-76.680745,1.80268120366,Between US-30/Exit 21 and PA-74/Queen St/Exit 16 - Roadwork. Lane blocked.,,I-83 N,R,York,York,PA,17402,US,US/Eastern,KTHV,2019-02-15 07:53:00,45.0,,56.0,29.74,10.0,Calm,,,Overcast,False,False,False,False,False,False,False,False,False,False,False,False,False,Day,Day,Day,Day
C-1443881,3,2021-07-13 03:37:30,2021-07-13 05:00:00,33.562061,-117.67292,,,2.31999993324,Exit ramp from I-5 Southbound at Exit 86 to Crown Valley Pkwy closed due to construction work.,,I-5 S,R,Laguna Niguel,Orange,CA,92677,US,US/Pacific,KSNA,2021-07-13 03:53:00,69.0,69.0,78.0,29.83,10.0,S,3.0,0.0,Fair,False,False,False,False,False,False,False,False,False,False,False,False,False,Night,Night,Night,Night
C-1443882,2,2020-08-21 16:01:00,2020-08-21 22:46:00,32.840989,-117.135669,32.837667,-117.15702,1.26053971377,Construction on CA-52 WB near CA-163 Construction. Expect long delays.,,CA-52 W,R,San Diego,San Diego,CA,92111,US,US/Pacific,KMYF,2020-08-21 15:53:00,87.0,87.0,44.0,29.38,10.0,S,9.0,0.0,Fair,False,False,False,False,False,False,False,False,False,False,False,False,False,Day,Day,Day,Day
C-1443883,2,2019-06-25 04:22:09,2019-06-27 10:00:00,44.053242,-123.094269,,,0.0,Intermittent lane closures due to maintenance work on Olive St both ways between 5th Ave and OR-126-BR 6th Ave.,57.0,W 6th Ave,R,Eugene,Lane,OR,97401-2605,US,US/Pacific,KEUG,2019-06-25 03:54:00,52.0,52.0,74.0,29.52,10.0,S,8.0,0.0,Mostly Cloudy,False,False,True,False,False,False,False,False,False,False,False,True,False,Night,Night,Day,Day
C-1443884,2,2020-05-09 22:05:27,2020-05-10 16:00:00,41.97409,-73.93507,41.97979,-73.95255,0.980437455961,Between RT-9G/Kalina Dr and Kingston-Rhinecliff Brg (West) - Bridge maintenance work.,,Kingston Rhinecliff Brg,R,Rhinebeck,Dutchess,NY,12572,US,US/Eastern,KPOU,2020-05-09 21:53:00,38.0,33.0,55.0,29.82,10.0,W,7.0,0.0,Mostly Cloudy,False,False,False,False,False,False,False,False,False,False,False,False,False,Night,Night,Night,Night
C-1443885,2,2020-06-12 16:33:36,2020-06-13 06:59:59,35.08742,-80.81264,35.08696,-80.83757,1.4098417279700002,At Carmel Rd - Construction work.,5234.0,Pineville-Matthews Rd,L,Charlotte,Mecklenburg,NC,28226-3499,US,US/Eastern,KCLT,2020-06-12 16:52:00,83.0,83.0,38.0,29.32,10.0,VAR,7.0,0.0,Mostly Cloudy,False,False,False,False,False,False,False,False,False,False,False,False,False,Day,Day,Day,Day
C-1443886,2,2021-10-19 21:57:30,2021-10-19 22:11:00,34.732875,-92.262079,34.740349,-92.262464,0.5168666965559999,Slow traffic on I-30 E - US-65 N - US-167 N from AR-365/Exit 139 (I-30) to 9th St/Exit 140 (I-30) due to roadwork.,,I-30 E,R,Little Rock,Pulaski,AR,72202,US,US/Central,KLIT,2021-10-19 21:53:00,56.0,56.0,80.0,29.85,10.0,CALM,0.0,0.0,Partly Cloudy,False,False,False,False,False,False,False,False,False,False,False,False,False,Night,Night,Night,Night
C-1443887,2,2021-11-24 13:38:02,2021-11-24 14:02:39,33.351643,-96.452938,33.344484,-96.463715,0.794714948383,Stationary traffic on TX-121 from TX-160 (TX-121) to CR-475 (TX-121) due to roadwork.,12801.0,State Highway 121 N,L,Anna,Collin,TX,75409-7010,US,US/Central,KTKI,2021-11-24 13:53:00,77.0,77.0,50.0,29.31,10.0,SSW,23.0,0.0,Mostly Cloudy / Windy,False,False,False,False,False,False,False,False,False,False,False,False,False,Day,Day,Day,Day
C-1443888,2,2021-10-06 16:50:30,2021-10-06 17:11:00,38.945535,-77.257716,38.955889,-77.27133,1.02318703892,Slow traffic on VA-7 from Lewinsville Rd (VA-7) to Beulah Rd (VA-7) due to roadwork.,9026.0,Leesburg Pike,R,Vienna,Fairfax County,VA,22182-1723,US,US/Eastern,KIAD,2021-10-06 16:52:00,70.0,70.0,87.0,29.96,10.0,CALM,0.0,0.0,Cloudy,False,False,False,False,False,False,False,False,False,False,False,False,False,Day,Day,Day,Day
C-1443889,2,2020-03-26 06:01:00,2020-03-26 18:01:00,35.65035,-118.48586,35.6413,-118.48375,0.636419625536,At Keysville Road (Right) - Construction work.,,Wofford Heights Blvd,R,Lake Isabella,Kern,CA,93240,US,US/Pacific,KTSP,2020-03-26 05:55:00,30.0,19.0,100.0,25.85,5.0,WNW,16.0,0.08,Light Rain,False,False,False,False,False,True,False,False,False,True,False,False,False,Night,Night,Day,Day
C-1443890,2,2021-12-24 14:30:30,2021-12-24 16:43:45,28.565201,-81.286069,28.568344,-81.286692,0.220426731699,Slow traffic on FL-551 - FL-50 from Gatehouse Cir to Dorris Dr due to roadwork.,1613.0,N Goldenrod Rd,R,Orlando,Orange,FL,32807,US,US/Eastern,KORL,2021-12-24 14:53:00,78.0,78.0,43.0,30.02,10.0,E,9.0,0.0,Mostly Cloudy,False,False,True,False,False,False,False,False,False,False,False,False,False,Day,Day,Day,Day
C-1443891,2,2021-12-11 09:00:00,2021-12-11 15:45:00,41.177353,-76.27490999999998,41.182041,-76.278675,0.378486393976,Construction on HOLLOW RD near STATE RD Allow extra time.,30.0,Academy St,R,Stillwater,Luzerne,PA,17878-9236,US,US/Eastern,KIPT,2021-12-11 08:54:00,47.0,45.0,83.0,29.17,6.0,VAR,5.0,0.0,Haze,False,False,False,False,False,False,False,False,False,False,False,False,False,Day,Day,Day,Day
C-1443892,2,2021-07-21 10:27:00,2021-07-22 11:18:08,40.527456,-78.710323,40.512458,-78.69331600000002,1.36812457976,Construction on WINTERSET RD near SERVICE RD Allow extra time.,364.0,Winterset Rd,R,Ebensburg,Cambria,PA,15931-5812,US,US/Eastern,KJST,2021-07-21 10:31:00,66.0,66.0,87.0,27.63,3.0,WNW,7.0,0.0,Cloudy,False,False,False,False,False,False,False,False,False,False,False,False,False,Day,Day,Day,Day
C-1443893,2,2020-09-13 14:00:00,2020-09-14 02:45:00,37.531981,-75.82379,37.531691,-75.822813,0.0571589803355,On Rt. 1001 (Westfield Ave) in the County of Northampton from Broad St; Rt. 1017N/S (Northampton County) to Charnock St; Rt. 1033N/S (Northampton County) motorists can expect potential delays in this area from 09/13/20 at 7:00 AM until 09/13/20 at 7:45 PM due to maintenance activities. The west through lanes are closed.,11591.0,Westfield Ave,R,Exmore,Northampton,VA,23350,US,US/Eastern,KMFV,2020-09-13 13:55:00,79.0,79.0,66.0,30.03,10.0,E,6.0,0.0,Cloudy,False,False,False,False,False,False,False,False,False,False,False,False,False,Day,Day,Day,Day
C-1443894,2,2021-04-19 07:00:00,2021-04-19 19:45:00,36.905949,-77.564044,36.907943,-77.560935,0.220192376912,On Rt. 665 North in the County of Dinwiddie from Bolsters Rd; Walkers Mill Rd; Rt. 665N/S (Sussex County); County/City/Town Line: SUSSEX - DINWIDDIE COUNTY LINE to Dead End motorists can expect potential delays in this area from 04/19/21 at 7:00 AM until 04/19/21 at 7:00 PM due to maintenance activities. Alternating lane closures exist.,26847.0,Walkers Mill Rd,R,Stony Creek,Sussex,VA,23882,US,US/Eastern,KPTB,2021-04-19 06:55:00,49.0,49.0,89.0,29.57,10.0,CALM,0.0,0.0,Cloudy,False,False,False,False,False,False,False,False,False,False,False,False,False,Day,Day,Day,Day
C-1443895,2,2021-06-07 09:30:00,2021-06-08 17:45:00,33.466406,-111.714595,33.466403,-111.713828,0.0442091185725,Construction on MCDOWELL EB near HOUSE 5456 Construction. Left lane closed.,5344.0,E McDowell Rd,L,Mesa,Maricopa,AZ,85215,US,US/Mountain,KFFZ,2021-06-07 09:51:00,87.0,87.0,11.0,28.63,10.0,SE,8.0,0.0,Mostly Cloudy,False,False,False,False,False,False,False,False,False,False,False,False,False,Day,Day,Day,Day
C-1443896,2,2020-11-03 02:01:00,2020-11-03 15:46:00,33.989821,-117.350088,33.996051,-117.363568,0.8840821687980001,Construction on CA-60 WB near CA-91 Expect delays.,,CA-60 W,R,Riverside,Riverside,CA,92507,US,US/Pacific,KRAL,2020-11-03 01:53:00,58.0,58.0,70.0,29.16,10.0,CALM,0.0,0.0,Fair,False,False,False,False,False,False,False,False,False,False,False,False,False,Night,Night,Night,Night
C-1443897,2,2021-11-05 08:40:00,2021-11-05 09:01:30,27.828375,-82.678748,27.82875,-82.679549,0.0553784166854,Slow traffic on US-19 N from 33rd Way N to 64th Ave N due to roadwork.,3359.0,62nd Ave N,R,Saint Petersburg,Pinellas,FL,33702-6106,US,US/Eastern,KSPG,2021-11-05 08:53:00,70.0,70.0,97.0,29.93,4.0,ENE,20.0,0.19,Heavy Rain,True,False,True,False,False,False,False,False,True,False,False,False,False,Day,Day,Day,Day
C-1443898,2,2021-12-24 11:48:00,2021-12-24 13:04:30,33.480297,-112.216418,33.480272,-112.220547,0.23795699632,Stationary traffic from N 67th Ave (W Thomas Rd) to N 75th Ave (W Thomas Rd) due to roadwork.,7266.0,W Thomas Rd,L,Phoenix,Maricopa,AZ,85033-5544,US,US/Mountain,KGEU,2021-12-24 11:49:00,55.0,55.0,100.0,28.73,3.0,CALM,0.0,0.0,Light Rain,False,False,True,False,False,False,False,False,False,False,False,True,False,Day,Day,Day,Day
C-1443899,2,2021-03-09 04:40:00,2021-03-09 18:18:44,28.66316500000001,-81.352723,28.663237,-81.357904,0.314144386233,Stationary traffic on FL-436 from US-17/US-92 (FL-436) to CR-427/Longwood Ave/S Ronald Reagan Blvd (FL-436) due to roadwork.,1139.0,E Altamonte Dr,L,Altamonte Springs,Seminole,FL,32701-5024,US,US/Eastern,KORL,2021-03-09 04:53:00,54.0,54.0,83.0,30.33,10.0,N,9.0,0.0,Fair,False,False,True,False,False,False,False,False,False,False,False,True,False,Night,Night,Night,Night
C-1443900,2,2021-08-31 08:00:00,2021-09-02 23:59:00,40.732187,-74.12942199999998,40.734497,-74.101262,1.4829551253600002,Bridge work on Pulaski Skyway northbound US 1&amp;9 Truck Route/Raymond Blvd (Newark) to Tonnelle Circle (Jersey City) Tuesday August 31st 2021 thru Thursday September 2nd 2021 Tuesday/Wednesday/Thursday 08:00 AM thru 02:30 PM 1 Right lane of 2 lanes closed,,Pulaski Skwy N,R,Newark,Essex,NJ,07105,US,US/Eastern,KEWR,2021-08-31 07:51:00,78.0,78.0,74.0,29.78,10.0,CALM,0.0,0.0,Cloudy,False,False,False,False,True,False,False,False,False,False,False,False,False,Day,Day,Day,Day
C-1443901,2,2018-11-26 01:09:58,2018-11-30 13:02:14,34.78322,-86.67272,34.77649,-86.67279,0.46501568178,At Dan Tibbs Rd - Construction work.,,Highway 255,R,Huntsville,Madison,AL,35806,US,US/Central,KHUA,2018-11-26 00:58:00,48.9,,63.0,29.74,10.0,WNW,13.8,,Scattered Clouds,False,False,False,False,True,False,False,False,False,False,False,False,False,Night,Night,Night,Night
C-1443902,2,2020-11-16 12:08:30,2020-11-16 23:04:30,42.669961,-83.003151,42.669738,-83.012804,0.490637678084,Stationary traffic from Schoenherr Rd (23 Mile Rd) to MI-53 (23 Mile Rd) due to roadwork.,12771.0,23 Mile Rd,L,Shelby Township,Macomb,MI,48315-2707,US,US/Eastern,KMTC,2020-11-16 11:56:00,44.0,36.0,55.0,29.37,10.0,W,16.0,0.0,Mostly Cloudy,False,False,False,False,False,False,False,False,False,False,False,True,False,Day,Day,Day,Day
C-1443903,1,2020-10-23 12:54:54,2020-10-23 16:00:00,36.795231,-119.863731,,,0.2800000011919999,Road closed due to construction work on Richert Ave Southbound from Richert Ave to Swift Ave.,,N Golden State Blvd,R,Fresno,Fresno,CA,93722,US,US/Pacific,KFAT,2020-10-23 12:53:00,71.0,71.0,31.0,29.59,9.0,WNW,3.0,0.0,Fair,False,False,True,False,False,False,False,False,False,False,False,False,False,Day,Day,Day,Day
C-1443904,2,2020-03-06 15:33:06,2020-03-10 16:31:48,28.53674,-81.36424,28.53854,-81.36426999999998,0.124381485502,Between SR-408-toll and South St - Construction work.,1198.0,E Anderson St,R,Orlando,Orange,FL,32801-4027,US,US/Eastern,KORL,2020-03-06 15:53:00,76.0,76.0,26.0,29.94,10.0,NW,17.0,0.0,Fair,False,False,True,False,False,False,False,False,False,False,False,True,False,Day,Day,Day,Day
C-1443905,2,2021-01-08 12:48:30,2021-01-08 17:12:30,28.259001,-81.500958,28.255777,-81.486414,0.912740651743,Stationary traffic on US-92 E - US-17 N - US-92 W - US-17 S from CR-532/Osceola Polk Line Rd (US-92/US-17) to Poinciana Blvd (US-92/US-17) due to roadwork.,5428.0,S Orange Blossom Trl,R,Kissimmee,Osceola,FL,34758,US,US/Eastern,KISM,2021-01-08 12:56:00,68.0,68.0,55.0,29.82,10.0,W,21.0,0.0,Mostly Cloudy / Windy,False,False,True,False,False,False,False,False,False,False,False,True,False,Day,Day,Day,Day
C-1443906,2,2020-03-02 06:00:00,2020-07-31 18:00:00,39.74425,-84.56658,39.74425,-84.56658,0.0,At T.R. 426 (Ware Road) - Roadwork.,2.0,Stover Rd,L,West Alexandria,Preble,OH,45381-9390,US,US/Eastern,KMWO,2020-03-02 05:55:00,53.0,53.0,63.0,29.15,10.0,SSW,9.0,0.0,Cloudy,False,False,False,False,False,False,False,False,False,False,False,False,False,Night,Night,Night,Day
C-1443907,2,2020-10-13 19:54:30,2020-10-13 22:53:30,42.801431,-105.346578,42.817994,-105.324566,1.59828687159,Stationary traffic on WY-59 from N 4th St (WY-59) to CR-43/Walker Creek Rd (WY-59) due to bridge maintenance work.,355.0,State Highway 59,L,Douglas,Converse,WY,82633-9723,US,US/Mountain,KDGW,,,,,,,,,,,False,False,False,False,False,False,False,False,False,False,False,False,False,Night,Night,Night,Day
C-1443908,2,2020-09-15 09:26:47,2020-09-15 12:45:00,39.837402,-86.348773,39.813202,-86.291103,3.4871973184,Construction on I-74 EB near RONALD REAGAN PKY Left lane blocked. Expect delays.,,I-74 E,R,Brownsburg,Hendricks,IN,46112,US,US/Eastern,KEYE,2020-09-15 09:53:00,60.0,60.0,69.0,29.43,10.0,ENE,3.0,0.0,Fair,False,False,False,False,False,False,False,False,False,False,False,False,False,Day,Day,Day,Day
C-1443909,2,2021-12-24 17:10:30,2021-12-24 17:30:30,39.074946,-106.280654,39.026376,-106.245584,3.84744837421,Slow traffic on US-24 E - US-24 W from CO-82 (US-24) to CR-356 (US-24) due to roadwork.,1500.0,S US Highway 24,R,Twin Lakes,Lake,CO,81251-9636,US,US/Mountain,KLXV,2021-12-24 17:03:00,22.0,14.0,89.0,20.44,9.0,NE,6.0,0.0,Cloudy,False,False,False,False,False,False,False,False,False,False,False,False,False,Night,Day,Day,Day
C-1443910,4,2018-10-25 00:00:42,2018-10-25 04:59:59,37.7809,-122.23868,37.77613,-122.23561,0.369767373357,Closed at 23rd Ave - Closed due to roadwork.,,Nimitz Fwy S,R,Oakland,Alameda,CA,94606,US,US/Pacific,KOAK,2018-10-25 00:53:00,59.0,,90.0,30.1,10.0,Calm,,,Overcast,False,False,False,False,False,False,False,False,False,False,False,False,False,Night,Night,Night,Night
C-1443911,2,2020-10-06 14:10:53,2020-10-07 06:59:28,42.707301,-73.859077,42.700031,-73.844577,0.8912660167049999,Bridge work on I-90 westbound west of NY State Thruway Interchange 24 Toll Booths (Albany) Deck repairs Not currently scheduled,,I-90 E,R,Albany,Albany,NY,12205,US,US/Eastern,KALB,2020-10-06 13:51:00,62.0,62.0,62.0,29.7,10.0,SSE,12.0,0.0,Fair,False,False,False,False,False,False,False,False,False,False,False,False,False,Day,Day,Day,Day
C-1443912,2,2021-07-08 09:49:00,2021-07-08 15:15:00,37.656436,-76.450854,37.675382,-76.44233299999998,1.38952946318,Construction on VA-222 NB near JAMES LN Drive with caution.,3498.0,Weems Rd,L,Weems,Lancaster,VA,22576-2626,US,US/Eastern,KFYJ,2021-07-08 09:55:00,81.0,81.0,80.0,30.0,10.0,SSW,9.0,0.0,,False,False,False,False,False,False,False,False,False,False,False,False,False,Day,Day,Day,Day
C-1443913,2,2020-08-11 16:01:00,2020-08-11 19:46:00,38.906031,-122.671376,38.920551,-122.710506,2.3306587430900003,One-Way Traffic closure due to Utility Work between Private Rd and,12999.0,Diener Dr,R,Middletown,Lake,CA,95461,US,US/Pacific,KSTS,2020-08-11 15:53:00,74.0,74.0,57.0,29.74,10.0,SSE,10.0,0.0,Fair,False,False,False,False,False,False,False,False,False,False,False,False,False,Day,Day,Day,Day
