ID,Severity,Start_Time,End_Time,Start_Lat,Start_Lng,End_Lat,End_Lng,Distance(mi),Description,Number,Street,Side,City,County,State,Zipcode,Country,Timezone,Airport_Code,Weather_Timestamp,Temperature(F),Wind_Chill(F),Humidity(%),Pressure(in),Visibility(mi),Wind_Direction,Wind_Speed(mph),Precipitation(in),Weather_Condition,Amenity,Bump,Crossing,Give_Way,Junction,No_Exit,Railway,Roundabout,Station,Stop,Traffic_Calming,Traffic_Signal,Turning_Loop,Sunrise_Sunset,Civil_Twilight,Nautical_Twilight,Astronomical_Twilight
C-1545649,3,2016-10-05 03:00:35,2016-10-05 06:00:00,41.20806500000001,-73.094406,,,0.0,Two lanes closed due to construction on I-95 Northbound from Exit 33 US-1 Barnum Avenue Cutoff to Exit 34 US-1 Bridgeport Ave.,,I-95 S,R,Milford,New Haven,CT,06461,US,US/Eastern,KBDR,2016-10-05 02:52:00,54.0,,75.0,30.34,10.0,NNE,6.9,,Clear,False,False,False,False,False,False,False,False,False,False,False,False,False,Night,Night,Night,Night
C-1545650,2,2016-05-27 20:01:38,2016-05-28 02:01:38,38.3273,-85.46061999999998,38.33412,-85.43773,1.32711108001,At KY-2858 - Construction work.,5775.0,W Highway 22,R,Crestwood,Oldham,KY,40014-7220,US,US/Eastern,KLOU,2016-05-27 19:53:00,84.0,,51.0,29.93,10.0,South,5.8,,Clear,False,False,False,False,False,False,False,False,False,False,False,False,False,Day,Day,Day,Day
C-1545651,2,2019-06-17 07:00:00,2019-06-18 17:00:00,40.327468,-104.81178,40.32602,-104.811731,0.100080559337,At CO-256 - Construction work.,22585.0,State Highway 60,L,Milliken,Weld,CO,80543-9421,US,US/Mountain,KFNL,2019-06-17 06:56:00,58.0,58.0,90.0,25.06,10.0,CALM,0.0,0.0,Cloudy,False,False,False,False,False,False,False,False,False,False,False,False,False,Day,Day,Day,Day
C-1545652,4,2021-09-13 00:00:00,2021-11-05 18:03:06,41.591675,-93.632168,41.59167100000001,-93.632775,0.0313676958321,Construction on CENTER ST WB near AT 12TH ST Road closed. Take alternate route.,801.0,12th St,L,Des Moines,Polk,IA,50314,US,US/Central,KDSM,2021-09-13 00:54:00,69.0,69.0,81.0,29.0,10.0,E,6.0,0.0,Partly Cloudy,False,False,True,False,False,False,False,False,False,False,False,False,False,Night,Night,Night,Night
C-1545653,3,2019-05-24 21:03:02,2019-05-30 21:01:10,39.6131,-119.85568,39.55515,-119.78806000000002,5.3848892836300015,Between Lemmon Dr/Exit 74 and McCarran Blvd/Exit 70 - Roadwork.,,Martin Luther King Jr Memorial Fwy,R,Reno,Washoe,NV,89506,US,US/Pacific,KRTS,2019-05-24 20:55:00,48.0,48.0,76.0,24.89,10.0,SW,3.0,0.0,Fair,False,False,False,False,True,False,False,False,False,False,False,False,False,Night,Night,Day,Day
C-1545654,3,2021-03-25 03:25:56,2021-04-16 23:59:00,40.334225,-118.320045,,,0.0,Lane closed and temporary width limit of 16' due to construction work on I-80 both ways at Etna Rd.,,I-80 W,R,Lovelock,Pershing,NV,89419,US,US/Pacific,KLOL,2021-03-25 03:53:00,35.0,35.0,67.0,25.72,10.0,SE,3.0,0.0,Cloudy,False,False,False,False,False,False,False,False,False,False,False,False,False,Night,Night,Night,Night
C-1545655,2,2021-08-28 16:52:30,2021-08-28 17:20:30,42.935932,-114.406396,42.937992,-114.385296,1.07676133935,Slow traffic on US-93 S - US-26 E - US-93 N - US-26 W from ID-75/N Rail St E/Greenwood St (US-93) to 3rd St (US-93) due to roadwork.,185.0,W Rail St N,R,Shoshone,Lincoln,ID,83352-5335,US,US/Mountain,KJER,2021-08-28 16:53:00,77.0,77.0,19.0,25.98,10.0,SSW,5.0,0.0,Fair,False,False,True,False,False,False,True,False,False,False,False,False,False,Day,Day,Day,Day
C-1545656,2,2021-06-23 15:57:27,2021-06-23 16:26:06,32.055528,-81.01750600000003,32.059575,-81.024371,0.4896846164100001,Stationary traffic from US-80/GA-26 (Islands Expy) to Kerr McGee Rd (Islands Expy) due to roadwork.,2.0,Oatland Island Rd,R,Savannah,Chatham,GA,31410-1101,US,US/Eastern,KSVN,2021-06-23 15:56:00,85.0,85.0,65.0,30.01,10.0,ESE,9.0,0.0,Mostly Cloudy,False,False,False,False,False,False,False,False,False,False,False,False,False,Day,Day,Day,Day
C-1545657,2,2020-11-20 13:44:00,2020-11-21 04:22:28,25.76972,-80.333946,25.770904,-80.336395,0.1729515977519999,Slow traffic on County Hwy-913 - FL-973 from NW 84th Ave to Park Blvd due to roadwork.,8537.0,W Flagler St,L,Miami,Miami-Dade,FL,33126,US,US/Eastern,KMIA,2020-11-20 13:53:00,80.0,80.0,64.0,30.16,10.0,NE,16.0,0.0,Mostly Cloudy,False,False,True,False,False,False,False,False,False,False,False,False,False,Day,Day,Day,Day
C-1545658,2,2021-03-19 04:42:00,2021-03-19 13:57:55,33.427117,-112.08243799999998,33.429219,-112.082377,0.145276957432,Slow traffic from W Broadway Rd (S 7th Ave) to I-17/US-60/W Maricopa Fwy (S 7th Ave) due to roadwork.,2201.0,S 7th Ave,L,Phoenix,Maricopa,AZ,85007-4301,US,US/Mountain,KPHX,2021-03-19 04:51:00,58.0,58.0,33.0,28.83,10.0,ESE,5.0,0.0,Fair,False,False,False,False,False,False,False,False,False,True,False,True,False,Night,Night,Night,Night
C-1545659,2,2021-08-14 12:29:07,2021-08-14 19:32:18,48.494736,-110.972892,48.505496,-110.97296,0.7434517126970001,Roadwork from Black Coulee Rd (Fas 223) to US-2/Washington Ave (Fas 223).,3487.0,MT Highway 223,R,Chester,Liberty,MT,59522-7610,US,US/Mountain,KHVR,2021-08-14 12:53:00,92.0,92.0,17.0,27.3,10.0,SW,10.0,0.0,Fair,False,False,False,False,False,False,False,False,False,False,False,False,False,Day,Day,Day,Day
C-1545660,2,2020-09-08 02:04:00,2020-09-08 04:34:16,26.284744,-80.186275,26.285776,-80.18740799999998,0.100053656743,Stationary traffic from NW 42nd Dr to N State Road 7 due to roadwork.,4474.0,Lyons Rd,L,Pompano Beach,Broward,FL,33073,US,US/Eastern,KPMP,2020-09-08 01:53:00,79.0,79.0,88.0,29.83,10.0,E,6.0,0.0,Cloudy,False,False,False,False,False,False,False,False,False,False,False,False,False,Night,Night,Night,Night
C-1545661,2,2020-05-18 08:43:10,2020-05-25 03:29:37,38.98759,-104.53459,39.02644,-104.47853,4.03295640309,At Peyton Hwy - Roadwork.,10826.0,Elbert Rd,R,Peyton,El Paso,CO,80831,US,US/Mountain,KFLY,2020-05-20 08:55:00,55.0,55.0,89.0,23.25,10.0,S,9.0,0.0,Cloudy,False,False,False,True,False,False,False,False,False,True,False,False,False,Day,Day,Day,Day
C-1545662,2,2021-12-20 16:28:00,2021-12-20 16:56:00,39.788185,-105.081295,39.791753,-105.080983,0.247081188599,Stationary traffic on CO-121 from CR-58/W 44th Ave (Wadsworth Blvd/CO-121) to Ralston Rd/W 58th Ave (Wadsworth/CO-121) due to roadwork.,,Wadsworth Blvd,R,Arvada,Jefferson,CO,80002,US,US/Mountain,KBJC,2021-12-20 16:47:00,54.0,54.0,18.0,24.39,10.0,W,7.0,0.0,Fair,False,False,False,False,False,False,False,False,False,False,False,True,False,Day,Day,Day,Day
C-1545663,2,2021-08-10 12:32:11,2021-08-10 12:59:37,30.486103000000004,-91.119665,30.480054,-91.115349,0.490634419324,Slow traffic on US-61 S - US-190 E from Evangeline St (US-61) to LA-37/Greenwell Springs Rd (US-61) due to roadwork.,,Airline Hwy,R,Baton Rouge,East Baton Rouge,LA,70805,US,US/Central,KBTR,2021-08-10 12:53:00,88.0,88.0,63.0,30.08,10.0,WNW,3.0,0.0,Partly Cloudy,False,False,False,False,False,False,False,False,False,False,False,True,False,Day,Day,Day,Day
C-1545664,2,2021-03-10 04:50:00,2021-03-10 14:58:15,28.811592,-81.359726,28.810578000000003,-81.363038,0.212398050603,Slow traffic on FL-46 from N Henderson Ln to Wayside Dr due to roadwork.,5572.0,W State Road 46,L,Sanford,Seminole,FL,32771-9238,US,US/Eastern,KSFB,2021-03-10 04:53:00,55.0,55.0,89.0,30.34,10.0,CALM,0.0,0.0,Fair,False,False,False,False,False,False,False,False,False,False,False,False,False,Night,Night,Night,Night
C-1545665,2,2021-08-04 12:21:30,2021-08-04 14:22:54,41.690823,-87.741516,41.691956,-87.73969,0.122491172126,Slow traffic on IL-50 from S Lawler Ave to W 110th St due to roadwork.,4839.0,W 111th St,L,Alsip,Cook,IL,60803-2865,US,US/Central,KMDW,2021-08-04 11:53:00,82.0,82.0,37.0,29.47,10.0,NE,6.0,0.0,Fair,False,False,False,False,False,False,False,False,False,False,False,False,False,Day,Day,Day,Day
C-1545666,2,2020-12-08 14:30:30,2020-12-08 23:15:02,26.444463,-80.068374,26.436888,-80.07189699999998,0.566950840133,Slow traffic on US-1 S - FL-5 from SE 10th St (US-1) to NE 76th St/W Hidden Valley Blvd (US-1) due to roadwork.,1300.0,S Federal Hwy,R,Delray Beach,Palm Beach,FL,33483,US,US/Eastern,KBCT,2020-12-08 14:53:00,62.0,62.0,38.0,30.0,10.0,NW,12.0,0.0,Fair,False,False,False,False,False,False,False,False,False,True,False,True,False,Day,Day,Day,Day
C-1545667,2,2018-12-17 08:00:00,2018-12-24 17:01:00,39.551121,-105.00808,,,0.0,Intermittent lane closures due to construction during off-peak periods on Town Center Dr both ways from Highlands Ranch Pkwy to Lucent Blvd.,,Lucent Blvd,R,Littleton,Douglas,CO,80129,US,US/Mountain,KAPA,2018-12-17 07:53:00,36.0,31.1,31.0,30.18,10.0,SW,5.8,,Partly Cloudy,False,False,True,False,False,False,False,False,False,False,False,True,False,Day,Day,Day,Day
C-1545668,2,2021-10-09 16:52:30,2021-10-09 17:21:00,33.679357,-111.977238,33.682674,-111.97633700000002,0.234964599784,Slow traffic from AZ-101 (N Tatum Blvd) to E Pinnacle Peak Rd (N Tatum Blvd) due to roadwork.,21253.0,N Tatum Blvd,R,Phoenix,Maricopa,AZ,85054,US,US/Mountain,KSDL,2021-10-09 16:53:00,82.0,82.0,17.0,28.21,10.0,VAR,5.0,0.0,Fair,False,False,False,False,False,False,False,False,False,True,False,False,False,Day,Day,Day,Day
C-1545670,2,2021-05-19 04:30:30,2021-05-19 13:49:30,40.568364,-75.615257,40.575448,-75.62043,0.559711848034,Slow traffic on PA-100 from US-222/Trexlertown Rd (PA-100) to Penn Dr/Stroh Dr (PA-100) due to roadwork.,295.0,S Route 100,L,Allentown,Lehigh,PA,18106-9212,US,US/Eastern,KXLL,2021-05-19 04:35:00,57.0,57.0,67.0,29.87,10.0,S,3.0,0.0,Fair,False,False,True,False,False,False,False,False,False,False,False,True,False,Night,Night,Day,Day
C-1545671,2,2021-01-30 00:12:00,2021-01-31 02:10:36,37.446136,-119.650946,37.44235,-119.651176,0.261891782367,Roadwork on Oak St/White Chief Mountain Rd (CA-41) from Bass Lake Rd/Road 222 (CA-41) to CA-41.,45533.0,Highway 41,R,Oakhurst,Madera,CA,93644,US,US/Pacific,KMAE,2021-01-30 00:53:00,39.0,36.0,93.0,29.87,10.0,SE,5.0,0.0,Fair,False,False,False,False,False,False,False,False,False,False,False,False,False,Night,Night,Night,Night
C-1545672,2,2021-09-15 17:11:00,2021-09-15 19:14:02,41.929231,-87.848242,41.930633,-87.846637,0.127240424999,Stationary traffic from Spruce St to Cherry Ave due to roadwork.,8909.0,Grand Ave,R,River Grove,Cook,IL,60171-1322,US,US/Central,KORD,2021-09-15 16:51:00,75.0,75.0,41.0,29.28,10.0,E,9.0,0.0,Fair,False,False,False,False,False,False,False,False,False,False,False,False,False,Day,Day,Day,Day
C-1545673,4,2020-02-26 09:00:00,2020-02-26 16:00:00,40.87168,-74.19094,40.87168,-74.19094,0.0,At Valley Rd - Exit ramp closed. Construction work.,1277.0,US Highway 46,L,Clifton,Passaic,NJ,07013-2431,US,US/Eastern,KCDW,2020-02-26 08:53:00,46.0,46.0,93.0,29.77,1.0,CALM,0.0,0.0,Fog,False,False,False,False,False,False,False,False,False,False,False,False,False,Day,Day,Day,Day
C-1545674,2,2021-09-15 18:15:00,2021-09-15 20:16:00,33.465948,-112.153205,33.466515,-112.151793,0.0903236605585,Stationary traffic from N 45th Ave to W Granada Rd due to roadwork.,4323.0,W McDowell Rd,L,Phoenix,Maricopa,AZ,85035-4201,US,US/Mountain,KGEU,2021-09-15 18:05:00,104.0,104.0,11.0,28.57,10.0,SW,15.0,0.0,Fair,False,False,False,False,False,False,False,False,True,False,False,False,False,Day,Day,Day,Day
C-1545675,2,2021-12-22 17:33:00,2021-12-22 19:47:17,34.298475,-118.440361,34.299868,-118.439706,0.103253357528,Stationary traffic from Herrick Ave to Aztec St due to roadwork.,14114.0,Hubbard St,L,Sylmar,Los Angeles,CA,91342-4712,US,US/Pacific,KWHP,2021-12-22 17:55:00,61.0,61.0,34.0,28.97,10.0,CALM,0.0,,Fair,False,False,False,False,False,False,False,False,False,False,False,False,False,Night,Night,Day,Day
C-1545676,2,2021-04-26 10:01:00,2021-12-29 22:14:30,33.318936,-111.640086,33.317418,-111.635372,0.291680804778,Stationary traffic on AZ-24 E from E Ray Rd to AZ-24 W due to roadwork.,,AZ-24 E,R,Mesa,Maricopa,AZ,85212,US,US/Mountain,KIWA,2021-12-29 18:55:00,52.0,52.0,88.0,28.49,10.0,SE,9.0,0.0,Cloudy,False,False,False,False,False,False,False,False,False,False,False,False,False,Day,Day,Day,Day
C-1545677,2,2020-08-19 05:16:00,2020-08-19 12:45:00,39.18708400000001,-75.517712,39.199414,-75.535962,1.2964627565,Construction on DE-1 NB near DOVER DOWNS Left lane closed. Expect delays.,,DE-1 N,R,Dover,Kent,DE,19901,US,US/Eastern,KDOV,2020-08-19 04:56:00,69.0,69.0,87.0,29.84,10.0,CALM,0.0,0.0,Partly Cloudy,False,False,False,False,False,False,False,False,False,False,False,False,False,Night,Night,Day,Day
C-1545678,2,2021-12-26 22:22:30,2021-12-27 07:24:03,44.071463,-111.42062,44.071254,-111.39047,1.49677087299,Roadwork on 3675 E from N 3875 E to ID-47.,3675.0,E 1300 N,R,Ashton,Fremont,ID,83420,US,US/Mountain,KRXE,2021-12-26 22:12:00,20.0,6.0,81.0,24.79,2.0,S,15.0,0.0,Light Snow,False,False,False,False,False,False,False,False,False,False,False,False,False,Night,Night,Night,Night
C-1545679,3,2020-01-14 05:01:42,2020-01-17 02:00:04,35.60906,-80.52060999999998,35.57945,-80.55421,2.78374613253,Between Peeler Rd/Exit 71 and US-29-BYP/Exit 68 - Construction work. Roadway reduced to 2 lanes.,,US-601 S,R,Salisbury,Rowan,NC,28147,US,US/Eastern,KRUQ,2020-01-14 04:55:00,61.0,61.0,99.0,29.38,10.0,SSE,3.0,0.01,Cloudy,False,False,False,False,False,False,False,False,False,False,False,False,False,Night,Night,Night,Night
C-1545680,2,2021-09-27 00:00:00,2021-12-15 00:45:00,42.20062100000001,-83.38915899999998,42.193351,-83.388929,0.502447108656,Construction on I-275 SB near MICHIGAN AVE Construction. Left lane closed.,,I-275 S,R,Romulus,Wayne,MI,48174,US,US/Eastern,KDTW,2021-09-27 00:53:00,66.0,66.0,56.0,29.22,10.0,SW,18.0,0.0,Cloudy,False,False,False,False,True,False,False,False,False,False,False,False,False,Night,Night,Night,Night
C-1545681,2,2020-07-20 05:47:00,2020-07-21 06:37:30,28.531356,-81.385547,28.53837,-81.38203,0.529559141758,Construction on I-4 EB near EXIT 82A Construction. Left lane closed.,,I-4 E,R,Orlando,Orange,FL,32805,US,US/Eastern,KORL,2020-07-20 05:53:00,79.0,79.0,88.0,29.88,10.0,CALM,0.0,0.0,Fair,False,False,False,False,False,False,False,False,False,False,False,False,False,Night,Night,Day,Day
C-1545682,2,2021-03-11 10:15:30,2021-03-11 15:42:30,47.714633,-122.613086,47.721263,-122.625284,0.728943291167,Slow traffic on WA-305 from NE Hidden Cove Rd (WA-305) to WA-3 (WA-305) due to roadwork.,16716.0,State Highway 305 NE,R,Poulsbo,Kitsap,WA,98370-8650,US,US/Pacific,KPWT,2021-03-11 09:56:00,44.0,42.0,65.0,29.76,10.0,VAR,5.0,0.0,Fair,False,False,False,False,False,False,False,False,False,False,False,False,False,Day,Day,Day,Day
C-1545683,2,2021-04-16 09:55:30,2021-08-15 16:11:42,39.49375300000001,-85.968522,39.49505300000001,-85.965023,0.207058025289,Roadwork on N 700 E (IN-44) from S 750 W (IN-44) to IN-44.,7077.0,E State Road 44,R,Franklin,Johnson,IN,46131-8215,US,US/Eastern,K1II,2021-08-15 11:45:00,73.0,73.0,61.0,29.44,10.0,E,7.0,,Mostly Cloudy,False,False,False,False,False,False,False,False,False,False,False,False,False,Day,Day,Day,Day
C-1545684,2,2021-05-26 10:30:35,2021-12-30 02:59:46,33.918147,-84.338287,33.914196999999994,-84.351609,0.811142421945,Slow traffic on I-285 W - GA-407 W from exit [29] to exit [27] due to roadwork.,,GA-407 W,R,Atlanta,DeKalb,GA,30319,US,US/Eastern,KPDK,2021-05-26 10:53:00,82.0,82.0,52.0,29.16,8.0,WNW,6.0,0.0,Fair,False,False,False,False,False,False,False,False,False,False,False,False,False,Day,Day,Day,Day
C-1545685,2,2021-10-26 09:14:00,2021-10-26 09:34:00,33.309351,-111.635394,33.298049,-111.635141,0.7810304841419999,Slow traffic from AZ-24 (Ellsworth Rd) to S Rittenhouse Rd (S Ellsworth Rd) due to roadwork.,15726.0,S Ellsworth Rd,R,Mesa,Maricopa,AZ,85212,US,US/Mountain,KIWA,2021-10-26 08:50:00,63.0,63.0,37.0,28.49,10.0,WNW,12.0,0.0,Fair,False,False,False,False,False,False,False,False,False,False,False,False,False,Day,Day,Day,Day
C-1545686,3,2019-12-11 04:42:29,2020-07-02 00:00:00,42.971741,-85.593231,,,0.2300000041719999,Exit ramp from I-96 Eastbound at Exit 38 to E Beltline Ave Ne Northbound closed due to construction work. Detour in operation - I-96 to M-21 (Fulton St) then west on M-21 (Fulton St) to M-37 (East Beltline Ave).,,I-96 E,R,Grand Rapids,Kent,MI,49525,US,US/Eastern,KGRR,2019-12-11 04:53:00,21.0,7.0,68.0,29.2,8.0,WSW,17.0,0.0,Light Snow,False,False,False,False,False,False,False,False,False,False,False,False,False,Night,Night,Night,Night
C-1545687,2,2020-06-25 21:16:52,2020-06-29 21:21:20,40.74766,-73.96809,40.74285,-73.96106,0.495853173965,At Queens Midtown Tunl East End - Roadwork. Left lane blocked.,,Queens Midtown Tunl E,R,New York,New York,NY,10017,US,US/Eastern,KNYC,2020-06-25 20:51:00,75.0,75.0,55.0,29.86,10.0,SW,6.0,0.0,Fair,False,False,False,False,True,False,False,False,False,False,False,False,False,Night,Night,Day,Day
C-1545688,2,2020-10-26 17:34:04,2020-10-27 03:45:00,39.176558,-81.535391,39.257088,-81.500463,5.86983724071,Construction on I-77 NB near MM 169 Allow extra time.,,I-77 N,R,Mineral Wells,Wood,WV,26150,US,US/Eastern,KPKB,2020-10-26 17:40:00,55.0,55.0,86.0,29.21,10.0,CALM,0.0,0.0,Cloudy,False,False,False,False,False,False,False,False,False,False,False,False,False,Day,Day,Day,Day
C-1545689,2,2017-08-16 04:26:25,2017-08-16 10:26:25,32.837499,-97.108266,32.837578,-97.09761,0.618637770241,At FM-157/Industrial Blvd - Construction work.,,TX-183,R,Euless,Tarrant,TX,76040,US,US/Central,KDFW,2017-08-16 04:53:00,82.9,,69.0,29.82,10.0,South,17.3,,Mostly Cloudy,False,False,False,False,False,False,False,False,False,False,False,False,False,Night,Night,Night,Night
C-1545690,2,2021-10-03 00:00:00,2021-11-30 00:45:00,42.338392,-85.232078,42.357809,-85.232414,1.34169663875,Construction on BEDFORD RD NB near JACKSON ST Expect delays.,168.0,Bedford Rd S,R,Battle Creek,Calhoun,MI,49037,US,US/Eastern,KBTL,2021-10-03 00:03:00,68.0,68.0,93.0,28.92,10.0,S,8.0,0.0,Light Rain,False,False,False,False,False,False,False,False,False,False,False,True,False,Night,Night,Night,Night
C-1545691,2,2021-09-18 15:11:33,2021-09-18 15:54:48,40.777806,-74.057539,40.778481,-74.048445,0.4780837510980001,Stationary traffic on NJ-495 E from I-80 exit [18E] to NJ-3 W due to roadwork.,,New Jersey Tpke N,R,Secaucus,Hudson,NJ,07094,US,US/Eastern,KTEB,2021-09-18 14:51:00,81.0,81.0,58.0,29.98,10.0,NW,7.0,0.0,Partly Cloudy,False,False,False,False,False,False,False,False,False,False,False,False,False,Day,Day,Day,Day
C-1545692,2,2020-11-09 18:15:00,2020-11-09 22:51:36,41.835886,-87.623364,41.83104,-87.62326999999998,0.334861679056,Slow traffic from E 31st St (S Michigan Ave) to E 35th St (S Michigan Ave) due to roadwork.,3230.0,S Michigan Ave,R,Chicago,Cook,IL,60616,US,US/Central,KMDW,2020-11-09 17:53:00,72.0,72.0,57.0,29.3,10.0,S,7.0,0.0,Mostly Cloudy,False,False,True,False,False,False,False,False,True,False,False,True,False,Night,Night,Night,Night
C-1545693,2,2021-04-12 06:16:30,2021-04-12 17:42:47,26.724825,-80.06487299999998,26.72380900000001,-80.066707,0.133183825099,Slow traffic from Carver Ave to 11th Ct due to roadwork.,,Palm Beach Lakes Blvd,R,West Palm Beach,Palm Beach,FL,33401,US,US/Eastern,KPBI,2021-04-12 06:25:00,68.0,68.0,90.0,29.78,8.0,SW,7.0,0.0,T-Storm,False,False,False,False,False,False,False,False,False,False,False,False,False,Night,Night,Day,Day
C-1545694,2,2021-07-27 11:27:30,2021-07-27 13:56:00,39.763711,-86.342015,39.763699,-86.33254000000002,0.5032306460189999,Slow traffic on US-36 E - US-36 W from IN-267 (US-36) to Raceway Rd (Rockville Rd/US-36) due to roadwork.,10189.0,E US Highway 36,R,Avon,Hendricks,IN,46123-7429,US,US/Eastern,KIND,2021-07-27 11:54:00,86.0,86.0,44.0,29.23,10.0,VAR,3.0,0.0,Fair,False,False,False,False,False,False,False,False,False,False,False,False,False,Day,Day,Day,Day
C-1545695,2,2021-12-18 04:53:00,2021-12-18 06:31:00,37.573553,-118.735352,37.561793,-118.677242,3.2845302075,Slow traffic on US-395 S from South Landing Rd (US-395) to Wye Rd (US-395) due to roadwork.,,US-395 S,R,Mammoth Lakes,Mono,CA,93546,US,US/Pacific,KMMH,2021-12-18 04:57:00,-4.0,-4.0,85.0,23.25,10.0,NW,3.0,0.0,Fair,False,False,False,False,False,False,False,False,False,True,False,False,False,Night,Night,Night,Night
C-1545696,2,2021-10-19 16:32:59,2021-10-19 17:08:50,33.21182,-97.161429,33.218851,-97.161783,0.486226615027,Stationary traffic from N I-35 E/N Stemmons Fwy (N Bonnie Brae St) to US-380/W University Dr (N Bonnie Brae St) due to roadwork.,330.0,S Bonnie Brae St,R,Denton,Denton,TX,76201,US,US/Central,KDTO,2021-10-19 16:53:00,80.0,80.0,42.0,29.27,10.0,SE,18.0,0.0,Fair,False,False,True,True,False,True,False,False,False,False,False,False,False,Day,Day,Day,Day
C-1545697,2,2021-06-02 14:00:00,2021-12-21 12:48:17,41.929928,-87.691251,41.96273400000001,-87.74531400000002,3.5856211360800003,Stationary traffic on I-94 W - I-90 W - Kennedy Expy W from Diversey Ave exit [46B] to Kennedy Expy exit [43B] due to roadwork.,,I-90 W,R,Chicago,Cook,IL,60647,US,US/Central,KMDW,2021-06-02 13:53:00,76.0,76.0,35.0,29.31,10.0,E,13.0,0.0,Mostly Cloudy,False,False,False,False,False,False,False,False,False,False,False,False,False,Day,Day,Day,Day
C-1545698,2,2019-06-24 04:20:31,2019-06-28 04:49:00,40.465099,-96.501457,,,35.3300018311,Temporary width limit of 11'0\ feet due to maintenance work on NE-41 both ways from US-77 Homestead Expy to NE-43.,16201.0,E State Highway 41,L,Adams,Gage,NE,68301,US,US/Central,KBIE,2019-06-24 04:15:00,60.0,60.0,86.0,28.39,10.0,NW,8.0,0.0,Cloudy,False,False,False,False,False,False,False,False,False,False,False,False,False,Night,Night,Night,Day
C-1545699,2,2021-02-01 06:00:00,2021-04-01 06:30:00,30.599166,-96.361995,30.605166,-96.366445,0.491829448253,Construction on FM-2818 NB near FM-60 Expect long delays.,,Harvey Mitchell Pkwy S,R,College Station,Brazos,TX,77845,US,US/Central,KCLL,2021-02-01 05:53:00,42.0,37.0,70.0,30.05,10.0,NNW,9.0,0.0,Fair,False,False,False,False,True,False,False,False,False,False,False,False,False,Night,Night,Night,Day
C-1545700,2,2021-10-15 07:35:00,2021-10-15 09:44:14,28.811641,-81.360021,28.811152000000003,-81.363035,0.185570454859,Slow traffic on FL-46 from N Henderson Ln to Wayside Dr due to roadwork.,5587.0,W State Road 46,R,Sanford,Seminole,FL,32771-9224,US,US/Eastern,KSFB,2021-10-15 07:53:00,73.0,73.0,93.0,29.89,10.0,N,5.0,0.0,Partly Cloudy,False,False,False,False,False,False,False,False,False,False,False,False,False,Day,Day,Day,Day
C-1545701,2,2019-08-21 00:00:00,2019-08-21 16:30:00,44.065616,-70.205866,44.067983,-70.20296,0.2180839117749999,At Alfred A Plourde Pky/Exit 80 - Bridge maintenance work. Left lane closed.,,I-95 N,R,Lewiston,Androscoggin,ME,04240,US,US/Eastern,KLEW,2019-08-21 00:56:00,59.0,59.0,93.0,29.71,10.0,CALM,0.0,0.0,Fair,False,False,False,False,False,False,False,False,False,False,False,False,False,Night,Night,Night,Night
C-1545702,2,2020-10-24 01:42:00,2020-10-24 05:09:00,31.19695,-105.447572,31.192807,-105.433803,0.86267006593,Slow traffic on I-10 from Lasca Branch Rd/Exit 99 (I-10) to I-10 Bus Loop/Exit 106 (WB)/Exit 105 (EB) (I-10) due to roadwork.,,I-10 E,R,Sierra Blanca,Hudspeth,TX,79851,US,US/Mountain,KGDP,2020-10-24 01:51:00,39.0,27.0,73.0,24.71,9.0,NE,30.0,0.0,Fair / Windy,False,False,False,False,False,False,False,False,False,False,False,False,False,Night,Night,Night,Night
C-1545703,2,2016-08-30 00:48:33,2016-11-18 02:16:35,41.121622,-75.5357,41.109566,-75.500765,2.00020669895,At PA-423/Sullivan Rd/Township Rd 644 - Roadwork. Lane blocked.,1107.0,Route 940,R,Pocono Lake,Monroe,PA,18347-7805,US,US/Eastern,KMPO,2016-08-30 00:53:00,62.1,,75.0,30.19,10.0,North,8.1,,Clear,False,False,False,False,False,False,False,False,False,False,False,False,False,Night,Night,Night,Night
C-1545704,3,2019-11-06 07:03:18,2019-11-13 07:02:24,41.40388,-94.98414,41.40775,-94.87239,5.797400843509999,Between US-71 and Cr-n28 - Construction work. Roadway reduced to 2 lanes. look out for flagman.,701.0,Whitney St,L,Atlantic,Cass,IA,50022,US,US/Central,KAIO,2019-11-08 06:55:00,21.0,12.0,74.0,29.12,10.0,S,8.0,0.0,Fair,False,False,False,False,False,False,False,False,False,False,False,True,False,Day,Day,Day,Day
C-1545705,2,2020-10-10 13:55:30,2020-10-10 20:30:30,40.975998,-78.550638,40.976379,-78.540808,0.513450339117,Stationary traffic on PA-879 from US-219/Main St (PA-879) to PA-453/Filbert St (PA-879) due to roadwork.,4185.0,Curwensville Grampian Hwy,L,Curwensville,Clearfield,PA,16833-7025,US,US/Eastern,KFIG,2020-10-10 13:54:00,70.0,70.0,63.0,28.35,10.0,SW,12.0,0.0,Cloudy,False,False,False,False,False,False,False,False,False,False,False,False,False,Day,Day,Day,Day
C-1545706,2,2021-09-25 21:31:00,2021-09-25 21:52:00,33.449302,-112.075105,33.448282,-112.07508500000002,0.0704847190755,Stationary traffic from Van Buren St (N Central Ave) to Washington St (Central Ave) due to roadwork.,100.0,W Adams St,R,Phoenix,Maricopa,AZ,85003-2017,US,US/Mountain,KPHX,2021-09-25 21:51:00,88.0,88.0,28.0,28.69,10.0,WSW,7.0,0.0,Mostly Cloudy,True,False,True,False,False,False,True,False,False,False,False,True,False,Night,Night,Night,Night
C-1545707,2,2020-09-24 17:28:33,2020-09-24 22:45:00,40.726221,-73.766487,40.726271,-73.764277,0.115770359125,Construction construction on Grand Central Parkway eastbound just past Exit 20A - Francis Lewis Boulevard North (New York) right lane closed until 3:00 P.M.,,Grand Central Pkwy E,R,Hollis,Queens,NY,11423,US,US/Eastern,KJFK,2020-09-24 17:51:00,70.0,70.0,71.0,30.0,10.0,SSW,9.0,0.0,Mostly Cloudy,False,False,False,False,False,False,False,False,False,False,False,False,False,Day,Day,Day,Day
C-1545709,2,2021-12-09 17:19:00,2021-12-09 19:40:14,32.271964000000004,-110.975701,32.273005,-110.978071,0.156022824783,Stationary traffic on AZ-77 from E Prince Rd / N Stone Ave to W Pastime Rd due to roadwork.,267.0,W Prince Rd,R,Tucson,Pima,AZ,85705,US,US/Mountain,KDMA,2021-12-09 16:56:00,67.0,67.0,25.0,27.05,10.0,SW,12.0,0.0,Partly Cloudy,False,False,False,False,False,False,False,False,False,False,False,False,False,Night,Day,Day,Day
C-1545710,2,2021-06-10 13:51:08,2021-06-10 14:13:00,40.749184,-73.988225,40.750451,-73.987282,0.100497940077,Stationary traffic from W 23rd St (6th Ave) to W 42nd St (6th Ave) due to roadwork.,908.0,Avenue of the Americas,R,New York,New York,NY,10001,US,US/Eastern,KNYC,2021-06-10 13:51:00,83.0,83.0,39.0,29.93,10.0,ESE,8.0,0.0,Fair,True,False,True,False,False,False,True,False,True,False,False,True,False,Day,Day,Day,Day
C-1545711,2,2021-06-16 08:23:00,2021-12-04 15:38:00,34.006148,-118.408657,34.004234000000004,-118.410409,0.166008617797,Slow traffic from Overland Ave (Culver Blvd) to I-405/Sawtelle Blvd/San Diego Fwy (Culver Blvd) due to roadwork.,11134.0,Culver Blvd,L,Culver City,Los Angeles,CA,90230-4030,US,US/Pacific,KSMO,2021-12-04 14:51:00,58.0,58.0,78.0,29.92,5.0,WSW,7.0,0.0,Fair,False,False,True,False,False,False,False,False,True,True,False,False,False,Day,Day,Day,Day
C-1545712,2,2020-06-10 19:00:00,2020-06-11 05:00:00,38.92559,-104.99703,38.92559,-104.99703,0.0,At Chipita Park Rd - Construction work.,9475.0,W US Highway 24,L,Cascade,El Paso,CO,80809,US,US/Mountain,KAFF,2020-06-10 18:58:00,68.0,68.0,24.0,23.74,10.0,SSE,5.0,0.0,Partly Cloudy,False,False,False,False,False,False,False,False,False,False,False,False,False,Day,Day,Day,Day
C-1545713,2,2021-04-20 15:00:30,2021-04-20 15:22:30,40.322561,-75.310342,40.329596,-75.31018,0.486147105379,Slow traffic on PA-309 N from PA-113 (PA-309) to PA-152 (PA-309) due to roadwork.,,PA-309 N,R,Souderton,Bucks,PA,18964,US,US/Eastern,KUKT,2021-04-20 14:55:00,72.0,72.0,33.0,29.34,10.0,SSW,10.0,0.0,Fair,False,False,False,False,False,False,False,False,False,False,False,False,False,Day,Day,Day,Day
C-1545714,2,2021-08-11 11:06:00,2021-08-11 11:27:00,41.294704,-105.583811,41.30210200000001,-105.610725,1.48764330124,Slow traffic on I-80 W from I-80/US-30/Grand Ave/Exit 316 (I-80) to WY-230/Snowy Range Rd/Exit 311 (I-80) due to roadwork.,,I-80 W,R,Laramie,Albany,WY,82070,US,US/Mountain,KLAR,2021-08-11 10:53:00,76.0,76.0,10.0,23.1,10.0,WSW,14.0,0.0,Fair,False,False,False,False,False,False,False,False,False,False,False,False,False,Day,Day,Day,Day
C-1545715,2,2019-06-04 22:02:24,2019-06-08 22:02:21,28.56008,-81.37947,28.55996,-81.38098000000002,0.0920100544788,At US-17/US-92/Ivanhoe Blvd/Exit 84 - Construction work. Lane blocked.,,SW Ivanhoe Blvd,R,Orlando,Orange,FL,32804,US,US/Eastern,KORL,2019-06-04 21:53:00,83.0,83.0,74.0,29.93,10.0,SE,8.0,0.0,Fair,False,False,True,False,False,False,False,False,False,False,False,False,False,Night,Night,Night,Night
C-1545716,4,2021-12-13 20:05:00,2021-12-14 20:58:02,39.965887,-75.300191,39.966793,-75.298194,0.122889261187,Utility work on US 1 northbound between QUARRY CENTER DR WILSON DR and HOLLYWOOD AV PECO SUBSTATION PECO SUBSTATION DR. All lanes closed.,298.0,Township Line Rd,R,Havertown,Delaware,PA,19083,US,US/Eastern,KPHL,2021-12-13 19:54:00,47.0,42.0,44.0,30.28,10.0,SW,12.0,0.0,Fair,False,False,True,True,False,False,False,False,False,True,False,True,False,Night,Night,Night,Night
C-1545717,2,2021-08-24 19:43:30,2021-08-24 22:04:37,33.506566,-112.047539,33.509229,-112.046551,0.192598722637,Stationary traffic from E Highland Ave to Piestewa Fwy S due to roadwork.,4751.0,N 16th St,R,Phoenix,Maricopa,AZ,85016-4603,US,US/Mountain,KPHX,2021-08-24 19:51:00,101.0,101.0,18.0,28.61,10.0,NW,7.0,0.0,Fair,True,False,False,False,False,False,False,False,True,False,False,False,False,Night,Night,Day,Day
C-1545718,2,2021-04-22 02:38:30,2021-07-01 17:30:00,41.988904,-117.717593,41.985491,-117.716747,0.239784951154,Roadwork - on US-95 in both directions from Mile Post 0 to Mile Post 73.76 in Humboldt County Nevada. Shoulder work. Decrease Speed and Move Over for Workers and Equipment. Estimated End date is 07/01/21,,US-95 N,R,Orovada,Humboldt,NV,89425,US,US/Pacific,KWMC,2021-04-22 02:56:00,28.0,19.0,41.0,25.5,10.0,SSE,10.0,0.0,Fair,False,False,False,False,False,False,False,False,False,False,False,False,False,Night,Night,Night,Night
C-1545719,2,2020-10-25 13:36:30,2020-10-25 22:08:33,40.744989,-73.976377,40.74706,-73.981277,0.2937091342139999,Slow traffic from 2nd Ave (E 34th St) to Park Ave (E 34th St) due to resurfacing work.,256.0,E 34th St,R,New York,New York,NY,10016-4873,US,US/Eastern,KNYC,2020-10-25 13:51:00,52.0,52.0,54.0,30.14,10.0,ESE,7.0,0.0,Mostly Cloudy,False,False,True,False,False,False,False,False,True,False,False,True,False,Day,Day,Day,Day
C-1545720,2,2020-10-01 13:12:00,2020-10-02 01:13:30,44.94703300000001,-92.903414,44.94175300000001,-92.903564,0.36488699869,Queuing traffic on CR-19 from I-94 (Keats Ave N/Woodbury Dr/CR-19) to Tamarack Rd (Woodbury Dr/CR-19) due to roadwork.,173.0,Woodbury Dr,R,Saint Paul,Washington,MN,55125,US,US/Central,KSTP,2020-10-01 12:53:00,54.0,54.0,57.0,29.42,10.0,NNW,16.0,0.0,Mostly Cloudy,False,False,False,False,False,False,False,False,False,False,False,True,False,Day,Day,Day,Day
C-1545721,2,2016-12-28 09:01:25,2016-12-28 15:01:25,39.59147,-76.805237,39.58474,-76.80112,0.514081175429,At Trenton Rd - Construction work.,4496.0,Black Rock Rd,R,Upperco,Baltimore,MD,21155-9541,US,US/Eastern,KDMW,2016-12-28 08:55:00,35.6,30.7,70.0,30.13,10.0,West,5.8,,,False,False,False,False,False,False,False,False,False,False,False,False,False,Day,Day,Day,Day
C-1545722,2,2021-12-30 15:17:58,2021-12-30 17:20:22,28.803706,-81.886165,28.802109,-81.887703,0.14438315818,Slow traffic on US-27 S - FL-25 - FL-44 from Pasa del Norte St to Bryant St due to roadwork.,1231.0,W Dixie Ave,R,Leesburg,Lake,FL,34748-6315,US,US/Eastern,KLEE,2021-12-30 14:53:00,79.0,79.0,66.0,29.95,10.0,SE,6.0,0.0,Fair,False,False,False,False,False,False,False,False,False,False,False,False,False,Day,Day,Day,Day
C-1545723,2,2020-12-19 15:06:00,2020-12-20 00:29:30,33.309506,-111.894985,33.305805,-111.893602,0.267894720372,Stationary traffic from N Metro Blvd to AZ-101 Loop N due to roadwork.,599.0,N Metro Blvd,R,Chandler,Maricopa,AZ,85226-3104,US,US/Mountain,KCHD,2020-12-19 14:47:00,64.0,64.0,22.0,28.89,10.0,W,6.0,,Fair,False,False,False,False,False,False,False,False,False,False,False,True,False,Day,Day,Day,Day
C-1545724,2,2021-09-10 18:37:30,2021-09-10 20:49:49,33.48022,-112.044716,33.480207,-112.048168,0.198937988593,Slow traffic from AZ-51 (E Thomas Rd) to N 7th St (E Thomas Rd) due to roadwork.,1747.0,E Thomas Rd,R,Phoenix,Maricopa,AZ,85016-7603,US,US/Mountain,KPHX,2021-09-10 18:51:00,105.0,105.0,15.0,28.63,10.0,SE,3.0,0.0,Mostly Cloudy,True,False,False,False,False,False,False,False,True,False,False,False,False,Day,Day,Day,Day
C-1545725,2,2021-01-28 03:25:40,2021-01-29 04:16:11,39.27111,-76.556667,39.271026,-76.55677299999998,0.00811369769782,Construction on I-95 SB near MM 56 Expect long delays.,,I-95 S,R,Baltimore,Baltimore City,MD,21224,US,US/Eastern,KDMH,,,,,,,,,,,False,False,False,False,True,False,False,False,False,False,False,False,False,Night,Night,Night,Night
C-1545726,2,2020-12-21 04:38:37,2020-12-22 17:11:34,27.201089,-80.257482,27.205824,-80.258662,0.335096892757,Roadwork on SW Joan Jefferson Way (US-1) from FL-707/Dixie Hwy (US-1) to US-1 N - FL-5.,,Federal Hwy,R,Stuart,Martin,FL,34994,US,US/Eastern,KSUA,2020-12-21 04:35:00,72.0,72.0,88.0,29.95,10.0,SW,9.0,0.0,Light Rain,False,False,False,False,False,False,False,False,False,False,False,False,False,Night,Night,Night,Night
C-1545727,2,2021-10-13 18:00:30,2021-10-13 20:01:47,33.507919,-112.203169,33.5094,-112.203656,0.106103899934,Slow traffic from W Highland Ave to N 68th Dr due to roadwork.,4845.0,N 67th Ave,R,Phoenix,Maricopa,AZ,85033,US,US/Mountain,KGEU,2021-10-13 17:58:00,74.0,74.0,20.0,28.67,10.0,S,6.0,0.0,Fair,True,False,True,False,False,False,False,False,True,False,False,True,False,Night,Day,Day,Day
C-1545728,3,2021-02-10 04:21:00,2021-02-10 17:00:00,39.77108,-76.667564,,,0.0,Lane closed due to construction work on I-83 both ways at Exit 4 PA-851 Forrest Ave.,,I-83 S,R,Shrewsbury,York,PA,17361,US,US/Eastern,KTHV,2021-02-10 03:53:00,24.0,24.0,84.0,29.77,7.0,CALM,0.0,0.0,Cloudy,False,False,False,False,False,False,False,False,False,False,False,False,False,Night,Night,Night,Night
C-1545729,2,2021-06-05 14:59:32,2021-06-05 15:29:00,41.591972,-109.188158,41.606494,-109.209011,1.47229290877,Slow traffic on I-80 W - US-30 W from Baxter Rd/Exit 111 (I-80) to US-191/Elk St/Exit 104 (I-80) due to roadwork.,,I-80 W,R,Rock Springs,Sweetwater,WY,82901,US,US/Mountain,KRKS,2021-06-05 14:54:00,67.0,67.0,47.0,23.37,10.0,S,25.0,0.02,Light Rain / Windy,False,False,False,False,False,False,False,False,False,False,False,False,False,Day,Day,Day,Day
C-1545730,2,2016-07-14 21:01:51,2016-07-15 03:01:51,33.086654,-97.027238,32.97687,-96.92563,9.60100152895,Between McGee Ln/Exit 455 and President George Bush Tpke/Exit 445 - Construction work.,,US-77 S,R,Lewisville,Denton,TX,75077,US,US/Central,KDTO,2016-07-14 20:53:00,89.1,,53.0,29.89,10.0,SE,9.2,,Clear,False,False,False,False,False,False,False,False,False,False,False,False,False,Night,Day,Day,Day
C-1545731,2,2021-10-21 00:27:00,2021-10-21 00:50:30,46.997031,-109.657732,46.982941,-109.709056,2.60747725088,Slow traffic on US-87 N - MT-200 - US-191 N - US-87 S - US-191 S from MT-238/1st Ave/Main St (US-191) to US-87/MT-200 (US-191) due to roadwork.,,US Highway 87,R,Moore,Fergus,MT,59464,US,US/Mountain,KLWT,2021-10-21 00:54:00,45.0,41.0,58.0,25.8,10.0,WSW,7.0,0.0,Fair,False,False,False,False,False,False,False,False,False,False,False,False,False,Night,Night,Night,Night
C-1545732,2,2018-12-04 20:00:00,2018-12-05 05:00:00,38.64995,-104.696426,38.63091,-104.69132,1.3440886533,At Ray Nixon Rd/Exit 125 - Construction work.,,I-25 S,R,Fountain,El Paso,CO,80817,US,US/Mountain,KFCS,2018-12-04 19:58:00,19.0,11.1,37.0,30.4,10.0,North,5.8,,Clear,False,False,False,False,True,False,False,False,False,False,False,False,False,Night,Night,Night,Night
C-1545733,4,2021-05-24 07:00:00,2021-05-24 20:00:00,32.819501,-83.524971,32.816733,-83.521619,0.27287388204,US-80 E - US-80 W - GA-19 is closed from GA-57/Hitchcock Rd (US-80) to Old Gordon Rd (US-80) due to roadwork.,4900.0,Jeffersonville Rd,L,Macon,Bibb,GA,31217-6124,US,US/Eastern,KMCN,2021-05-24 06:53:00,60.0,60.0,93.0,29.76,10.0,CALM,0.0,0.0,Fair,False,False,False,False,False,False,False,False,False,False,False,False,False,Day,Day,Day,Day
C-1545734,4,2018-11-12 20:04:12,2018-11-13 01:03:32,29.72676,-95.33465,29.73198,-95.34202,0.570628212218,Ramp closed to Scott St and I-45 Frontage Northbound and Dowling St - Closed due to roadwork.,,I-45 N,R,Houston,Harris,TX,77023,US,US/Central,KMCJ,2018-11-12 19:55:00,46.4,38.7,81.0,30.21,10.0,NNW,20.7,,Overcast,False,False,False,False,True,False,False,False,False,False,False,True,False,Night,Night,Night,Night
C-1545735,2,2021-10-11 06:22:30,2021-10-11 06:31:30,40.707934,-74.156041,40.706077,-74.150416,0.321344811922,Slow traffic on I-78 E from Toll Plaza (I-78) to I-95/New Jersey Tpke (I-78) due to roadwork.,,I-78 E,R,Newark,Essex,NJ,07114,US,US/Eastern,KEWR,2021-10-11 06:51:00,64.0,64.0,78.0,30.06,10.0,NNE,14.0,0.0,Cloudy,False,False,False,False,False,False,False,False,False,False,False,False,False,Night,Night,Day,Day
C-1545736,2,2021-03-09 05:09:00,2021-03-09 21:14:17,25.897365,-80.211161,25.898305,-80.21073299999998,0.0701847235548,Stationary traffic on FL-916 - US-441 N from NW 134th St to I-95 S due to roadwork.,13399.0,NW 7th Ave,L,North Miami,Miami-Dade,FL,33168-2813,US,US/Eastern,KOPF,2021-03-09 04:53:00,68.0,68.0,55.0,30.34,10.0,E,15.0,0.0,Light Rain,False,False,False,False,False,False,False,False,False,False,False,False,False,Night,Night,Night,Night
C-1545737,2,2021-08-12 06:05:33,2021-08-13 06:33:00,28.284161,-81.35144,,,0.479999989271,Right hand shoulder closed due to construction on US-192 Irlo Bronson Memorial Hwy Southbound from Simpson Rd to Florida's Tpke.,2264.0,E Irlo Bronson Memorial Hwy,R,Kissimmee,Osceola,FL,34744-4422,US,US/Eastern,KISM,2021-08-12 05:56:00,,,,,10.0,CALM,0.0,0.0,Fair,False,False,False,False,False,False,False,False,False,False,False,True,False,Night,Night,Day,Day
C-1545738,2,2021-06-14 00:00:00,2021-06-14 07:29:15,38.673147,-77.242609,38.670468,-77.25285799999997,0.5830337517140001,Roadwork on US-1/Exit 161 (I-95 HOV) from VA-123/Exit 160 (I-95 HOV) to I-95 S - I-95 N.,,I-95 N,R,Lorton,Fairfax County,VA,22079,US,US/Eastern,KDAA,2021-06-14 00:56:00,71.0,71.0,81.0,29.78,10.0,SE,6.0,0.0,Partly Cloudy,False,False,False,False,False,False,False,False,False,False,False,False,False,Night,Night,Night,Night
C-1545739,2,2021-09-08 17:41:30,2021-09-08 19:44:09,41.902424,-88.341368,41.902926,-88.339811,0.0872583047939,Stationary traffic on IL-38 from State Route 38 / Millers Rd to Prairie St due to roadwork.,2621.0,Lincoln Hwy,R,Saint Charles,Kane,IL,60175,US,US/Central,KDPA,2021-09-08 17:52:00,75.0,75.0,41.0,29.04,10.0,NNW,13.0,0.0,Mostly Cloudy,False,False,False,False,False,False,False,False,False,False,False,False,False,Day,Day,Day,Day
C-1545740,2,2020-05-11 18:52:00,2020-05-11 20:54:35,38.630008,-121.401511,38.630008,-121.401511,0.0,At I-80-BR/Capital City Fwy/Bell St - Lane control signs not working.,2598.0,Auburn Blvd,R,Sacramento,Sacramento,CA,95821-1703,US,US/Pacific,KMCC,2020-05-11 18:45:00,64.0,64.0,68.0,29.78,10.0,WSW,12.0,,Mostly Cloudy,False,False,False,False,False,False,False,False,False,False,False,False,False,Day,Day,Day,Day
C-1545741,2,2021-11-05 21:15:30,2021-11-23 01:58:37,41.520538,-87.994388,41.520637,-87.994523,0.00977556748143,Roadwork from exit [137] to W Maple St.,,W Maple St,R,New Lenox,Will,IL,60451,US,US/Central,KLOT,2021-11-05 21:15:00,36.0,30.0,78.0,29.52,10.0,S,8.0,0.0,Fair,False,False,False,False,False,False,False,False,False,False,False,True,False,Night,Night,Night,Night
C-1545742,2,2021-03-02 04:54:00,2021-03-02 19:58:06,28.811366,-81.357574,28.812612,-81.363043,0.342103079033,Stationary traffic on FL-46 from Integra Village Trl to Westlake Ln due to roadwork.,5492.0,W State Road 46,L,Sanford,Seminole,FL,32771,US,US/Eastern,KSFB,2021-03-02 04:53:00,62.0,62.0,86.0,30.0,10.0,N,6.0,0.0,Fair,False,False,False,False,False,False,False,False,False,False,False,False,False,Night,Night,Night,Night
C-1545743,2,2021-06-15 18:38:42,2021-06-15 20:43:10,40.811906,-73.95734499999998,40.813787,-73.956693,0.134362612881,Slow traffic from Seminary Row / Morningside Dr to Broadway due to roadwork.,1288.0,Amsterdam Ave,L,New York,New York,NY,10027-4229,US,US/Eastern,KNYC,2021-06-15 18:51:00,76.0,76.0,48.0,29.64,,W,9.0,0.0,Fair,True,False,True,False,False,False,False,False,True,False,False,True,False,Day,Day,Day,Day
C-1545744,2,2021-11-03 11:07:02,2021-12-11 07:46:00,39.933736,-120.892321,39.934032,-120.898479,0.3268902790019999,Construction on CA-70 WB near CLOUGH ST Expect delays.,2358.0,E Main St,R,Quincy,Plumas,CA,95971-9513,US,US/Pacific,KOVE,2021-12-10 17:53:00,48.0,48.0,61.0,30.02,10.0,CALM,0.0,0.0,Fair,False,False,False,False,False,False,False,False,False,False,False,False,False,Day,Day,Day,Day
C-1545745,4,2017-11-20 22:00:00,2017-11-21 05:00:00,29.66111,-95.15608,29.661133000000003,-95.156077,0.00159932378757,At Spencer Hwy - Exit ramp closed. Construction work.,,E Sam Houston Tollway S,R,Pasadena,Harris,TX,77505,US,US/Central,KEFD,2017-11-20 21:50:00,59.0,,72.0,30.06,10.0,Calm,,,Partly Cloudy,False,False,False,False,True,False,False,False,False,False,False,False,False,Night,Night,Night,Night
C-1545746,4,2021-02-10 04:00:00,2021-02-10 13:00:00,29.419784000000003,-98.649501,29.445302,-98.636357,1.93241229268,Connally Loop - I-410 N - TX-16 N is closed from Marbach Rd/Exit 7 (I-410) to Military Dr/Exit 9 (I-410) due to roadwork.,,Connally Loop,R,San Antonio,Bexar,TX,78227,US,US/Central,KSKF,2021-02-10 03:56:00,53.0,53.0,87.0,29.24,8.0,ENE,8.0,0.0,Cloudy,False,False,False,False,True,False,False,False,False,False,False,False,False,Night,Night,Night,Night
C-1545747,2,2020-07-27 14:20:46,2020-07-28 15:27:54,39.364299,-77.52153,39.357119,-77.561221,2.17758930453,Construction on MD-180 WB near OLD HOLTER RD Expect long delays.,4223.0,Jefferson Pike,R,Jefferson,Frederick,MD,21755-8114,US,US/Eastern,KFDK,2020-07-27 14:47:00,95.0,95.0,41.0,29.56,10.0,W,9.0,0.0,Partly Cloudy,False,False,False,False,False,False,False,False,False,False,False,False,False,Day,Day,Day,Day
C-1545748,4,2019-08-07 14:48:43,2019-08-07 19:48:18,37.96148,-100.83975,37.99373,-100.83857,2.22918935444,Closed between US-83-br and KS-156/Kansas Ave - Closed due to roadwork.,,US-83 N,R,Garden City,Finney,KS,67846,US,US/Central,KGCK,2019-08-07 14:54:00,97.0,97.0,31.0,26.89,10.0,E,12.0,0.0,Fair,False,False,False,False,False,False,False,False,False,False,False,False,False,Day,Day,Day,Day
C-1545749,2,2021-09-21 07:44:00,2021-09-21 08:09:00,42.926748,-88.94420699999998,42.926438,-88.914417,1.50728960861,Stationary traffic on WI-106 from Kreutz Rd to Schwemmer Rd due to roadwork.,,W8298 State Road 106,R,Fort Atkinson,Jefferson,WI,53538-9791,US,US/Central,KRYV,2021-09-21 07:35:00,59.0,59.0,100.0,29.11,10.0,WNW,6.0,0.0,Mostly Cloudy,False,False,False,False,False,False,False,False,False,False,False,False,False,Day,Day,Day,Day
C-1545750,2,2021-11-21 13:59:30,2021-11-21 16:35:30,39.763717,-86.338638,39.764293,-86.33668399999998,0.111148410939,Slow traffic on US-36 E - US-36 W from Shiloh Professional Dr to Shiloh Xing / N County Road 1050 E due to roadwork.,10346.0,E US Highway 36,L,Avon,Hendricks,IN,46123-7050,US,US/Eastern,KIND,2021-11-21 13:54:00,45.0,39.0,93.0,29.16,6.0,WSW,12.0,0.0,Cloudy,False,False,False,False,False,False,False,False,False,False,False,False,False,Day,Day,Day,Day
C-1545751,2,2021-11-17 13:39:00,2021-11-17 15:45:17,29.780524,-98.734772,29.780365000000003,-98.736982,0.132985148706,Slow traffic on TX-46 from US-87 Bus/S Main St (US-87 Bus/Bandera Rd/S Main St/TX-46) to I-10/US-87 (Bandera Rd/TX-46) due to roadwork.,401.0,W Bandera Rd,R,Boerne,Kendall,TX,78006-2554,US,US/Central,K5C1,2021-11-17 13:35:00,75.0,75.0,50.0,28.49,10.0,S,10.0,0.0,Fair,False,False,False,False,False,False,False,False,False,False,False,False,False,Day,Day,Day,Day
C-1545752,2,2020-09-16 04:00:00,2020-11-21 07:45:00,38.827717,-77.455298,38.841289,-77.442993,1.14801891241,On I-66 in the County of Fairfax from mile marker 51.8 to mile marker 52.5 motorists can expect potential delays in this area from 11/03/20 at 9:00 PM until 11/04/20 at 5:00 AM due to construction activities. The east right center lane and right lane are closed.,,I-66 E,R,Centreville,Fairfax County,VA,20121,US,US/Eastern,KHEF,2020-09-16 03:56:00,47.0,47.0,100.0,30.05,2.0,CALM,0.0,0.0,Fog,False,False,False,False,False,False,False,False,False,False,False,False,False,Night,Night,Night,Night
C-1545753,2,2021-10-13 08:56:30,2021-10-13 09:24:00,40.000322,-105.257849,40.0087,-105.25854,0.58001876053,Stationary traffic on N Foothills Hwy W - Denver Boulder Tpke W - US-36 W from Table Mesa Dr (S Boulder Rd/US-36) to CO-7/Arapahoe Ave (28th St/US-36) due to roadwork.,,Denver Boulder Tpke W,R,Boulder,Boulder,CO,80303,US,US/Mountain,KBDU,2021-10-13 08:55:00,41.0,41.0,61.0,24.43,10.0,CALM,0.0,0.0,Fair,False,False,True,False,False,False,False,False,False,False,False,False,False,Day,Day,Day,Day
C-1545754,2,2021-10-07 12:08:00,2021-10-07 18:49:51,39.76547,-86.33686,39.763699,-86.33254000000002,0.26002862085,Slow traffic on US-36 E - US-36 W from Shiloh Xing to Washington due to roadwork.,86.0,N Ronald Reagan Pkwy,L,Avon,Hendricks,IN,46123,US,US/Eastern,KIND,2021-10-07 11:54:00,70.0,70.0,76.0,29.29,10.0,SSE,10.0,0.0,Mostly Cloudy,False,False,True,False,False,False,False,False,False,False,False,False,False,Day,Day,Day,Day
C-1545755,2,2020-06-15 20:01:15,2020-06-19 20:01:07,40.08158,-75.38857,40.08896,-75.40541,1.02590005994,Between US-202/Exit 328 and Valley Forge Interchange - Roadwork. Lane closed.,,Schuylkill Expy W,R,King of Prussia,Montgomery,PA,19406,US,US/Eastern,KLOM,2020-06-15 19:55:00,68.0,68.0,49.0,30.03,10.0,ESE,8.0,0.0,Fair,False,False,False,False,False,False,False,False,False,False,False,False,False,Day,Day,Day,Day
C-1545756,3,2019-10-07 00:01:00,2019-10-28 23:59:00,34.70425,-82.239632,,,7.23999977112,Intermittent lane closures due to bridge maintenance work on I-385 Westbound between Exit 22 SC-14 Main St and Exit 26 SC-453 Harrison Bridge Rd.,,Harrison Bridge Rd,R,Fountain Inn,Greenville,SC,29644,US,US/Eastern,KGYH,2019-10-07 00:35:00,68.0,68.0,83.0,29.18,10.0,NE,7.0,0.0,Mostly Cloudy,False,False,False,False,False,False,False,False,False,False,False,False,False,Night,Night,Night,Night
C-1545757,2,2021-08-22 11:50:27,2021-08-22 12:20:25,46.864901,-113.95561200000002,46.87684,-113.897136,2.88268288334,Slow traffic on US-12 E - I-90 E - MT-200 E - MT-200 from exit [107] to exit [109] due to roadwork.,,I-90 E,R,Missoula,Missoula,MT,59802,US,US/Mountain,KMSO,2021-08-22 11:53:00,67.0,67.0,52.0,26.54,10.0,SSE,7.0,0.0,Fair,False,False,False,False,False,False,False,False,False,False,False,False,False,Day,Day,Day,Day
C-1545758,4,2021-01-15 16:00:00,2021-01-15 23:00:00,40.524853,-95.544852,40.519299,-95.529231,0.905751476315,US-275 N - US-275 S is closed from MO-C (US-275) to MO-T (US-275) due to roadwork.,,US Highway 275,R,Rock Port,Atchison,MO,64482,US,US/Central,KAFK,2021-01-15 15:55:00,32.0,18.0,84.0,28.52,10.0,NNW,28.0,0.0,Cloudy / Windy,False,False,False,False,False,False,False,False,False,False,False,False,False,Day,Day,Day,Day
C-1545759,2,2020-06-15 09:03:34,2020-06-15 15:00:00,35.18818,-106.6139,35.19493,-106.6369,1.37990281715,At NM-194/Rio Grande Blvd - Roadwork. Left lane closed.,,Alameda Blvd NW,R,Albuquerque,Bernalillo,NM,87114,US,US/Mountain,KAEG,2020-06-15 08:47:00,73.0,73.0,33.0,24.4,10.0,S,7.0,0.0,Fair,False,False,False,False,False,False,False,False,False,False,False,True,False,Day,Day,Day,Day
C-1545760,2,2021-07-22 19:00:00,2021-07-23 07:00:00,29.1474,-82.11541,,,18.1100006104,One lane closed due to construction work on US-27 Pine Ave Southbound from 80th Ave to 40th Loop.,,SE 41st Street Rd,R,Ocala,Marion,FL,34480,US,US/Eastern,KOCF,2021-07-22 18:51:00,90.0,90.0,59.0,,10.0,W,12.0,0.0,Fair,False,False,False,False,False,False,False,False,False,False,False,True,False,Day,Day,Day,Day
C-1545761,2,2021-10-23 08:42:30,2021-10-23 08:55:00,40.924299,-80.557247,40.922651,-80.5527,0.263277346413,Slow traffic on Ohio Tpke E - I-76 E from I-680/Exit 234 (I-76) to OH--PA State Border (I-76) due to roadwork.,,Ohio Tpke E,R,Petersburg,Mahoning,OH,44454,US,US/Eastern,KUCP,2021-10-23 08:56:00,44.0,44.0,93.0,28.87,10.0,WSW,3.0,0.01,Light Rain,False,False,False,False,True,False,False,False,False,False,False,False,False,Day,Day,Day,Day
C-1545762,2,2019-10-28 09:08:55,2019-11-01 09:10:32,40.43853,-80.0147,40.44304,-80.02526,0.636758733119,Between Smithfield St Brg and Musk Way - Roadwork. Open.,,W Carson St,R,Pittsburgh,Allegheny,PA,15219,US,US/Eastern,KAGC,2019-10-28 09:03:00,45.0,42.0,100.0,28.82,0.25,S,6.0,0.0,Fog,False,False,False,False,False,False,False,False,False,False,False,False,False,Day,Day,Day,Day
C-1545763,2,2019-01-24 20:03:02,2019-01-28 20:02:38,30.39867000000001,-91.05492,30.39891,-91.05432,0.0394148361147,At US-61/Airline Hwy - Resurfacing work. Lane blocked.,,Siegen Ln,R,Baton Rouge,East Baton Rouge,LA,70816,US,US/Central,KBTR,2019-01-24 19:53:00,46.0,44.8,46.0,30.23,10.0,NNW,3.5,,Clear,False,False,False,False,False,False,False,False,False,False,False,True,False,Night,Night,Night,Night
C-1545765,2,2019-03-01 09:09:48,2019-04-01 13:09:00,43.240691,-124.229788,43.239753,-124.230917,0.0861949507486,At Coaledo Rd - Maintenance work.,95507.0,Highway 42,R,Coos Bay,Coos,OR,97420-8473,US,US/Pacific,KOTH,2019-03-01 08:56:00,41.0,37.1,93.0,30.09,9.0,South,5.8,0.17,Light Rain,False,False,False,False,False,False,False,False,False,False,False,False,False,Day,Day,Day,Day
C-1545766,2,2016-10-13 10:25:37,2016-10-13 15:00:00,37.56302,-122.32599,37.56227,-122.32516,0.0689333677521999,At 4th Ave - Roadwork.,1.0,E 3rd Ave,L,San Mateo,San Mateo,CA,94401-4010,US,US/Pacific,KSFO,2016-10-13 09:56:00,60.8,,72.0,30.08,10.0,SE,4.6,,Mostly Cloudy,False,False,True,False,False,False,False,False,True,False,False,True,False,Day,Day,Day,Day
C-1545767,2,2019-03-25 11:03:56,2019-03-29 11:03:15,42.3789,-83.20701,42.33531,-83.09004,6.688618808280001,Between M-39/Southfield Fwy/Exit 183 and I-75 - Construction work.,,I-96 E,R,Detroit,Wayne,MI,48227,US,US/Eastern,KDET,2019-03-25 10:53:00,37.0,27.7,39.0,30.27,10.0,NE,16.1,,Clear,False,False,False,False,False,False,False,False,False,False,False,False,False,Day,Day,Day,Day
C-1545768,4,2020-07-07 15:00:00,2020-12-22 00:45:00,39.837474,-84.676644,39.844062,-84.67662299999998,0.455188811376,Construction on OH-726 EB near ORPHANS RD Road closed. Take alternate route.,4483.0,State Route 726,R,Eldorado,Preble,OH,45321-9711,US,US/Eastern,KVES,2020-07-07 15:10:00,72.0,72.0,78.0,28.93,10.0,SSW,5.0,0.0,Fair,False,False,False,False,False,False,False,False,False,False,False,False,False,Day,Day,Day,Day
C-1545769,2,2021-07-18 18:01:00,2021-07-23 06:46:00,38.73679,-120.742059,38.737201,-120.718027,1.29550870445,Lane closure due to Drainage Work between Point View Dr and 5 Mi Rd / Paul Bunyan,2462.0,Highway 50,R,Placerville,El Dorado,CA,95667,US,US/Pacific,KPVF,2021-07-18 17:55:00,91.0,91.0,15.0,27.37,10.0,SW,6.0,0.0,Fair,False,False,False,False,False,False,False,False,False,False,False,False,False,Day,Day,Day,Day
C-1545770,2,2021-12-06 17:15:49,2021-12-06 19:20:48,32.578424,-97.355426,32.578394,-97.352656,0.1612880954419999,Slow traffic from W Main St (FM-1187 Bus) to FM-1187 (East) (FM-1187 Bus) due to roadwork.,406.0,E Main St,R,Crowley,Tarrant,TX,76036-2613,US,US/Central,KFWS,2021-12-06 16:46:00,52.0,52.0,26.0,29.48,10.0,N,14.0,0.0,Fair,False,False,False,False,False,False,False,False,False,False,False,False,False,Day,Day,Day,Day
C-1545771,2,2018-02-07 22:01:27,2018-02-08 04:01:27,40.732476,-74.006491,40.73246,-74.00649399999998,0.00111659725871,At Bank St - Construction work.,2.0,Grove St,R,New York,New York,NY,10014-5303,US,US/Eastern,KJRB,2018-02-07 21:56:00,39.9,35.8,83.0,,10.0,Variable,5.8,0.0,Overcast,True,False,True,False,False,False,False,False,False,False,False,True,False,Night,Night,Night,Night
C-1545772,2,2021-03-26 11:55:30,2021-03-26 13:20:00,38.019268,-102.613322,38.048102,-102.61602,1.99764299802,Slow traffic on US-385 N - US-385 S - US-287 S - US-287 N from CO-116 (US-385/US-287) to College Rd (US-385/S Main St/US-287) due to roadwork.,25525.0,US Highway 287,L,Lamar,Prowers,CO,81052-9707,US,US/Mountain,KLAA,2021-03-26 11:53:00,57.0,57.0,40.0,25.98,10.0,WNW,9.0,0.0,Fair,False,False,False,False,False,False,False,False,False,False,False,False,False,Day,Day,Day,Day
C-1545773,4,2018-10-23 23:55:27,2018-10-27 23:54:56,34.260220000000004,-118.4386,34.269079999999995,-118.44576,0.736143792591,Closed at CA-118/Exit 156A/Exit 156B - Closed due to roadwork.,,Golden State Fwy N,R,Pacoima,Los Angeles,CA,91331,US,US/Pacific,KWHP,2018-10-23 19:55:00,69.8,,64.0,29.91,10.0,Calm,,,Clear,False,False,False,False,True,False,False,False,False,False,False,False,False,Night,Night,Night,Night
C-1545774,2,2019-12-18 21:37:00,2019-12-18 23:40:46,32.846457,-117.20131200000002,32.846457,-117.20131200000002,0.0,At Genesee Ave - Lane control signs not working.,,CA-52 E,R,San Diego,San Diego,CA,92117,US,US/Pacific,KMYF,2019-12-18 21:53:00,46.0,46.0,54.0,29.64,10.0,NNE,3.0,0.0,Fair,False,False,False,False,True,False,False,False,False,False,False,False,False,Night,Night,Night,Night
C-1545775,2,2019-06-24 08:50:44,2019-06-28 08:52:57,40.456562,-76.377512,40.431626,-76.49907900000002,6.62045002436,Between PA-645/Exit 10 and I-81/Exit 1 - Roadwork. Open.,,I-78 W,R,Fredericksburg,Lebanon,PA,17026,US,US/Eastern,KMUI,2019-06-24 08:56:00,72.0,72.0,65.0,29.39,10.0,CALM,0.0,0.0,Mostly Cloudy,False,False,False,False,False,False,False,False,False,False,False,False,False,Day,Day,Day,Day
C-1545776,4,2020-08-10 17:10:49,2020-09-03 00:07:21,42.131646,-74.695665,42.132976,-74.696127,0.0948944018686999,Construction on NY-28 WB near SR-30 Road closed. Take alternate route.,38163.0,State Highway 28,R,Margaretville,Delaware,NY,12455,US,US/Eastern,KMSV,2020-08-10 16:56:00,86.0,86.0,53.0,28.54,10.0,SW,10.0,0.0,Fair,False,False,False,False,False,False,False,False,False,False,False,False,False,Day,Day,Day,Day
C-1545777,2,2020-08-30 17:46:30,2020-08-30 21:59:00,45.10149000000001,-93.456537,45.094789,-93.449494,0.576507316458,Slow traffic on I-94 from CR-30/95th Ave/Exit 213 (I-94) to I-494 (I-94) due to roadwork.,,I-94 E,R,Maple Grove,Hennepin,MN,55311,US,US/Central,KMIC,2020-08-30 17:53:00,73.0,73.0,51.0,28.81,10.0,SSE,14.0,0.0,Light Rain,False,False,False,False,True,False,False,False,False,False,False,False,False,Day,Day,Day,Day
C-1545778,2,2021-11-30 09:01:00,2021-11-30 14:44:00,33.704928,-117.954078,33.697538,-117.939928,0.960352940227,Construction on I-405 SB near CA-22 Expect delays.,,I-405 S,R,Fountain Valley,Orange,CA,92708,US,US/Pacific,KSNA,2021-11-30 08:53:00,56.0,56.0,87.0,30.01,0.5,CALM,0.0,0.0,Fog,False,False,False,False,False,False,False,False,False,False,False,False,False,Day,Day,Day,Day
C-1545779,2,2021-03-09 08:30:00,2021-03-11 04:00:00,33.681756,-112.134757,33.682151,-112.134764,0.0272948680336999,DEER VALLEY DR - SALTER DR - Construction - UNDERGROUNDLanesRestricted: SB&amp;#61;2 NB&amp;#61;ALLDEER VALLEY DR - SALTER DR,21516.0,N 35th Ave,R,Glendale,Maricopa,AZ,85308,US,US/Mountain,KDVT,2021-03-09 08:53:00,64.0,64.0,28.0,28.36,10.0,E,3.0,0.0,Fair,False,False,False,False,False,False,False,False,False,True,False,False,False,Day,Day,Day,Day
C-1545780,4,2020-08-19 17:06:00,2020-08-26 16:38:16,40.152571,-76.288175,40.148081,-76.281758,0.4594469890899999,Roadwork on PA 772 both directions between ST MARY AV and PIERSON RD. All lanes closed.,718.0,Rothsville Rd,R,Lititz,Lancaster,PA,17543-8504,US,US/Eastern,KLNS,2020-08-19 16:53:00,83.0,83.0,39.0,29.5,10.0,N,7.0,0.0,Fair,False,False,False,False,False,False,False,False,False,False,False,False,False,Day,Day,Day,Day
C-1545781,2,2021-05-26 09:31:00,2021-12-07 09:20:00,41.347842,-75.365875,41.347547,-75.36575400000002,0.0213269641789,Construction on PA-191 SB near SPRING HILL RD Allow extra time.,,Twin Rocks Rd,R,Sterling,Wayne,PA,18463,US,US/Eastern,KMPO,2021-05-26 09:53:00,73.0,73.0,73.0,28.06,10.0,WSW,12.0,0.0,,False,False,False,False,False,False,False,False,False,False,False,False,False,Day,Day,Day,Day
C-1545782,2,2021-03-02 08:41:00,2021-09-16 20:43:23,38.069413,-78.46795300000002,38.07029,-78.46831800000002,0.0637646125398,On Rt. 631 (Rio Rd E) in the County of Albemarle at Wakefield Rd; Rt. 1401N/S (Albemarle County); Rt. 651E/W (Albemarle County) motorists can expect potential delays in this area from 03/02/21 at 8:41 AM until 03/02/21 at 5:30 PM due to maintenance activities. The north right lane and right shoulder are closed.,1199.0,Rio Rd E,R,Charlottesville,Albemarle,VA,22901-1811,US,US/Eastern,KCHO,2021-03-02 08:53:00,39.0,34.0,39.0,29.6,10.0,VAR,7.0,0.0,Fair,False,False,False,False,False,False,False,False,True,False,False,False,False,Day,Day,Day,Day
C-1545783,2,2021-11-11 07:44:30,2021-11-11 11:04:32,27.894697,-82.784492,27.893847,-82.787172,0.173874625589,Stationary traffic on US-19 Alt S - FL-688 - FL-595 from Honeyvine Mobile Home Park to Lark Dr due to roadwork.,10507.0,Ulmerton Rd,R,Largo,Pinellas,FL,33771-3529,US,US/Eastern,KPIE,2021-11-11 08:53:00,72.0,72.0,93.0,30.1,10.0,SE,9.0,0.0,Mostly Cloudy,False,False,False,False,False,False,False,False,True,False,False,False,False,Day,Day,Day,Day
C-1545784,2,2021-04-02 04:05:00,2021-05-25 15:00:00,25.788902,-80.239577,25.794266,-80.239756,0.37078435791,Slow traffic on FL-9 from 14th St (FL-9) to 20th St (FL-9) due to roadwork.,,NW 16th St,R,Miami,Miami-Dade,FL,33125,US,US/Eastern,KMIA,2021-04-02 03:53:00,67.0,67.0,57.0,30.0,10.0,NNW,12.0,0.0,Mostly Cloudy,False,False,False,False,False,False,False,False,True,False,False,True,False,Night,Night,Night,Night
C-1545785,2,2021-11-04 13:09:30,2021-11-04 14:04:00,25.847484,-80.195335,25.848112,-80.19283,0.161694105865,Stationary traffic on FL-934 from NW 79th St / N Miami Ave to NE 82nd St due to roadwork.,101.0,NE 79th St,L,Miami,Miami-Dade,FL,33138-4816,US,US/Eastern,KOPF,2021-11-04 12:53:00,81.0,81.0,67.0,30.0,10.0,ESE,10.0,0.0,Cloudy,False,False,True,False,False,False,False,False,True,True,False,False,False,Day,Day,Day,Day
C-1545786,3,2021-11-03 23:02:09,2021-11-04 05:00:00,34.085869,-117.688019,,,1.12999999523,Entry ramp to I-10 Eastbound from Central Ave Northbound closed due to maintenance work.,,I-10 E,R,Montclair,San Bernardino,CA,91763,US,US/Pacific,KPOC,2021-11-03 20:47:00,61.0,61.0,77.0,28.95,5.0,CALM,0.0,,Fair,False,False,False,False,False,False,False,False,False,False,False,True,False,Night,Night,Night,Night
C-1545787,2,2021-04-09 10:13:00,2021-12-30 15:28:30,42.274742,-71.050523,42.264989,-71.046091,0.710947022186,Slow traffic on MA-3 S - I-93 S - US-1 S - Southeast Expy S from Columbia Rd exit [14] to exit [7] due to roadwork.,,I-93 S,R,Milton,Norfolk,MA,02186,US,US/Eastern,KMQE,2021-08-06 17:53:00,85.0,85.0,57.0,30.03,10.0,S,9.0,0.0,Fair,False,False,False,False,True,False,False,False,False,False,False,False,False,Day,Day,Day,Day
C-1545788,2,2021-09-27 07:19:08,2021-09-27 07:43:00,40.648668,-74.010176,40.653171,-74.005522,0.3953729081539999,Slow traffic from 65th St (4th Ave) to I-278/38th St (4th Ave) due to roadwork.,4601.0,4th Ave,L,Brooklyn,Kings,NY,11220-1117,US,US/Eastern,KJRB,2021-09-27 06:51:00,62.0,,58.0,29.89,10.0,,,0.0,Fair,True,False,True,False,False,False,True,False,False,False,False,True,False,Day,Day,Day,Day
C-1545789,3,2020-04-18 04:22:57,2020-04-22 04:22:10,33.87793,-117.5455,33.88042,-117.56671,1.22876001896,Ramp to CA-91 Westbound - Roadwork.,,I-15 N,R,Corona,Riverside,CA,92879,US,US/Pacific,KAJO,2020-04-18 03:56:00,56.0,56.0,80.0,29.44,10.0,CALM,0.0,0.0,Cloudy,False,False,False,False,True,False,False,False,False,False,False,False,False,Night,Night,Night,Night
C-1545790,4,2019-09-16 03:07:26,2019-09-16 08:07:05,33.68765,-117.89473,33.70899,-117.95861,3.95702139501,Closed between Bristol St/Exit 9 and Brookhurst St/Exit 14 - Closed due to roadwork.,,I-405 N,R,Costa Mesa,Orange,CA,92626,US,US/Pacific,KSNA,2019-09-16 02:53:00,70.0,70.0,78.0,29.82,9.0,E,3.0,0.0,Fair,False,False,False,False,True,False,False,False,False,False,False,False,False,Night,Night,Night,Night
C-1545791,2,2019-08-16 14:59:42,2019-08-17 15:00:00,33.856865,-118.390759,33.87287,-118.3955,1.13880062894,Between 3rd St and Artesia Blvd/Gould Ave - Construction work. Lane blocked.,223.0,Pacific Coast Hwy,L,Hermosa Beach,Los Angeles,CA,90254-5358,US,US/Pacific,KTOA,2019-08-16 14:47:00,73.0,73.0,65.0,29.79,10.0,W,15.0,,Fair,False,False,False,False,False,False,False,False,False,False,False,True,False,Day,Day,Day,Day
C-1545792,2,2020-10-28 15:00:40,2020-10-29 15:48:58,39.256888,-75.839017,39.256982,-75.838868,0.0102823801053,Construction on MD-313 NB near HIGH BRIDGE RD Expect long delays.,,Sassafras St,R,Millington,Kent,MD,21651,US,US/Eastern,KRJD,2020-10-28 14:55:00,70.0,70.0,88.0,29.94,10.0,SSW,5.0,0.0,Cloudy,False,False,False,False,False,False,False,False,False,False,False,False,False,Day,Day,Day,Day
C-1545793,2,2020-02-28 21:03:44,2020-03-03 21:03:30,34.00965,-83.85254,34.01119,-83.85561,0.205519831012,Between US-29-BR/GA-8/Atlanta Hwy and Green Tree Dr NW - Construction work. Right lane blocked.,1702.0,Atlanta Hwy NW,R,Auburn,Barrow,GA,30011,US,US/Eastern,KLZU,2020-02-28 20:56:00,40.0,37.0,73.0,28.99,10.0,W,5.0,0.0,Fair,False,False,True,False,False,False,False,False,False,False,False,True,False,Night,Night,Night,Night
C-1545794,2,2020-06-04 21:35:14,2020-06-05 05:00:00,38.76739,-90.41209,38.76739,-90.41209,0.0,At MO-370/Missouri Bottom/Exit 22 - Roadwork during the night.,,I-270 N,R,Bridgeton,St. Louis County,MO,63044,US,US/Central,KSTL,2020-06-04 21:51:00,79.0,79.0,62.0,29.17,10.0,CALM,0.0,0.0,Fair,False,False,False,False,True,False,False,False,False,False,False,False,False,Night,Night,Night,Day
C-1545795,2,2021-11-19 07:13:30,2021-11-19 09:21:43,26.202311,-80.18997900000002,26.203661,-80.18782,0.163139162821,Stationary traffic from NW 31st Way to NW 65th Dr due to roadwork.,6270.0,NW 31st Way,R,Fort Lauderdale,Broward,FL,33309-1647,US,US/Eastern,KFXE,2021-11-19 07:14:00,77.0,77.0,84.0,30.04,10.0,ENE,6.0,0.0,Mostly Cloudy,False,False,False,False,False,False,False,False,False,False,False,False,False,Day,Day,Day,Day
C-1545796,2,2021-07-02 14:39:59,2021-07-08 10:13:36,38.992118,-76.689902,38.991623,-76.703591,0.7359196661480001,Construction on MD-450 WB near COX RD Expect long delays.,1598.0,Defense Hwy,L,Gambrills,Anne Arundel,MD,21054-1908,US,US/Eastern,KFME,2021-07-07 09:35:00,82.0,82.0,74.0,29.87,10.0,CALM,0.0,,Fair,False,False,False,False,False,False,False,False,False,False,False,True,False,Day,Day,Day,Day
C-1545797,2,2021-03-16 06:49:00,2021-12-31 15:37:34,42.051429,-87.978708,42.05079600000001,-87.982061,0.177498890394,Stationary traffic on IL-58 from S Goebbert Rd to E Seegers Rd due to roadwork.,284.0,E Golf Rd,L,Arlington Heights,Cook,IL,60005-4008,US,US/Central,KPWK,2021-09-30 14:52:00,76.0,76.0,48.0,29.47,10.0,E,7.0,0.0,Fair,False,False,False,False,False,False,False,False,False,False,False,True,False,Night,Day,Day,Day
C-1545798,2,2021-07-23 13:46:47,2021-07-23 14:13:16,40.804447,-73.941634,40.812006,-73.93608499999998,0.597483755692,Slow traffic from E 120th St (Madison Ave) to E 135th St (Madison Ave) due to roadwork.,1903.0,Madison Ave,R,New York,New York,NY,10035-2711,US,US/Eastern,KNYC,2021-07-23 13:51:00,82.0,82.0,37.0,30.01,10.0,VAR,6.0,0.0,Fair,False,False,True,False,False,False,False,False,True,False,False,True,False,Day,Day,Day,Day
C-1545799,4,2020-04-28 23:44:55,2020-04-29 05:00:00,25.793968,-80.20554399999997,,,2.04999995232,Road closed due to construction work on I-95 Southbound from Exits 4 4B FL-112-TOLL Airport Expy to Exits 2D 3A 3B FL-836-TOLL.,,I-95 S,R,Miami,Miami-Dade,FL,33136,US,US/Eastern,KMIA,2020-04-28 23:53:00,77.0,77.0,56.0,30.09,10.0,E,13.0,0.0,Fair,False,False,False,False,False,False,False,False,False,False,False,False,False,Night,Night,Night,Night
C-1545800,2,2021-12-06 07:20:30,2021-12-06 09:35:14,25.684604,-80.400559,25.685901,-80.40190799999998,0.122825944701,Slow traffic on FL-94 from SW 89th Ter to SW 132nd Ave due to roadwork.,8901.0,SW 127th Ave,L,Miami,Miami-Dade,FL,33186,US,US/Eastern,KTMB,2021-12-06 07:06:00,73.0,,93.0,30.1,10.0,,,0.0,Mostly Cloudy,False,False,False,False,False,False,False,False,False,False,False,False,False,Day,Day,Day,Day
C-1545801,2,2019-08-28 00:00:01,2019-08-29 00:00:01,39.75034,-105.66649,39.749914,-105.667545,0.0633026361803,At 15th St/Exit 228 - Construction work.,,I-70 W,R,Georgetown,Clear Creek,CO,80444,US,US/Mountain,K0CO,2019-08-28 00:53:00,42.0,42.0,65.0,21.04,10.0,E,3.0,0.0,Fair,False,False,False,False,False,False,False,False,False,False,False,False,False,Night,Night,Night,Night
C-1545802,2,2021-04-13 06:03:00,2021-04-13 17:03:46,33.465740000000004,-112.011624,33.465268,-112.01292,0.0815086183972,Stationary traffic from N 33rd St to AZ-202 Loop W due to roadwork.,3240.0,E McDowell Rd,L,Phoenix,Maricopa,AZ,85008-3842,US,US/Mountain,KPHX,2021-04-13 05:51:00,68.0,68.0,24.0,28.54,10.0,E,3.0,0.0,Fair,True,False,False,False,False,False,False,False,True,False,False,False,False,Day,Day,Day,Day
C-1545803,2,2019-08-18 09:02:11,2019-08-22 09:01:45,29.44582,-95.07422,29.50638,-95.11596,4.87973062024,Between FM-517/Exit 19 and FM-518/Exit 23 - Construction work.,,I-45 N,R,Dickinson,Galveston,TX,77539,US,US/Central,KLVJ,2019-08-18 08:53:00,87.0,87.0,74.0,29.88,10.0,S,8.0,0.0,Fair,False,False,False,False,True,False,False,False,False,False,False,False,False,Day,Day,Day,Day
C-1545804,2,2021-03-29 07:40:50,2021-03-29 14:34:55,25.788905,-80.141109,25.792047,-80.140854,0.217670372378,Slow traffic on FL-907 from 16th St to Lenox Ave due to roadwork.,1599.0,Alton Rd,R,Miami Beach,Miami-Dade,FL,33139-3301,US,US/Eastern,KMIA,2021-03-29 07:53:00,76.0,76.0,82.0,30.09,10.0,CALM,0.0,0.0,Mostly Cloudy,True,False,False,False,False,False,False,False,True,False,False,True,False,Day,Day,Day,Day
C-1545805,4,2021-04-05 01:09:42,2021-04-12 23:59:00,29.322725,-94.771144,29.322315000000003,-94.772723,0.099249159197,Closed road from Ferry Rd to Marine Dr due to roadwork.,100.0,Trout Ave,R,Galveston,Galveston,TX,77550-3134,US,US/Central,KGLS,2021-04-05 00:52:00,67.0,67.0,84.0,30.16,10.0,SE,9.0,0.0,Fair,False,False,False,False,False,False,False,False,False,False,False,False,False,Night,Night,Night,Night
C-1545806,4,2020-03-20 06:20:47,2020-03-21 06:20:47,40.43258,-79.81992,40.42939000000001,-79.81605,0.3000104096379999,Closed at PA-130/Tri Boro Expy - Closed due to roadwork.,1296.0,Rodi Rd,R,Pittsburgh,Allegheny,PA,15235,US,US/Eastern,KAGC,2020-03-20 06:37:00,60.0,60.0,96.0,28.6,1.0,SSW,7.0,0.11,Heavy Rain,False,False,False,False,False,False,False,False,False,True,False,False,False,Night,Night,Night,Day
C-1545807,4,2019-09-11 12:07:10,2019-09-11 16:56:07,38.541896,-106.200343,38.497822,-105.919127,15.5040185325,Closed between CO-114 and CO-69 - Closed due to serious fire. Roadwork.,17237.0,W US Highway 50,R,Salida,Chaffee,CO,81201,US,US/Mountain,KANK,2019-09-11 11:55:00,71.0,71.0,30.0,22.88,10.0,S,17.0,,Mostly Cloudy,False,False,False,False,False,False,False,False,False,False,False,False,False,Day,Day,Day,Day
C-1545808,2,2021-04-24 09:48:30,2021-04-24 21:44:47,44.906805,-85.632178,44.91795,-85.627545,0.802722207881,Roadwork on E Bingham Rd (S West Bay Shore Dr/MI-22) from MI-204/Race St (St Joseph St/MI-22) to M-22.,11020.0,E Hilltop Rd,R,Suttons Bay,Leelanau,MI,49682-9418,US,US/Eastern,KTVC,2021-04-24 09:53:00,54.0,54.0,57.0,29.2,10.0,S,8.0,0.0,Cloudy,False,False,False,False,False,False,False,False,False,False,False,False,False,Day,Day,Day,Day
C-1545809,2,2021-11-12 08:30:00,2021-11-12 17:15:00,37.590567,-77.464019,37.590554,-77.46417,0.00831574282286,Construction on BELLEVUE AVE EB near BELLEVUE AVE Construction. Shoulder closed.,,Bellevue Ave,R,Richmond,Richmond City,VA,23227,US,US/Eastern,KOFP,2021-11-12 08:54:00,62.0,62.0,86.0,29.76,10.0,WSW,8.0,0.0,Cloudy,False,False,True,False,False,False,False,False,False,False,False,True,False,Day,Day,Day,Day
C-1545810,2,2021-12-03 14:47:45,2021-12-03 15:10:58,25.850277,-80.180051,25.850147,-80.18472299999998,0.29064250253,Slow traffic on FL-934 from NE 10th Ave (NE 82nd St/FL-934) to US-1/FL-5/Biscayne Blvd (NE 82nd St/FL-934) due to roadwork.,804.0,NE 82nd St,R,Miami,Miami-Dade,FL,33138-4161,US,US/Eastern,KOPF,2021-12-03 14:53:00,77.0,77.0,52.0,30.06,10.0,E,9.0,0.0,Partly Cloudy,False,False,True,False,False,False,False,False,True,False,False,True,False,Day,Day,Day,Day
C-1545811,2,2019-06-06 23:57:53,2019-06-07 04:59:00,34.19912,-118.403442,,,0.52999997139,Entry ramp to Ca-170 Southbound from Sherman Way closed due to construction work.,,CA-170 S,R,North Hollywood,Los Angeles,CA,91605,US,US/Pacific,KBUR,2019-06-06 23:53:00,62.0,62.0,84.0,29.1,7.0,SSE,5.0,0.0,Cloudy,False,False,False,False,False,False,False,False,False,False,False,False,False,Night,Night,Night,Night
C-1545812,2,2021-11-19 07:43:00,2021-11-19 08:53:30,30.297669,-81.522402,30.26926,-81.52074499999998,1.96536316358,Slow traffic on I-295 S - E Beltway S from Saint Johns Bluff Rd (I-295) to Town Center Pkwy/U N F Dr (I-295) due to roadwork.,,E Beltway S,R,Jacksonville,Duval,FL,32246,US,US/Eastern,KCRG,2021-11-19 07:53:00,66.0,66.0,84.0,30.18,10.0,NNE,8.0,0.0,Cloudy,False,False,False,False,False,False,False,False,False,False,False,False,False,Day,Day,Day,Day
C-1545813,2,2021-10-13 18:41:33,2021-10-13 19:05:41,40.756538,-73.8755,40.757395,-73.867456,0.42514472338,Slow traffic on NY-25A from 82nd St (Northern Blvd/NY-25A) to 108th St (Northern Blvd/NY-25A) due to roadwork.,9202.0,Northern Blvd,R,Jackson Heights,Queens,NY,11372,US,US/Eastern,KLGA,2021-10-13 18:51:00,70.0,70.0,73.0,29.96,10.0,VAR,5.0,0.0,Cloudy,True,False,False,False,False,False,False,False,False,False,False,True,False,Night,Day,Day,Day
C-1545814,2,2021-05-27 07:58:30,2021-05-27 10:45:12,26.724831,-80.071372,26.72555,-80.066529,0.302973870446,Stationary traffic from 7th St to 13th St due to roadwork.,,Palm Beach Lakes Blvd,R,West Palm Beach,Palm Beach,FL,33401,US,US/Eastern,KPBI,2021-05-27 07:53:00,79.0,79.0,69.0,30.11,10.0,SE,10.0,0.0,Mostly Cloudy,False,False,False,False,False,False,False,False,False,False,False,False,False,Day,Day,Day,Day
C-1545815,4,2020-10-27 05:59:49,2020-11-03 07:59:00,31.4277,-100.408974,31.431712,-100.409672,0.280240654633,Closed road from Perimeter Rd to Farrow St due to roadwork.,410.0,Kearney Blvd,L,Goodfellow Afb,Tom Green,TX,76908-4107,US,US/Central,,,,,,,,,,,,False,False,False,False,False,False,False,False,False,False,False,False,False,Night,Night,Night,Night
C-1545816,2,2021-08-24 09:40:30,2021-12-05 15:45:12,40.364946,-80.019134,40.365179,-80.023901,0.251472557684,Slow traffic on PA-88 from Hamilton Rd to Poplar Ave due to roadwork.,3675.0,Library Rd,L,Pittsburgh,Allegheny,PA,15234-2230,US,US/Eastern,KAGC,2021-10-19 14:53:00,68.0,68.0,40.0,28.78,10.0,W,8.0,0.0,Fair,False,False,True,False,False,False,True,False,False,False,False,False,False,Day,Day,Day,Day
C-1545817,2,2021-02-28 05:36:30,2021-06-02 17:32:52,25.890334,-80.185466,25.891171,-80.18645500000002,0.0844013003213,Slow traffic on FL-915 - FL-922 from NE 6th Ct to NE 126th St due to roadwork.,648.0,NE 125th St,R,North Miami,Miami-Dade,FL,33161-5504,US,US/Eastern,KOPF,2021-02-28 05:53:00,73.0,73.0,76.0,30.16,10.0,ESE,9.0,0.0,Fair,False,False,False,False,False,False,False,False,True,False,False,False,False,Night,Night,Night,Day
C-1545818,2,2021-10-21 08:08:00,2021-10-21 08:29:00,36.578968,-98.480275,36.578978,-98.462385,0.992618286578,Stationary traffic on OK-45 from CR-460 (OK-45) to OK-8 (OK-45) due to roadwork.,,N2540 Rd,R,Carmen,Alfalfa,OK,73726,US,US/Central,KAVK,2021-10-21 08:15:00,43.0,40.0,87.0,28.67,10.0,NW,5.0,0.0,Fair,False,False,False,False,False,False,False,False,False,True,False,False,False,Day,Day,Day,Day
C-1545819,4,2020-12-10 05:01:00,2020-12-10 14:46:00,34.067157,-117.521161,34.066832,-117.512499,0.496284993584,Construction on I-10 EB near ETIWANDA AVE Take alternate route.,,I-10 E,R,Fontana,San Bernardino,CA,92335,US,US/Pacific,KONT,2020-12-10 04:53:00,46.0,46.0,51.0,28.93,10.0,CALM,0.0,0.0,Fair,False,False,False,False,False,False,False,False,False,False,False,False,False,Night,Night,Night,Night
C-1545820,2,2021-08-03 19:00:00,2021-08-04 06:00:00,35.48994099999999,-86.074143,35.463244,-86.054826,2.14099254953,Interstate 24 both directions in Coffee County - Between MILE MARKER 111 (Mile Marker: 111) and MILE MARKER 119 (Mile Marker: 119) resurfacing work will cause a reduction in lanes from two to one lane at night. This work is expected to be completed by 09/30/2021.,,McMinnville Hwy,R,Manchester,Coffee,TN,37355,US,US/Central,KTHA,2021-08-03 18:55:00,79.0,79.0,47.0,28.82,10.0,ENE,3.0,0.0,Mostly Cloudy,False,False,False,False,False,False,False,False,False,False,False,False,False,Day,Day,Day,Day
C-1545821,4,2019-01-09 01:00:16,2019-01-09 03:09:43,40.68323,-75.29423,40.68304000000001,-75.2817,0.656645019602,At PA-33 - Roadwork.,,US-22 E,R,Easton,Northampton,PA,18045,US,US/Eastern,KABE,2019-01-09 01:00:00,37.9,34.4,89.0,29.57,4.0,WSW,4.6,,Overcast,False,False,False,False,True,False,False,False,False,False,False,False,False,Night,Night,Night,Night
C-1545822,2,2020-09-15 16:00:00,2020-09-16 00:45:00,29.534221,-95.856431,29.531621,-95.821881,2.08477214183,Construction on I-69 NB near KROESCHE RD Left lane closed. Expect delays.,,I-69 N,R,Rosenberg,Fort Bend,TX,77471,US,US/Central,KSGR,2020-09-15 15:53:00,92.0,92.0,52.0,29.81,10.0,NNW,12.0,0.0,Partly Cloudy,False,False,False,False,False,False,False,False,False,False,False,False,False,Day,Day,Day,Day
C-1545823,2,2021-06-17 11:20:30,2021-06-17 11:44:30,44.886149,-88.645112,44.887103,-88.652957,0.389652021734,Stationary traffic on WI-55 - WI-47 - County Hwy-VV from CR-VV/Fairgrounds Rd (WI-55/WI-47) to WI-55 (WI-55/WI-47) due to roadwork.,,W932 State Highway 47,R,Keshena,Menominee,WI,54135-9336,US,US/Central,KEZS,2021-06-17 11:15:00,79.0,79.0,43.0,29.02,10.0,SW,8.0,0.0,Partly Cloudy,False,False,False,False,False,False,False,False,False,False,False,False,False,Day,Day,Day,Day
C-1545824,2,2021-06-25 19:23:35,2021-06-26 04:08:35,45.335982,-121.92098,45.342118,-121.93683,0.8788051785459999,Construction on US-26 WB near MP 43 Construction. Right lane closed.,72139.0,Mount Hood Hwy,R,Rhododendron,Clackamas,OR,97049-8700,US,US/Pacific,KCZK,2021-06-25 19:53:00,91.0,91.0,35.0,29.84,10.0,W,6.0,0.0,Fair,False,False,False,False,False,False,False,False,False,False,False,False,False,Day,Day,Day,Day
C-1545825,2,2020-10-10 09:42:30,2020-10-11 01:39:34,40.80587,-73.92517099999998,40.80840900000001,-73.923326,0.200212999995,Slow traffic from New York--Bronx County Border (Willis Ave) to 3rd Ave (Willis Ave) due to roadwork.,,Bruckner Blvd,R,Bronx,Bronx,NY,10454,US,US/Eastern,KLGA,2020-10-10 09:51:00,66.0,66.0,65.0,30.01,10.0,SW,12.0,0.0,Mostly Cloudy,False,False,False,False,False,False,False,False,False,False,False,True,False,Day,Day,Day,Day
C-1545826,2,2020-08-17 14:11:10,2020-08-18 14:58:53,35.67648,-106.012884,35.66135,-106.034184,1.58817122211,Construction on NM-599 SB near MM 6 Drive with caution.,,Via Veteranos,R,Santa Fe,Santa Fe,NM,87507,US,US/Mountain,KSAF,2020-08-17 13:53:00,88.0,,20.0,24.06,10.0,,,0.0,Fair,False,False,False,False,False,False,False,False,False,False,False,False,False,Day,Day,Day,Day
C-1545827,2,2018-04-11 09:09:00,2018-04-11 15:00:00,42.939518,-70.861182,42.92059,-70.869854,1.3794229442,At RT-107/Exit 1 - Construction work. 2 lanes closed.,,New Hampshire Tpke S,R,Hampton,Rockingham,NH,03842,US,US/Eastern,KPSM,2018-04-11 05:56:00,28.9,,99.0,30.18,0.1,Calm,,,Light Freezing Fog,False,False,False,False,False,False,False,False,False,False,False,False,False,Day,Day,Day,Day
C-1545828,2,2021-11-01 12:26:30,2021-11-01 12:51:00,47.603193,-122.337497,47.601913,-122.335508,0.128093464682,Slow traffic on WA-519 from Ferry Rd / Marion St to 1st Ave S due to roadwork.,,Marion St,R,Seattle,King,WA,98104,US,US/Pacific,KBFI,2021-11-01 12:53:00,54.0,54.0,64.0,29.85,10.0,NW,3.0,0.0,Cloudy,False,False,True,False,False,False,False,False,False,False,False,True,False,Day,Day,Day,Day
C-1545829,4,2016-09-07 13:01:17,2016-09-12 06:01:17,42.54645,-83.22008000000002,42.54583,-83.24555,1.29721724589,Closed between Cranbrook Rd and Southfield Rd - Closed due to roadwork.,101.0,Southfield Rd,L,Birmingham,Oakland,MI,48009-1601,US,US/Eastern,KVLL,2016-09-07 12:54:00,88.0,,60.0,30.05,10.0,Calm,,,Scattered Clouds,False,False,True,False,False,False,False,False,False,False,False,True,False,Day,Day,Day,Day
C-1545830,4,2020-12-17 04:31:54,2020-12-24 07:59:00,42.632285,-71.288975,42.632475,-71.288325,0.0355538517214,Closed road from Rogers St / Haines Ave to Rogers St due to roadwork.,455.0,Rogers St,R,Lowell,Middlesex,MA,01852-4245,US,US/Eastern,KLWM,2020-12-17 04:54:00,18.0,3.0,88.0,29.82,0.5,NNE,16.0,0.01,Light Snow,False,False,False,False,False,False,False,False,True,False,False,False,False,Night,Night,Night,Night
C-1545831,2,2021-08-24 17:04:30,2021-08-24 18:05:30,42.01204600000001,-87.702055,42.012556,-87.71146999999998,0.4846158621940001,Stationary traffic from N Francisco Ave to Howard St due to roadwork.,2899.0,W Touhy Ave,L,Chicago,Cook,IL,60645-2901,US,US/Central,KORD,2021-08-24 17:11:00,88.0,88.0,65.0,29.17,10.0,WNW,5.0,0.0,Thunder,False,False,False,False,False,False,False,False,True,False,False,False,False,Day,Day,Day,Day
C-1545832,2,2020-06-26 15:06:15,2020-06-29 15:06:15,34.90956,-97.35384,34.97918,-97.37194,4.91830272703,Between McClain/Garvin County Line and OK-74/Exit 91 - Roadwork. Roadway reduced to 1 lane.,,I-35 N,R,Wayne,McClain,OK,73095,US,US/Central,KPVJ,2020-06-26 15:15:00,89.0,89.0,62.0,28.93,10.0,SSE,8.0,0.0,Partly Cloudy,False,False,False,False,False,False,False,False,False,False,False,False,False,Day,Day,Day,Day
C-1545833,2,2020-12-03 15:15:00,2020-12-04 00:15:00,33.710702000000005,-117.187785,33.947262,-117.299746,17.5626152408,Construction on I-215 NB near MCCALL BLVD Expect delays.,,Escondido Fwy N,R,Menifee,Riverside,CA,92586,US,US/Pacific,KF70,2020-12-03 15:15:00,68.0,68.0,7.0,28.74,10.0,SSE,9.0,0.0,Fair,False,False,False,False,False,False,False,False,False,False,False,False,False,Day,Day,Day,Day
C-1545834,2,2021-07-12 07:01:00,2021-07-12 17:46:00,40.940929,-123.636418,40.939821,-123.633287,0.180458382781,Construction on CA-299 EB near OLD THREE CREEK RD Expect long delays.,38398.0,State Highway 299,R,Willow Creek,Humboldt,CA,95573,US,US/Pacific,KACV,2021-07-12 07:01:00,52.0,52.0,97.0,29.73,1.0,SSW,3.0,0.0,Fog,False,False,False,False,False,False,False,False,False,False,False,False,False,Day,Day,Day,Day
C-1545835,2,2021-02-10 14:26:58,2021-02-11 00:46:46,25.730776,-80.367698,25.732392,-80.368916,0.134959608505,Slow traffic on FL-976 - FL-985 from SW 41st Ter to SW 108th Ave due to roadwork.,4084.0,SW 107th Ave,R,Miami,Miami-Dade,FL,33165-4815,US,US/Eastern,KMIA,2021-02-10 14:53:00,81.0,81.0,65.0,30.08,10.0,ESE,10.0,0.0,Mostly Cloudy,False,False,False,False,False,False,False,False,False,False,False,False,False,Day,Day,Day,Day
C-1545836,3,2020-05-10 21:28:35,2020-05-11 21:28:35,40.6425,-80.46194,40.64726,-80.50332,2.19415214758,Between PA-168 and Pennsylvania/Ohio State Line - Roadwork. Single alternate lane traffic.,106.0,Railroad Ave,L,Midland,Beaver,PA,15059-1229,US,US/Eastern,KBVI,2020-05-10 21:35:00,45.0,42.0,90.0,28.55,10.0,S,5.0,,Cloudy,False,False,False,False,False,False,False,False,False,False,False,False,False,Night,Night,Day,Day
C-1545837,3,2017-08-14 19:31:27,2017-10-31 06:00:00,41.42193,-81.81984,41.45473,-81.7164,5.81747543532,Between I-480/Exit 239 and US-42/Fulton Rd/Exit 245 - Construction work. Roadway reduced to 2 lanes.,,I-71 N,R,Cleveland,Cuyahoga,OH,44135,US,US/Eastern,KCLE,2017-08-16 19:51:00,80.1,,45.0,30.01,10.0,NE,10.4,,Partly Cloudy,False,False,False,False,False,False,False,False,False,False,False,False,False,Day,Day,Day,Day
C-1545838,2,2021-12-05 11:51:30,2021-12-05 12:11:30,40.748451,-73.98248000000002,40.749121,-73.98406999999997,0.0952347328995,Stationary traffic from Madison Ave to 5th Ave / W 35th St due to roadwork.,201.0,Madison Ave,R,New York,New York,NY,10016-4343,US,US/Eastern,KNYC,2021-12-05 11:51:00,45.0,45.0,34.0,30.28,10.0,CALM,0.0,0.0,Fair,True,False,False,False,False,False,False,False,True,False,False,True,False,Day,Day,Day,Day
C-1545839,2,2018-10-14 23:48:12,2018-10-15 05:01:00,33.931343,-118.395981,,,1.6699999570800002,Three lanes closed due to utility work on CA-1 Sepulveda Blvd Northbound between El Segundo Blvd and Imperial Hwy.,,S Sepulveda Blvd,R,El Segundo,Los Angeles,CA,90245,US,US/Pacific,KLAX,2018-10-14 23:53:00,66.0,,84.0,29.99,10.0,NNW,4.6,,Scattered Clouds,False,False,False,False,False,False,False,False,False,False,False,False,False,Night,Night,Night,Night
C-1545840,2,2020-09-06 06:14:00,2020-09-06 06:59:30,35.450059,-94.763592,35.44815900000001,-94.801352,2.12939626114,Slow traffic on I-40 from US-64/Exit 311 (I-40) to I-40/US-59/Exit 308 (I-40) due to roadwork.,,I-40 W,R,Sallisaw,Sequoyah,OK,74955,US,US/Central,KJSV,2020-09-06 06:15:00,70.0,70.0,100.0,29.58,5.0,CALM,0.0,0.0,Fair,False,False,False,False,False,False,False,False,False,False,False,False,False,Night,Night,Day,Day
C-1545841,2,2021-09-23 07:00:00,2021-09-23 17:45:00,41.925055,-72.628288,41.925939,-72.63324,0.261789808134,Construction on CT-140 WB near CT-140 Drive with caution.,,Elm St,R,Windsor Locks,Hartford,CT,06096,US,US/Eastern,KBDL,2021-09-23 06:51:00,69.0,69.0,96.0,29.83,10.0,SE,6.0,0.0,Partly Cloudy,False,False,False,False,False,False,False,False,False,False,False,True,False,Day,Day,Day,Day
C-1545842,2,2021-03-29 19:05:43,2021-03-30 03:05:43,44.50165300000001,-120.385416,44.451477,-120.463528,5.1815966115,Road maintenance operations are occurring causing no to minimum delays. Use caution.,,Ochoco Hwy,R,Mitchell,Wheeler,OR,97750,US,US/Pacific,KRDM,2021-03-29 18:56:00,41.0,32.0,41.0,27.01,10.0,W,18.0,0.0,Cloudy,False,False,False,False,False,False,False,False,False,False,False,False,False,Day,Day,Day,Day
C-1545843,2,2020-09-25 01:21:37,2020-09-25 07:00:00,34.028549,-117.572983,,,1.64999997616,Exit ramp from CA-60 Westbound to S Haven Ave closed due to paving repairs.,,CA-60 W,R,Ontario,San Bernardino,CA,91761,US,US/Pacific,KONT,2020-09-25 00:53:00,70.0,70.0,59.0,28.88,10.0,CALM,0.0,0.0,Fair,False,False,False,False,False,False,False,False,False,False,False,False,False,Night,Night,Night,Night
C-1545844,2,2021-04-12 10:42:30,2021-04-12 12:11:00,39.874015,-75.350587,39.890941,-75.35874,1.24680740466,Slow traffic on Mid-County Expy N - Veterans Memorial Hwy N - I-476 N from I-95 (I-476) to Baltimore Pike/Exit 3 (I-476) due to roadwork.,,I-476 N,R,Woodlyn,Delaware,PA,19094,US,US/Eastern,KPHL,2021-04-12 10:54:00,49.0,42.0,80.0,29.74,10.0,ENE,18.0,0.0,Cloudy,False,False,False,False,False,False,False,False,False,False,False,False,False,Day,Day,Day,Day
C-1545845,2,2021-03-15 06:25:17,2021-12-31 11:44:30,40.769879,-73.96890400000002,40.764295,-73.97299699999998,0.4412821977699999,Slow traffic from 79th St (5th Ave) to 57th St (5th Ave) due to roadwork.,2.0,E 68th St,R,New York,New York,NY,10065-5807,US,US/Eastern,KNYC,2021-05-24 07:51:00,62.0,62.0,53.0,30.17,10.0,NE,6.0,0.0,Mostly Cloudy,True,False,True,False,False,False,False,False,True,False,False,True,False,Night,Night,Day,Day
C-1545846,3,2018-07-27 10:10:28,2018-09-24 23:59:00,32.446907,-93.980606,,,12.3800001144,Left lane closed due to maintenance work on I-20 both ways between Texas State Line and Exit 3 LA-169 Greenwood Mooringsport Rd.,,Greenwood Mooringsport Rd,R,Greenwood,Caddo,LA,71033,US,US/Central,KSHV,2018-07-27 09:56:00,91.0,,45.0,30.01,7.0,South,5.8,,Partly Cloudy,False,False,False,False,False,False,False,False,False,False,False,False,False,Day,Day,Day,Day
C-1545847,2,2020-06-22 07:24:27,2020-06-26 07:25:39,40.85918,-75.71786999999998,40.863,-75.73822,1.0956589193700002,At PA-903/River St - Roadwork. Lane blocked.,,Mauch Chunk St,R,Lehighton,Carbon,PA,18235,US,US/Eastern,KABE,2020-06-22 07:51:00,74.0,74.0,73.0,29.57,10.0,CALM,0.0,0.0,Fair,False,False,False,False,False,False,False,False,False,False,False,False,False,Day,Day,Day,Day
C-1545848,3,2016-06-17 09:56:13,2016-06-17 18:56:13,41.23233,-81.49217,41.23242,-81.4898,0.123304931731,At OH-8/Akron Cleveland Rd - Construction work.,6098.0,Akron Cleveland Rd,L,Hudson,Summit,OH,44236,US,US/Eastern,KPOV,2016-06-17 10:00:00,71.2,,67.0,29.99,10.0,NE,5.8,,Clear,False,False,False,False,False,False,False,False,False,False,False,True,False,Day,Day,Day,Day
C-1545849,2,2021-11-03 15:34:00,2021-11-03 15:56:30,42.566913,-87.907761,42.566819,-87.91419,0.327213784169,Stationary traffic on WI-50 from 77th Ave (75th St/WI-50) to 88th Ave (75th St/WI-50) due to roadwork.,,Frontage Rd,R,Kenosha,Kenosha,WI,53142,US,US/Central,KENW,2021-11-03 15:53:00,41.0,36.0,45.0,29.53,10.0,NW,8.0,0.0,Cloudy,False,False,False,False,False,False,False,False,False,False,False,True,False,Day,Day,Day,Day
C-1545850,2,2021-11-12 07:29:30,2021-11-12 08:34:00,33.833985,-84.42450799999997,33.828856,-84.436454,0.7718029308490001,Stationary traffic from US-41/GA-3/Northside Pkwy (Moores Mill Rd) to Warren Rd (Moores Mill Rd) due to roadwork.,,Moores Mill Rd NW,R,Atlanta,Fulton,GA,30327,US,US/Eastern,KMGE,2021-11-12 07:16:00,45.0,45.0,100.0,28.94,0.63,CALM,0.0,0.0,Fog,False,False,False,False,False,False,False,False,False,False,False,False,False,Day,Day,Day,Day
C-1545851,2,2020-10-20 17:31:32,2020-10-20 22:45:00,40.715659,-73.825191,40.715849,-73.82446800000002,0.0400745175626,Construction on UNION TPKE EB near PARK DR Drive with caution.,13308.0,Union Tpke,R,Jamaica,Queens,NY,11435,US,US/Eastern,KJFK,2020-10-20 17:51:00,64.0,64.0,93.0,30.22,10.0,SSE,6.0,0.0,Mostly Cloudy,False,False,False,False,False,False,False,False,False,False,False,False,False,Day,Day,Day,Day
C-1545853,2,2021-02-24 13:00:00,2021-02-24 15:45:00,39.803069,-75.348599,39.768237,-75.330826,2.58505152164,Construction on US-322 EB near US-130 Drive with caution.,,US-322 E,R,Bridgeport,Gloucester,NJ,08014,US,US/Eastern,KPHL,2021-02-24 12:54:00,54.0,54.0,45.0,30.01,10.0,S,13.0,0.0,Partly Cloudy,False,False,False,False,False,False,False,False,False,False,False,True,False,Day,Day,Day,Day
C-1545854,2,2020-10-05 12:28:30,2020-10-05 23:56:30,41.87573,-88.278311,41.868899,-88.279271,0.474554458749,Slow traffic from IL-38/E State St (Kirk Rd) to Fabyan Pkwy (Kirk Rd) due to roadwork.,,S Kirk Rd,R,Geneva,Kane,IL,60134,US,US/Central,KDPA,2020-10-05 12:52:00,,,,29.35,,,,0.0,,False,False,True,False,False,False,False,False,False,False,False,True,False,Day,Day,Day,Day
C-1545855,2,2021-10-29 14:23:00,2021-10-29 16:24:28,34.027322,-118.237975,34.026920000000004,-118.239106,0.0704689900907,Stationary traffic at I-10 W due to roadwork.,1818.0,E Olympic Blvd,R,Los Angeles,Los Angeles,CA,90021-2422,US,US/Pacific,KCQT,2021-10-29 14:52:00,81.0,81.0,35.0,29.66,10.0,VAR,3.0,0.0,Fair,False,False,False,False,False,False,False,False,False,False,False,False,False,Day,Day,Day,Day
C-1545856,2,2021-04-14 11:39:38,2021-04-17 00:57:10,32.505934,-103.481416,32.522557,-103.522798,2.67064940284,Roadwork on Country Road 30 (NM-176) from Delaware Basin Rd (NM-176) to NM-176.,,NM-176,R,Hobbs,Lea,NM,88240,US,US/Mountain,KHOB,2021-04-14 11:50:00,50.0,50.0,82.0,26.34,7.0,E,12.0,0.0,Cloudy,False,False,False,False,False,False,False,False,False,False,False,False,False,Day,Day,Day,Day
C-1545857,2,2021-07-29 09:50:30,2021-07-29 13:53:00,41.61794,-84.594963,41.617548,-84.659798,3.3490782670200003,Stationary traffic on I-90 W - I-80 W - Ohio Tpke W from CR-15/Exit 13 (I-90/I-80) to OH-49/Exit 2 (I-90/I-80) due to roadwork.,,I-80 W,R,Montpelier,Williams,OH,43543,US,US/Eastern,KDFI,2021-07-29 09:53:00,77.0,77.0,82.0,29.13,10.0,SW,9.0,0.0,Mostly Cloudy,False,False,False,False,False,False,False,False,False,False,False,False,False,Day,Day,Day,Day
C-1545858,2,2021-12-01 16:52:30,2021-12-01 17:24:30,39.742877,-105.02523899999998,39.75121,-105.02517,0.575767133479,Slow traffic on US-287 S - US-287 N from US-40/W Colfax Ave (CO-88/Federal Blvd/US-287) to W 23rd Ave (Federal Blvd/US-287) due to roadwork.,1612.0,Federal Blvd,L,Denver,Denver,CO,80204-1911,US,US/Mountain,KBJC,2021-12-01 16:45:00,64.0,64.0,22.0,24.5,10.0,W,20.0,0.0,Fair,True,False,True,False,False,False,False,False,False,True,False,True,False,Night,Day,Day,Day
C-1545859,2,2020-06-16 18:45:20,2021-01-09 18:43:10,34.83618,-78.97632,34.92345,-78.94436999999998,6.29585968921,At I-95-br N/US-301 - Construction work. Lane blocked.,,I-95 N,R,Saint Pauls,Robeson,NC,28384,US,US/Eastern,KFAY,2020-06-16 18:46:00,62.0,62.0,90.0,29.88,6.0,N,16.0,0.23,Light Rain with Thunder,False,False,False,False,True,False,False,False,False,False,False,False,False,Day,Day,Day,Day
C-1545860,4,2020-09-24 17:07:00,2020-09-24 22:34:18,40.344309,-78.943371,40.34385200000001,-78.94346999999998,0.0320031917567,Roadwork on SUMMIT AV / GOUCHER ST / D ST both directions between ESTERVILLE RD and D ST FAIRFIELD AV. All lanes closed.,123.0,Blenny Pl,R,Johnstown,Cambria,PA,15906-2313,US,US/Eastern,KJST,2020-09-24 16:54:00,69.0,69.0,54.0,27.63,10.0,W,7.0,0.0,Fair,True,False,False,False,False,False,False,False,False,False,False,False,False,Day,Day,Day,Day
C-1545861,3,2017-02-03 01:30:00,2017-02-03 08:00:00,47.642124,-122.322556,,,1.18,Intermittent lane closures due to construction work on I-5 Northbound from Exits 166 167 Eastlake Ave to Exits 168A 168B WA-520.,,I-5 N,R,Seattle,King,WA,98102,US,US/Pacific,KBFI,2017-02-03 01:53:00,35.1,32.2,78.0,29.82,10.0,North,3.5,0.01,Light Rain,False,False,False,False,False,False,False,False,False,False,False,False,False,Night,Night,Night,Night
C-1545862,2,2021-12-06 07:36:30,2021-12-06 10:52:20,25.934174,-80.188502,25.928536,-80.18777,0.392195116179,Slow traffic on FL-915 - FL-826 from NE 174th St to N Miami Beach Blvd due to roadwork.,17299.0,NE 6th Ave,R,Miami,Miami-Dade,FL,33162-2007,US,US/Eastern,KHWO,2021-12-06 07:53:00,73.0,73.0,93.0,30.12,10.0,CALM,0.0,0.0,Partly Cloudy,False,False,False,False,False,False,False,False,True,False,False,False,False,Day,Day,Day,Day
C-1545863,2,2019-09-25 08:03:12,2019-09-29 08:06:00,40.121222,-75.073131,40.121298,-75.07283699999998,0.0163969191577,At PA-232/Huntingdon Pike - Roadwork. Open.,805.0,Welsh Rd,R,Huntingdon Valley,Montgomery,PA,19006-6019,US,US/Eastern,KPNE,2019-09-25 07:54:00,61.0,61.0,72.0,29.82,10.0,WSW,3.0,0.0,Fair,True,False,True,False,False,False,False,False,False,False,False,True,False,Day,Day,Day,Day
C-1545864,2,2021-12-28 17:10:00,2021-12-28 19:20:09,37.648766,-118.978512,37.646731,-118.964997,0.75261380814,Slow traffic on CA-203 from Minaret Rd to Sawmill Cutoff / Sierra Park Rd due to roadwork.,3749.0,Main St,R,Mammoth Lakes,Mono,CA,93546,US,US/Pacific,KMMH,2021-12-28 17:16:00,23.0,23.0,74.0,22.76,10.0,CALM,0.0,0.0,Cloudy,False,False,False,False,False,False,False,False,True,False,False,False,False,Night,Day,Day,Day
C-1545865,2,2021-06-18 08:48:49,2021-06-18 10:55:54,25.947345,-80.150459,25.947442,-80.14805600000003,0.149445232715,Slow traffic on FL-860 from 19th Ave (FL-860) to US-1/FL-5/Biscayne Blvd (FL-860) due to roadwork.,2492.0,NE Miami Gardens Dr,R,Miami,Miami-Dade,FL,33180-2705,US,US/Eastern,KHWO,2021-06-18 08:53:00,81.0,81.0,88.0,30.08,10.0,ESE,7.0,0.0,Fair,False,False,True,False,False,False,False,False,False,False,False,False,False,Day,Day,Day,Day
C-1545866,2,2021-02-16 09:51:30,2021-02-16 17:53:42,33.298126,-98.075062,33.299222,-98.068827,0.367946047301,Roadwork on US-380/Main St/Belknap St (TX-59) from FM-1810 (TX-59) to TX-59.,8698.0,State Highway 59,R,Jacksboro,Jack,TX,76458,US,US/Central,KXBP,2021-02-16 09:55:00,7.0,7.0,66.0,29.3,10.0,CALM,0.0,0.0,Fair,False,False,False,False,False,False,False,False,False,False,False,False,False,Day,Day,Day,Day
C-1545867,2,2019-10-22 19:03:18,2019-10-26 19:02:45,41.77875,-87.90762,41.78702,-87.90785,0.571525439361,At Tri-State Tollway - Roadwork. Right lane blocked.,,I-294 N,R,Hinsdale,Cook,IL,60521,US,US/Central,KMDW,2019-10-22 18:53:00,50.0,50.0,59.0,29.09,10.0,WSW,13.0,0.0,Mostly Cloudy,False,False,False,False,False,False,False,False,False,False,False,False,False,Night,Night,Night,Day
C-1545868,2,2021-01-30 08:30:00,2021-12-28 16:43:30,33.388946999999995,-111.805512,33.389182,-111.805512,0.0162369535945,Roadwork from US-60/Superstition Fwy (S Stapley Dr) to E Southern Ave (S Stapley Dr).,1451.0,S Stapley Dr,R,Mesa,Maricopa,AZ,85204-5848,US,US/Mountain,KFFZ,2021-08-26 06:51:00,87.0,87.0,40.0,28.61,10.0,E,6.0,0.0,Fair,True,False,True,False,False,False,False,False,False,False,False,True,False,Day,Day,Day,Day
C-1545869,2,2021-08-12 10:32:00,2021-11-17 10:22:00,40.389315,-91.42836,40.39416,-91.381652,2.48064097914,Construction on US-136 EB near US-61 Drive with caution. Take alternate route if possible.,,S 7th St,R,Keokuk,Lee,IA,52632,US,US/Central,KEOK,2021-08-12 10:35:00,77.0,77.0,94.0,29.23,9.0,W,5.0,0.0,,False,False,False,False,False,False,False,False,False,False,False,False,False,Day,Day,Day,Day
C-1545870,2,2021-07-06 10:52:30,2021-07-06 11:21:00,42.526025,-88.978904,42.531283,-88.97446500000002,0.427865132352,Slow traffic on I-43 N - WI-81 E from exit [1A] to exit [1B] due to roadwork.,,Milwaukee Rd E,R,Beloit,Rock,WI,53511,US,US/Central,KJVL,2021-07-06 10:45:00,90.0,90.0,46.0,29.14,10.0,W,13.0,0.0,Partly Cloudy,False,False,False,False,False,False,False,False,False,False,False,False,False,Day,Day,Day,Day
C-1545871,2,2019-12-23 07:39:33,2019-12-27 07:39:28,41.01018,-92.3711,41.0316,-92.37741,1.5160940588,Between US-34 and Pennsylvania Ave/100th St/Exit 35 - Construction work.,,Highway 34,R,Ottumwa,Wapello,IA,52501,US,US/Central,KOTM,2019-12-23 07:53:00,33.0,25.0,92.0,29.14,7.0,SSW,9.0,0.0,Fair,False,False,False,False,False,False,False,False,False,False,False,False,False,Day,Day,Day,Day
C-1545872,2,2021-12-07 17:08:23,2021-12-07 19:58:12,25.686047,-80.397987,25.685926,-80.401521,0.2202061651579999,Slow traffic on FL-94 from 122nd Ave (FL-94) to 130th Ave/132nd Ave (FL-94) due to roadwork.,12527.0,SW 88th St,L,Miami,Miami-Dade,FL,33186-1829,US,US/Eastern,KTMB,2021-12-07 16:53:00,80.0,80.0,64.0,30.04,10.0,ESE,7.0,0.0,Fair,False,False,True,False,False,False,False,False,True,False,False,False,False,Day,Day,Day,Day
C-1545874,2,2021-07-21 02:53:30,2021-07-21 03:30:00,47.135242,-122.52909,47.115672,-122.56233,2.0664405293400003,Slow traffic on I-5 S from Gravelly Lake Dr/Exit 124 (I-5) to Berkeley St/Exit 122 (I-5) due to roadwork.,,I-5 S,R,Lakewood,Pierce,WA,98498,US,US/Pacific,KTCM,2021-07-21 02:58:00,55.0,55.0,82.0,29.77,10.0,SW,5.0,0.0,Partly Cloudy,False,False,False,False,False,False,False,False,False,False,False,False,False,Night,Night,Night,Night
C-1545875,2,2021-07-28 15:50:12,2021-12-29 15:40:19,40.856403,-73.87937099999998,40.859302,-73.886689,0.431703198948,Slow traffic on US-1 S from Bronx River Pkwy/Exit 7 (US-1) to E Fordham Rd/Webster Ave (US-1) due to roadwork.,,E Fordham Rd,R,Bronx,Bronx,NY,10458,US,US/Eastern,KLGA,2021-07-28 15:51:00,81.0,81.0,44.0,29.96,10.0,NE,7.0,0.0,Partly Cloudy,False,False,False,False,False,False,False,False,False,False,False,True,False,Day,Day,Day,Day
C-1545876,2,2020-11-10 12:48:00,2020-11-11 00:35:00,33.436819,-112.163151,33.436767,-112.169223,0.350118160409,Stationary traffic on AZ-85 from S 43rd Ave (W Buckeye Rd/AZ-85) to S 51st Ave (W Buckeye Rd/AZ-85) due to roadwork.,4777.0,W Buckeye Rd,L,Phoenix,Maricopa,AZ,85043-4806,US,US/Mountain,KGEU,2020-11-10 12:58:00,64.0,64.0,20.0,28.89,10.0,CALM,0.0,0.0,Fair,False,False,True,False,False,False,False,False,False,False,False,True,False,Day,Day,Day,Day
C-1545877,2,2021-08-25 07:44:00,2021-08-25 08:26:00,25.855379,-80.266644,25.851707,-80.266563,0.253761020587,Stationary traffic on FL-953 from FL-932/E 49th St (FL-953) to FL-934/E 25th St (FL-953) due to roadwork.,800.0,E 36th St,R,Hialeah,Miami-Dade,FL,33013-3146,US,US/Eastern,KOPF,2021-08-25 07:53:00,79.0,79.0,72.0,30.02,10.0,CALM,0.0,0.0,Fair,False,False,False,False,False,False,False,False,False,False,False,True,False,Day,Day,Day,Day
C-1545878,4,2020-10-05 07:00:00,2020-10-27 07:45:00,39.636579,-75.609337,39.641509,-75.603367,0.465756834936,Construction on DE-9 NB near HAMBURG RD Road closed. Take alternate route.,1177.0,River Rd,R,New Castle,New Castle,DE,19720-5105,US,US/Eastern,KILG,2020-10-05 06:51:00,53.0,53.0,89.0,30.04,10.0,CALM,0.0,0.0,Cloudy,False,False,False,False,False,False,False,False,False,False,False,False,False,Night,Day,Day,Day
C-1545879,2,2020-08-27 13:21:30,2020-08-27 20:28:53,33.626317,-111.997438,33.626418,-111.996039,0.0807889107771,Stationary traffic from 39th St to N 40th St due to roadwork.,3935.0,E Greenway Rd,R,Phoenix,Maricopa,AZ,85032-4625,US,US/Mountain,KSDL,2020-08-27 12:53:00,103.0,103.0,23.0,28.08,10.0,S,6.0,0.0,Fair,False,False,True,False,False,False,False,False,False,False,False,True,False,Day,Day,Day,Day
C-1545880,2,2021-01-26 16:27:00,2021-01-27 00:00:00,37.151004,-77.513299,37.143477,-77.516147,0.543203883686,On I-85 in the County of Dinwiddie at mile marker 59.1 motorists can expect potential delays in this area from 01/26/21 at 8:27 AM until 01/26/21 at 4:00 PM due to guardrail repairs. The south right shoulder is closed.,,I-85 S,R,Petersburg,Dinwiddie,VA,23803,US,US/Eastern,,,,,,,,,,,,False,False,False,False,False,False,False,False,False,False,False,False,False,Day,Day,Day,Day
C-1545881,2,2021-10-26 01:48:49,2021-11-18 10:22:06,40.858531,-117.220189,40.838013,-117.188125,2.19503534629,Roadwork - on I-80 in both directions between Pumpernickel Valley and Valmy in Humboldt County Nevada. Paving and shoulder work. Lanes reduced to one with a width limit of 14 feet. Speed limit reduced to 55 miles per hour. Decrease speed and move over for highway workers and equipment.,,I-80 E,R,Golconda,Humboldt,NV,89414,US,US/Pacific,KWMC,2021-10-26 01:56:00,39.0,32.0,76.0,25.57,10.0,SSW,10.0,0.0,Fair,False,False,False,False,False,False,False,False,False,False,False,False,False,Night,Night,Night,Night
C-1545882,4,2021-05-07 05:19:30,2021-12-06 16:45:00,43.144485,-76.12696700000002,43.145566,-76.12668599999998,0.0760214806568,Construction on US-11 NB near E TAFT RD Road closed. Take alternate route.,805.0,N Main St,L,Syracuse,Onondaga,NY,13212-1613,US,US/Eastern,KSYR,2021-09-17 18:54:00,77.0,77.0,71.0,29.68,10.0,SSE,7.0,0.0,Fair,False,False,False,False,False,False,False,False,False,False,False,False,False,Night,Day,Day,Day
C-1545883,2,2020-08-01 16:00:00,2020-08-02 00:45:00,29.750708000000003,-98.700839,29.727718,-98.675269,2.20826632605,Construction on I-10 EB near US-87 Drive with caution.,,I-10 E,R,Boerne,Kendall,TX,78006,US,US/Central,K5C1,2020-08-01 15:55:00,91.0,91.0,38.0,28.53,10.0,CALM,0.0,0.0,Fair,False,False,False,False,False,False,False,False,False,False,False,False,False,Day,Day,Day,Day
C-1545884,2,2021-12-25 08:17:00,2021-12-31 03:00:15,34.883644,-78.522786,34.88206,-78.523985,0.128826543198,Roadwork on NC-411 (NC-242) from NC-210 (NC-242) to NC-242.,3601.0,NC Highway 242,R,Roseboro,Cumberland,NC,28382-8895,US,US/Eastern,KCTZ,2021-12-25 08:15:00,56.0,56.0,79.0,29.78,10.0,SSW,9.0,0.0,Fair,False,False,False,False,False,False,False,False,False,False,False,False,False,Day,Day,Day,Day
C-1545885,2,2020-12-02 15:30:00,2021-11-23 13:52:00,42.370729,-87.895824,42.37073400000001,-87.896125,0.0153687887523,Construction on IL-132 near US-41 Allow extra time.,,Grand Ave,R,Gurnee,Lake,IL,60031,US,US/Central,KUGN,2020-12-02 15:55:00,44.0,40.0,24.0,29.47,10.0,WSW,7.0,0.0,Fair,False,False,False,False,False,False,False,False,False,False,False,True,False,Day,Day,Day,Day
C-1545886,2,2021-05-27 06:54:00,2021-05-28 07:42:47,40.823388,-76.20204100000002,40.826519,-76.198991,0.26875360983,Roadwork on PA 924 both directions between WASHINGTON ST and PENNSYLVANIA AV. There is a traffic disruption.,301.0,N Main St,R,Shenandoah,Schuylkill,PA,17976,US,US/Eastern,KRDG,2021-05-27 06:54:00,67.0,67.0,87.0,29.61,10.0,CALM,0.0,0.0,Fair,False,False,False,False,False,False,False,False,False,True,False,True,False,Day,Day,Day,Day
C-1545887,2,2019-02-12 08:30:00,2019-02-12 15:30:00,39.77993,-104.972689,39.77993,-104.97269,5.30988244036e-05,At Washington St/Exit 275A - Construction work.,,E 46th Ave,R,Denver,Denver,CO,80216,US,US/Mountain,KBJC,2019-02-12 08:47:00,39.2,31.6,24.0,30.06,40.0,NNW,12.7,,Scattered Clouds,False,False,True,False,True,False,False,False,False,False,False,False,False,Day,Day,Day,Day
