ID,Severity,Start_Time,End_Time,Start_Lat,Start_Lng,End_Lat,End_Lng,Distance(mi),Description,Number,Street,Side,City,County,State,Zipcode,Country,Timezone,Airport_Code,Weather_Timestamp,Temperature(F),Wind_Chill(F),Humidity(%),Pressure(in),Visibility(mi),Wind_Direction,Wind_Speed(mph),Precipitation(in),Weather_Condition,Amenity,Bump,Crossing,Give_Way,Junction,No_Exit,Railway,Roundabout,Station,Stop,Traffic_Calming,Traffic_Signal,Turning_Loop,Sunrise_Sunset,Civil_Twilight,Nautical_Twilight,Astronomical_Twilight
C-1841362,2,2021-11-22 18:07:53,2021-11-22 20:17:22,26.185004,-80.18731899999999,26.186422,-80.188505,0.122500386414,Slow traffic on FL-870 from NW 46th St to NW 33rd Ave due to roadwork.,,NW 31st Ave,R,Fort Lauderdale,Broward,FL,33309,US,US/Eastern,KFXE,2021-11-22 17:53:00,73.0,73.0,81.0,29.87,10.0,NNW,9.0,0.0,Partly Cloudy,False,False,False,False,False,False,False,False,False,False,False,False,False,Night,Night,Day,Day
C-1841363,2,2021-02-12 06:27:30,2021-02-12 15:38:13,27.793028000000003,-82.72936700000002,27.793049,-82.728339,0.0628508237183,Stationary traffic on US-19 Alt S - FL-595 - FL-693 from Tyrone Square Mall Shopping Ctr to 26th Ave N due to roadwork.,2312.0,Tyrone Blvd N,L,Saint Petersburg,Pinellas,FL,33710-3924,US,US/Eastern,KSPG,2021-02-12 06:53:00,67.0,67.0,97.0,29.94,10.0,SSE,6.0,0.0,Fair,False,False,False,False,False,False,False,False,True,False,False,False,False,Night,Night,Day,Day
C-1841364,2,2019-08-16 19:02:32,2019-08-20 19:02:05,27.77729,-82.64461,27.77639000000001,-82.63712,0.4620800759000001,Between SR-689/Exit 1 and US-92/4th St/3rd St N - Construction work.,,I-375 E,R,Saint Petersburg,Pinellas,FL,33701,US,US/Eastern,KSPG,2019-08-16 18:53:00,79.0,79.0,88.0,29.98,10.0,SW,10.0,0.0,Light Rain,False,False,True,False,False,False,False,False,False,False,False,True,False,Day,Day,Day,Day
C-1841365,2,2020-01-24 20:03:20,2020-01-28 20:02:51,33.653420000000004,-84.36769,33.7221,-84.39336,4.9695233237,Between I-285/GA-407/Bob A Homes Fwy and I-75/I-85/J W George Pky/South Expy - Construction work.,3720.0,Jonesboro Rd SE,L,Atlanta,Fulton,GA,30354,US,US/Eastern,KATL,2020-01-24 19:52:00,49.0,47.0,61.0,28.86,10.0,WSW,6.0,0.0,Fair,False,False,False,False,False,False,False,False,False,False,False,True,False,Night,Night,Night,Night
C-1841366,2,2020-09-12 15:10:00,2020-09-12 16:41:00,40.401341,-111.850309,40.390914,-111.83511,1.07641601627,Queuing traffic on I-15 from US-89/1200/Exit 285 (I-15) to UT-73/Exit 282 (I-15) due to roadwork.,,I-15 S,R,Lehi,Utah,UT,84043,US,US/Mountain,KPVU,2020-09-12 14:56:00,78.0,78.0,21.0,25.55,10.0,W,6.0,0.0,Fair,False,False,False,False,False,False,False,False,False,False,False,False,False,Day,Day,Day,Day
C-1841367,2,2021-09-23 07:19:30,2021-09-23 08:02:00,42.060411,-87.979963,42.05079600000001,-87.982061,0.6729955315009999,Slow traffic from E Central Rd (S Arlington Heights Rd) to IL-62/Algonquin Rd (S Arlington Heights Rd) due to roadwork.,1308.0,S Arlington Heights Rd,R,Arlington Heights,Cook,IL,60005-3615,US,US/Central,KPWK,2021-09-23 06:52:00,52.0,52.0,71.0,29.29,10.0,NW,12.0,0.0,Fair,False,False,False,False,False,False,False,False,False,False,False,True,False,Day,Day,Day,Day
C-1841368,2,2020-09-22 07:00:00,2020-09-26 14:21:53,42.493323,-82.96963199999998,42.479235,-82.98012800000002,1.11062558589,Construction on GROESBECK HWY SB near 11 MILE RD Expect delays.,26848.0,Groesbeck Hwy,R,Warren,Macomb,MI,48089-4155,US,US/Eastern,KDET,2020-09-22 06:53:00,47.0,47.0,86.0,29.59,10.0,CALM,0.0,0.0,Fair,False,False,False,False,False,False,False,False,False,False,False,True,False,Night,Day,Day,Day
C-1841369,2,2021-09-09 09:23:30,2021-09-09 09:44:00,33.287777,-111.858731,33.291432,-111.858845,0.252622265015,Stationary traffic from AZ-202/Santan Fwy (S Alma School Rd) to W Chandler Blvd (N Alma School Rd) due to roadwork.,,S Alma School Rd,R,Chandler,Maricopa,AZ,85286,US,US/Mountain,KCHD,2021-09-09 09:47:00,93.0,93.0,30.0,28.6,10.0,E,7.0,,Fair,False,False,True,False,False,False,False,False,False,False,False,True,False,Day,Day,Day,Day
C-1841370,4,2017-09-25 07:00:00,2017-09-30 12:00:00,41.66316,-86.071916,41.6641,-86.06107,0.5635922192189999,Closed at IN-219/Ash Rd - Closed. Bridge maintenance work.,198.0,Lincolnway W,R,Osceola,St Joseph,IN,46561-2632,US,US/Eastern,KEKM,2017-09-25 06:50:00,60.8,,94.0,30.05,7.0,Calm,,,Clear,False,False,False,False,False,False,False,False,False,False,False,True,False,Night,Night,Day,Day
C-1841371,3,2020-11-13 05:09:56,2020-11-25 17:00:00,41.711182,-96.044556,,,43.4900016785,Single alternate line traffic due to construction work on I-29 both ways from Exit 75 US-30 to Exit 89 IA-127.,,I-29 N,R,Mondamin,Harrison,IA,51557,US,US/Central,KTQE,2020-11-13 04:54:00,19.0,11.0,85.0,29.14,10.0,SSE,6.0,0.0,Fair,False,False,False,False,False,False,False,False,False,False,False,False,False,Night,Night,Night,Night
C-1841372,2,2020-07-27 06:00:00,2020-10-16 23:59:00,41.024738,-81.098663,,,8.300000190730001,Intermittent lane closures due to construction work on US-224 both ways between OH-183 and CR-125 Alliance Rd.,8103.0,State Route 224,L,Deerfield,Portage,OH,44411-9711,US,US/Eastern,KPOV,2020-07-27 05:55:00,70.0,70.0,86.0,28.69,10.0,CALM,0.0,0.0,Fair,False,False,False,False,False,False,False,False,False,False,False,False,False,Night,Day,Day,Day
C-1841373,2,2021-02-21 07:33:30,2021-02-21 18:07:28,43.603829,-116.354714,43.604957,-116.355981,0.1004617979109999,Stationary traffic on ID-55 from E Louise Dr to N Olson Ave due to roadwork.,106.0,S Eagle Rd,L,Meridian,Ada,ID,83642,US,US/Mountain,KMAN,2021-02-21 07:35:00,27.0,27.0,100.0,27.79,10.0,CALM,0.0,0.0,Cloudy,False,False,False,False,False,False,False,False,False,False,False,False,False,Night,Day,Day,Day
C-1841374,4,2021-11-10 08:44:01,2021-11-10 12:45:00,41.977313,-91.675018,41.978649,-91.673177,0.132146832116,Construction on I-380 NB near IA-922 Take alternate route.,,I-380 N,R,Cedar Rapids,Linn,IA,52405,US,US/Central,KCID,2021-11-10 08:52:00,43.0,36.0,93.0,29.11,9.0,E,14.0,0.0,Fair,False,False,False,False,False,False,False,False,False,False,False,False,False,Day,Day,Day,Day
C-1841375,3,2019-09-16 01:43:40,2019-09-16 06:01:00,38.552097,-104.647362,,,4.82000017166,Right lane closed due to maintenance work on I-25 Northbound between Exit 116 County Line Rd and Exit 119 El Centro Blvd.,,I-25 N,R,Fountain,El Paso,CO,80817,US,US/Mountain,KFCS,2019-09-16 01:58:00,58.0,58.0,56.0,24.25,10.0,N,7.0,0.0,Cloudy,False,False,False,False,False,False,False,False,False,False,False,False,False,Night,Night,Night,Night
C-1841376,4,2020-11-06 19:00:00,2020-11-08 07:00:00,32.75938,-97.029358,,,12.7299995422,Road closed due to construction work on I-30 both ways from FM-157 to TX-161-TOLL President George Bush Tpke.,,Tom Landry Fwy,R,Grand Prairie,Dallas,TX,75050,US,US/Central,KGPM,2020-11-06 18:55:00,68.0,68.0,62.0,29.45,10.0,ESE,3.0,0.0,Fair,False,False,False,False,False,False,False,False,False,False,False,False,False,Night,Night,Night,Night
C-1841377,2,2021-08-08 11:24:42,2021-12-28 14:39:24,42.235754,-71.023276,42.251923,-71.03805600000003,1.3489201867899998,Slow traffic on US-1 N - MA-3 N - I-93 N - Southeast Expy N from exit [7] to Columbia Rd exit [14] due to roadwork.,,I-93 N,R,Quincy,Norfolk,MA,02169,US,US/Eastern,KMQE,2021-08-08 11:53:00,81.0,81.0,62.0,30.04,10.0,WSW,7.0,0.0,Fair,False,False,False,False,True,False,False,False,False,False,False,False,False,Day,Day,Day,Day
C-1841378,2,2021-11-03 15:28:30,2021-11-03 17:35:03,25.842987,-80.307828,25.84255,-80.306168,0.1075501489079999,Slow traffic on US-27 S - FL-25 from W 29th St to W 23rd St due to roadwork.,2296.0,W Okeechobee Rd,R,Hialeah,Miami-Dade,FL,33010,US,US/Eastern,KMIA,2021-11-03 15:53:00,80.0,80.0,64.0,29.99,10.0,E,10.0,0.0,Mostly Cloudy,True,False,False,False,False,False,False,False,True,False,False,False,False,Day,Day,Day,Day
C-1841379,2,2021-06-28 21:41:00,2021-06-29 03:45:00,38.704952,-77.22413399999998,38.681402,-77.230734,1.66562255719,Construction on I-95 SB near MM 161 Construction. Shoulder closed.,,I-95 S,R,Lorton,Fairfax County,VA,22079,US,US/Eastern,KDAA,2021-06-28 21:56:00,80.0,80.0,76.0,30.15,10.0,SE,5.0,0.0,Fair,False,False,False,False,True,False,False,False,False,False,False,False,False,Night,Night,Day,Day
C-1841380,2,2021-10-05 08:01:00,2021-10-05 15:46:00,34.205614000000004,-117.087797,34.209233000000005,-117.086653,0.258452432764,Construction on CA-18 NB near CONIFER CAMP RD Expect delays.,32700.0,Conifer Camp Rd,L,Running Springs,San Bernardino,CA,92382,US,US/Pacific,KSBD,2021-10-05 07:51:00,64.0,64.0,77.0,28.72,10.0,CALM,0.0,0.0,Fair,False,False,False,False,False,False,False,False,False,False,False,False,False,Day,Day,Day,Day
C-1841381,3,2020-03-06 09:00:00,2020-03-06 15:00:00,38.398155,-85.37460300000002,,,30.8099994659,Right lane closed due to construction work on I-71 both ways between Crestwood Rest Area and Exit 22 KY-53 1st Ave.,,I-71 N,R,La Grange,Oldham,KY,40031,US,US/Eastern,KLOU,2020-03-06 09:03:00,40.0,32.0,60.0,29.59,10.0,WNW,15.0,0.0,Cloudy,False,False,False,False,False,False,False,False,False,False,False,False,False,Day,Day,Day,Day
C-1841382,4,2021-07-09 12:00:00,2021-07-12 17:00:00,42.4935,-83.11689,,,1.24000000954,Road closed due to construction work on I-75 Southbound from Gardenia Ave to 11 Mile Rd.,,Chrysler Expy N,R,Royal Oak,Oakland,MI,48067,US,US/Eastern,KVLL,2021-07-09 11:55:00,69.0,69.0,59.0,29.27,10.0,NW,12.0,0.0,Mostly Cloudy,False,False,False,False,False,False,False,False,False,False,False,False,False,Day,Day,Day,Day
C-1841383,2,2019-07-25 21:00:00,2019-07-26 18:00:00,34.194111,-118.329613,,,0.72000002861,Maintenance work on entry ramp to I-5 Northbound from N San Fernando Blvd.,1910.0,Morgan Ave,L,Burbank,Los Angeles,CA,91504-3516,US,US/Pacific,KBUR,2019-07-25 20:53:00,82.0,82.0,38.0,29.09,10.0,SE,6.0,0.0,Fair,False,False,False,False,False,False,False,False,False,False,False,False,False,Night,Night,Day,Day
C-1841384,2,2021-06-30 07:39:30,2021-06-30 08:00:00,42.085536,-87.980464,42.082977,-87.980457,0.176810424983,Stationary traffic from E Euclid Ave (N Arlington Heights Rd) to US-14/E Northwest Hwy (Arlington Heights Rd) due to roadwork.,299.0,N Arlington Heights Rd,R,Arlington Heights,Cook,IL,60004,US,US/Central,KPWK,2021-06-30 07:52:00,75.0,75.0,84.0,29.41,10.0,W,3.0,0.0,Mostly Cloudy,False,False,True,False,False,False,True,False,False,False,False,True,False,Day,Day,Day,Day
C-1841385,2,2021-09-09 21:07:00,2021-09-09 21:21:30,36.210937,-80.81088100000002,36.18562,-80.812309,1.75104923232,Slow traffic on I-77 S - US-21 S from NC-67/Exit 82 (I-77) to US-421/Exit 73 (I-77) due to roadwork.,,I-77 S,R,Jonesville,Yadkin,NC,28642,US,US/Eastern,KUKF,2021-09-09 21:15:00,63.0,63.0,68.0,28.64,10.0,NW,5.0,0.0,Fair,False,False,False,False,False,False,False,False,False,False,False,False,False,Night,Night,Night,Night
C-1841386,2,2019-03-26 09:00:00,2019-03-26 15:00:00,29.40752800000001,-98.584335,,,0.0,One lane blocked due to construction work on US-90 Eastbound at TX-151 Stotzer Fwy.,,US-90 W,R,San Antonio,Bexar,TX,78237,US,US/Central,KSKF,2019-03-26 08:56:00,60.8,,63.0,30.26,10.0,ENE,12.7,,Clear,False,False,False,False,False,False,False,False,False,False,False,False,False,Day,Day,Day,Day
C-1841387,2,2020-09-05 16:42:30,2020-09-05 16:56:30,35.422292,-96.294919,35.430042,-96.199079,5.422457069,Slow traffic on I-40 from US-62/OK-27/Exit 221 (I-40) to N3830 Rd/Exit 227 (I-40) due to roadwork.,,US-62 E,R,Okemah,Okfuskee,OK,74859,US,US/Central,KSRE,2020-09-05 16:35:00,90.0,90.0,50.0,29.07,10.0,S,9.0,0.0,Partly Cloudy,False,False,False,False,False,False,False,False,False,False,False,False,False,Day,Day,Day,Day
C-1841388,2,2020-04-21 06:26:44,2020-04-21 06:56:44,33.76514,-84.52126,33.76514,-84.52126,0.0,At GA-70/Fulton Ind Blvd/Exit 49 - Roadwork. Left lane closed.,,GA-402 W,R,Atlanta,Fulton,GA,30336,US,US/Eastern,KFTY,2020-04-21 06:04:00,48.0,48.0,89.0,28.99,7.0,CALM,0.0,0.0,Fair,False,False,False,False,False,False,False,False,False,False,False,False,False,Night,Night,Day,Day
C-1841389,2,2020-09-21 12:20:00,2020-09-22 03:58:43,40.73826,-73.88556,40.738182,-73.879664,0.30871459116,Queuing traffic on NY-25 from Albion Ave to Corona Ave due to resurfacing work.,,Queens Blvd,R,Elmhurst,Queens,NY,11373,US,US/Eastern,KLGA,2020-09-21 11:51:00,62.0,62.0,38.0,30.55,10.0,NE,14.0,0.0,Fair,False,False,True,False,False,False,False,False,False,False,False,True,False,Day,Day,Day,Day
C-1841390,2,2020-09-04 15:34:30,2020-09-05 01:46:50,25.948502,-80.148765,25.94753,-80.149316,0.0753802281151,Queuing traffic on FL-860 from NE 188th St to NE 25th Pl due to roadwork.,18676.0,W Dixie Hwy,L,Miami,Miami-Dade,FL,33180-2661,US,US/Eastern,KHWO,2020-09-04 15:53:00,92.0,92.0,59.0,30.01,10.0,E,14.0,0.0,Light Rain,False,False,False,False,False,True,False,False,True,False,False,False,False,Day,Day,Day,Day
C-1841391,2,2021-10-21 17:52:20,2021-10-21 18:35:24,40.87875,-73.872558,40.880661,-73.877616,0.295385767786,Slow traffic from Bronx River Pkwy (E Gun Hill Rd) to Jerome Ave (Gun Hill Rd) due to roadwork.,3450.0,Decatur Ave,R,Bronx,Bronx,NY,10467-3473,US,US/Eastern,KLGA,2021-10-21 17:51:00,69.0,69.0,68.0,29.84,10.0,SSE,12.0,0.0,Partly Cloudy,True,False,False,False,False,False,False,False,True,False,False,True,False,Day,Day,Day,Day
C-1841392,2,2021-06-16 21:23:30,2021-06-19 00:59:56,46.174202,-111.445655,46.181746,-111.444998,0.522187607584,Roadwork on MT-285/MT-287 Byp (US-287) from Shelly Rd (US-287) to US-287 S - US-287 N.,,US Highway 287 N,R,Toston,Broadwater,MT,59643,US,US/Mountain,KBZN,2021-06-16 20:56:00,68.0,68.0,36.0,25.55,10.0,WNW,9.0,0.0,Fair,False,False,False,False,False,False,False,False,False,False,False,False,False,Night,Day,Day,Night
C-1841393,2,2019-04-21 21:02:47,2019-05-01 21:00:29,25.88425,-80.198966,25.88408,-80.20246,0.21751092273,At NW 2nd Ave - Construction work. Lane blocked.,18.0,NW 119th St,L,Miami,Miami-Dade,FL,33168-4433,US,US/Eastern,KOPF,2019-04-21 20:53:00,73.0,73.0,55.0,30.1,10.0,E,6.0,0.0,Fair,False,False,False,False,False,False,False,False,True,False,False,True,False,Night,Night,Night,Day
C-1841394,2,2019-06-05 03:00:00,2019-06-06 17:30:00,34.49503,-118.62338,34.48642,-118.61694,0.698857214948,At Parker Rd - Roadwork. Two lanes blocked.,,Golden State Fwy S,R,Castaic,Los Angeles,CA,91384,US,US/Pacific,K3A6,2019-06-05 02:51:00,60.0,60.0,86.0,29.05,4.0,E,5.0,0.0,Cloudy,False,False,False,False,False,False,False,False,False,False,False,False,False,Night,Night,Night,Night
C-1841395,4,2021-02-17 10:00:00,2021-02-18 08:56:20,45.532343,-122.637086,45.529975,-122.63713,0.163627077218,Bridge closure from NE Broadway St (NE 28th Ave) to E Burnside St (28th Ave).,2801.0,NE Wasco St,L,Portland,Multnomah,OR,97232-1771,US,US/Pacific,KPDX,2021-02-17 09:53:00,43.0,39.0,76.0,30.36,10.0,SW,6.0,0.0,Cloudy,False,False,True,False,False,False,False,False,False,False,False,False,False,Day,Day,Day,Day
C-1841396,2,2020-08-12 15:01:00,2020-08-12 22:46:00,40.352983,-121.530896,40.35362,-121.528562,0.130537386886,Construction on CA-36 EB near CA-172 Expect long delays.,,State Highway 36,R,Mill Creek,Tehama,CA,96061,US,US/Pacific,KRBL,2020-08-12 14:54:00,93.0,93.0,28.0,29.47,10.0,SSE,10.0,0.0,Fair,False,False,False,False,False,False,False,False,False,False,False,False,False,Day,Day,Day,Day
C-1841397,2,2021-09-24 19:10:27,2021-09-24 19:30:27,40.818477,-73.937574,40.820308,-73.939924,0.176361999736,Slow traffic from W 142nd St to Adam Clayton Powell Jr Blvd due to roadwork.,99.0,W 142nd St,R,New York,New York,NY,10037-1115,US,US/Eastern,KNYC,2021-09-24 18:51:00,68.0,68.0,49.0,29.95,10.0,VAR,3.0,0.0,Fair,False,False,True,False,False,False,True,False,False,False,False,True,False,Night,Day,Day,Day
C-1841398,2,2021-03-09 15:04:02,2021-03-09 15:38:34,40.792859,-73.967523,40.788422,-73.97076,0.350223141999,Stationary traffic from W 96th St (Columbus Ave) to W 86th St (Columbus Ave) due to roadwork.,99.0,W 96th St,R,New York,New York,NY,10025-6507,US,US/Eastern,KNYC,2021-03-09 14:51:00,62.0,62.0,24.0,30.18,10.0,WNW,12.0,0.0,Fair,True,False,True,False,False,False,False,False,False,False,False,True,False,Day,Day,Day,Day
C-1841399,2,2016-05-05 11:34:09,2016-05-05 14:30:00,34.03717,-118.08882,34.0334,-118.11797,1.6892523836500002,Between Paramount Blvd and Wilcox Ave - Construction work.,,Pomona Fwy W,R,Montebello,Los Angeles,CA,90640,US,US/Pacific,KEMT,2016-05-05 11:45:00,64.4,,59.0,29.94,10.0,SSW,5.8,,Overcast,False,False,False,False,False,False,False,False,False,False,False,False,False,Day,Day,Day,Day
C-1841400,2,2021-04-12 00:00:00,2021-10-31 07:29:51,44.561371,-116.687506,44.56177,-116.687077,0.0347279317568,Roadwork on US-95 Bus (Weiser) (US-95) from W ID-71/W Hopper Ave (US-95) to US-95 N - US-95 S.,,Highway 95,R,Cambridge,Washington,ID,83610,US,US/Mountain,KMYL,2021-04-12 00:51:00,28.0,19.0,49.0,25.01,10.0,NNE,9.0,0.0,Fair,False,False,False,False,False,False,False,False,False,False,False,False,False,Night,Night,Night,Night
C-1841401,2,2021-10-08 17:57:00,2021-10-08 18:11:30,45.784848,-108.482042,45.773895,-108.486808,0.790860572211,Slow traffic on US-212 W - I-90 W from I-90 Bus/US-87/Exit 452 (I-90) to MT-3/S 27th St/Exit 450 (I-90) due to roadwork.,,I-90 W,R,Billings,Yellowstone,MT,59101,US,US/Mountain,KBIL,2021-10-08 17:53:00,59.0,59.0,36.0,26.18,10.0,NE,9.0,0.0,Mostly Cloudy,False,False,False,False,False,False,False,False,False,False,False,False,False,Day,Day,Day,Day
C-1841402,2,2021-07-02 06:37:30,2021-12-09 16:38:12,41.627701,-84.721122,41.629621,-84.760272,2.02624800339,Slow traffic on I-90 W - I-80 W - Ohio Tpke W from CR-15/Exit 13 (I-90/I-80) to OH-49/Exit 2 (I-90/I-80) due to roadwork.,,I-80 W,R,Edon,Williams,OH,43518,US,US/Eastern,KANQ,2021-07-02 06:35:00,55.0,55.0,94.0,28.98,10.0,CALM,0.0,0.0,Fair,False,False,False,False,False,False,False,False,False,False,False,False,False,Day,Day,Day,Day
C-1841403,2,2021-02-09 14:11:30,2021-02-10 04:50:18,26.304,-80.092977,26.305044,-80.093463,0.0781626179618,Stationary traffic on US-1 N - FL-869 - FL-5 from N Federal Hwy / NE 54th St to SE 6th Ave due to roadwork.,1060.0,S Federal Hwy,L,Deerfield Beach,Broward,FL,33441-7033,US,US/Eastern,KPMP,2021-02-09 13:53:00,81.0,81.0,72.0,30.08,10.0,SE,13.0,0.0,Partly Cloudy,False,False,False,False,False,False,False,False,False,False,False,False,False,Day,Day,Day,Day
C-1841404,4,2020-05-11 05:32:20,2020-05-11 15:59:59,41.69254,-87.62579000000002,41.6926,-87.62308,0.13988049398,Closed at State St - Closed due to roadwork.,100.0,W 111th St,R,Chicago,Cook,IL,60628-4215,US,US/Central,KMDW,2020-05-11 05:53:00,41.0,37.0,86.0,29.49,10.0,WNW,6.0,0.0,Cloudy,False,False,False,False,False,False,False,False,True,False,False,True,False,Night,Day,Day,Day
C-1841405,2,2021-05-28 03:49:30,2021-05-28 09:33:51,38.233809,-122.618007,38.266941,-122.663715,3.37511710977,Roadwork on Petaluma Blvd (US-101) from Old Redwood Hwy/Petaluma Blvd (US-101) to Redwood Hwy N - CA-116 W - US-101 N.,,Redwood Hwy N,R,Petaluma,Sonoma,CA,94952,US,US/Pacific,KO69,2021-05-28 03:55:00,52.0,52.0,94.0,29.94,10.0,NNW,5.0,0.0,Cloudy,False,False,False,False,False,False,False,False,False,False,False,False,False,Night,Night,Night,Night
C-1841406,3,2019-06-27 07:01:40,2019-07-01 07:01:09,40.330518,-84.088897,40.328634,-84.094187,0.307543483234,Between Walnut St and Clear St - Roadwork.,404.0,E Main St,R,Sidney,Shelby,OH,45365-9207,US,US/Eastern,KEDJ,2019-06-27 07:00:00,68.0,68.0,100.0,28.99,10.0,CALM,0.0,0.0,Fair,False,False,False,False,False,False,False,False,False,False,False,False,False,Day,Day,Day,Day
C-1841407,2,2018-02-13 09:01:51,2018-02-13 15:01:51,41.50714,-71.35833000000002,41.49945,-71.32230799999998,1.93821776991,Between Claiborne Pell Brg Plaza and RI-238 - Construction work. Right lane blocked.,,RI-138 W,R,Jamestown,Newport,RI,02835,US,US/Eastern,KUUU,2018-02-13 08:53:00,28.0,18.6,53.0,30.81,10.0,North,10.4,,Clear,False,False,False,False,False,False,False,False,False,False,False,False,False,Day,Day,Day,Day
C-1841408,2,2021-10-14 15:10:30,2021-10-14 15:35:00,33.581969,-112.111826,33.582804,-112.116426,0.2709936553929999,Slow traffic from N 24th Ave to N 25th Ave due to roadwork.,2436.0,W Peoria Ave,R,Phoenix,Maricopa,AZ,85029-4723,US,US/Mountain,KDVT,2021-10-14 14:53:00,74.0,74.0,19.0,28.36,10.0,VAR,5.0,0.0,Fair,False,False,False,False,False,False,False,False,False,False,False,False,False,Day,Day,Day,Day
C-1841409,2,2020-12-02 05:01:00,2020-12-02 13:44:00,33.786766,-118.094138,33.790420000000005,-118.099026,0.37752302914,Construction on I-405 NB near I-605 Expect delays.,,I-405 N,R,Long Beach,Los Angeles,CA,90815,US,US/Pacific,KLGB,2020-12-02 04:53:00,46.0,46.0,83.0,29.96,9.0,CALM,0.0,0.0,Fair,False,False,False,False,False,False,False,False,False,False,False,False,False,Night,Night,Night,Night
C-1841410,2,2021-10-26 15:43:21,2021-10-26 16:03:21,42.639744,-71.316525,42.638431,-71.315709,0.0997509672108,Slow traffic on MA-110 - MA-3A from Thorndike St to Chelmsford St due to roadwork.,,Thorndike St,R,Lowell,Middlesex,MA,01852,US,US/Eastern,KLWM,2021-10-26 15:54:00,58.0,58.0,93.0,29.42,10.0,NE,22.0,0.04,Light Rain / Windy,False,False,True,False,False,False,True,False,False,False,False,False,False,Day,Day,Day,Day
C-1841411,2,2021-12-07 07:55:30,2021-12-07 10:01:13,33.493016,-112.272451,33.493761,-112.273038,0.0615925504004,Stationary traffic from W Thomas Rd to N 100th Ave due to roadwork.,3709.0,N 99th Ave,R,Phoenix,Maricopa,AZ,85037,US,US/Mountain,KGEU,2021-12-07 07:58:00,50.0,50.0,52.0,28.77,10.0,N,6.0,0.0,Fair,False,False,False,False,False,False,False,False,False,False,False,False,False,Day,Day,Day,Day
C-1841412,2,2021-02-11 06:13:30,2021-02-11 18:12:39,43.661868,-116.354308,43.663588,-116.354331,0.118846241953,Stationary traffic on ID-55 from W McMillan Rd (ID-55) to ID-44 Byp/S Eagle Rd (ID-55) due to roadwork.,6286.0,N Eagle Rd,L,Boise,Ada,ID,83713-0955,US,US/Mountain,KBOI,2021-02-11 05:53:00,28.0,28.0,75.0,27.05,10.0,CALM,0.0,0.0,Cloudy,True,False,True,False,False,False,False,False,False,False,False,False,False,Night,Night,Night,Day
C-1841413,2,2020-10-03 13:20:30,2020-10-03 22:29:16,25.732196,-80.378869,25.730548,-80.383278,0.297110604538,Slow traffic on FL-976 from SW 112th Ave to SW 43rd Ter due to roadwork.,11305.0,SW 40th St,R,Miami,Miami-Dade,FL,33165-4420,US,US/Eastern,KMIA,2020-10-03 12:53:00,80.0,80.0,90.0,,9.0,ESE,6.0,0.01,Light Rain,False,False,False,False,False,False,False,False,False,False,False,False,False,Day,Day,Day,Day
C-1841414,2,2021-06-03 17:07:30,2021-12-23 18:03:30,39.726562,-105.01378,39.732942,-105.015574,0.4510059025389999,Slow traffic on US-85 N - US-87 N - I-25 N - US-6 E from CO-26/Alameda Ave/Exit 208 (I-25) to US-40/Colfax Ave/Exit 210 (I-25) due to roadwork.,,I-25 N,R,Denver,Denver,CO,80204,US,US/Mountain,KBJC,2021-12-23 17:50:00,54.0,54.0,26.0,24.08,10.0,SW,6.0,0.0,Mostly Cloudy,False,False,False,False,True,False,False,False,False,False,False,False,False,Day,Day,Day,Day
C-1841415,2,2020-11-19 06:01:00,2020-11-19 13:46:00,33.778886,-117.878127,33.775085,-117.850328,1.6179804803100002,Construction on CA-22 EB near I-5 Expect delays.,,Garden Grove Fwy,R,Orange,Orange,CA,92868,US,US/Pacific,KSNA,2020-11-19 05:53:00,58.0,58.0,81.0,30.06,6.0,ENE,5.0,0.0,Cloudy,False,False,False,False,False,False,False,False,False,False,False,False,False,Night,Day,Day,Day
C-1841416,3,2018-03-23 19:33:20,2018-03-24 15:02:00,32.779442,-97.061561,32.762651,-97.063819,1.16754065352,Between Green Oaks Blvd/North Carrier Pky and Avenue H E/E Lamar Blvd - Roadwork.,1939.0,N State Highway 360,L,Grand Prairie,Tarrant,TX,75050-1422,US,US/Central,KGPM,2018-03-23 19:50:00,73.4,,61.0,29.88,10.0,South,10.4,,Clear,False,False,False,False,False,False,False,False,False,False,False,False,False,Day,Day,Day,Day
C-1841417,2,2020-10-06 13:29:49,2020-10-13 02:34:23,40.655708,-73.90231700000002,40.657321,-73.899079,0.203043807289,Slow traffic on NY-27 from Rockaway Ave (Brooklyn) (East) (NY-27) to Pennsylvania Ave (NY-27) due to roadwork.,,Linden Blvd,R,Brooklyn,Kings,NY,11212,US,US/Eastern,KJRB,2020-10-06 13:51:00,69.0,69.0,44.0,29.96,10.0,CALM,0.0,0.0,Mostly Cloudy,False,False,True,False,False,False,False,False,False,False,False,True,False,Day,Day,Day,Day
C-1841418,2,2020-01-08 10:18:42,2020-01-08 18:18:00,44.31392,-120.65045,44.30713,-120.61831,1.65683536865,At Ochoco Creek Rd/NE Ochoco Hwy - Construction work.,15807.0,NE Ochoco Hwy,L,Prineville,Crook,OR,97754-7943,US,US/Pacific,KRDM,2020-01-08 09:56:00,38.0,38.0,70.0,26.68,10.0,CALM,0.0,0.0,Cloudy,False,False,False,False,False,False,False,False,False,False,False,False,False,Day,Day,Day,Day
C-1841419,4,2020-08-03 07:00:00,2020-09-02 06:59:59,39.933772,-79.04377,39.929834,-78.975585,3.62277258204,Roadwork on E MUD PK / MUD PK / INDIANTOWN RD / PIEDMONT RD both directions between GARRETT SHORT CUT RD and BERLIN PLANK RD. All lanes closed.,1199.0,Garrett Shortcut Rd,L,Berlin,Somerset,PA,15530-6817,US,US/Eastern,KCBE,2020-08-03 06:55:00,63.0,63.0,96.0,29.28,10.0,CALM,0.0,0.0,Fair,False,False,False,False,False,False,False,False,False,False,False,False,False,Day,Day,Day,Day
C-1841420,3,2018-09-06 02:02:35,2018-09-06 06:00:00,41.044682,-73.56076800000002,,,1.54999995232,Right lane closed due to construction work on I-95 Southbound from Exit 7 CT-137 Washington Blvd to Exit 6 Harvard Ave.,118.0,Harvard Ave,L,Stamford,Fairfield,CT,06902-6319,US,US/Eastern,KHPN,2018-09-06 01:56:00,73.0,,96.0,30.16,7.0,Calm,,,Clear,False,False,False,False,False,False,False,False,False,False,False,False,False,Night,Night,Night,Night
C-1841421,2,2021-09-11 15:16:30,2021-10-05 07:37:00,40.721058,-73.756119,40.71922100000001,-73.75474399999997,0.145925923836,Stationary traffic from Hillside Ave to 90th Ave due to roadwork.,20901.0,89th Ave,L,Queens Village,Queens,NY,11427-2218,US,US/Eastern,KJFK,2021-10-05 06:51:00,61.0,61.0,90.0,30.16,10.0,NNE,8.0,0.0,Cloudy,True,False,False,False,False,False,False,False,False,False,False,False,False,Day,Day,Day,Day
C-1841422,2,2021-10-20 13:10:30,2021-10-20 15:21:59,40.019874,-75.323617,40.022865,-75.327444,0.289329757386,Slow traffic from Mondella Ave to S Roberts Rd due to roadwork.,897.0,County Line Rd,R,Bryn Mawr,Montgomery,PA,19010-3102,US,US/Eastern,KLOM,2021-10-20 01:50:00,47.0,47.0,91.0,29.71,10.0,WSW,3.0,0.0,Fair,False,False,False,False,False,False,False,False,False,False,False,True,False,Day,Day,Day,Day
C-1841423,2,2020-10-16 08:55:30,2020-10-16 20:51:30,39.710375,-75.608145,39.699765,-75.603849,0.767825849672,Slow traffic on DE-141 from DE-4/Exit 4 (DE-141) to I-95/Exit 2/Exit 3 (US-202/DE-141) due to roadwork.,,DE-141 S,R,New Castle,New Castle,DE,19720,US,US/Eastern,KILG,2020-10-16 08:51:00,55.0,55.0,86.0,30.01,2.0,NNW,13.0,0.1,Rain,False,False,False,False,False,False,False,False,False,False,False,False,False,Day,Day,Day,Day
C-1841424,2,2021-12-17 07:50:30,2021-12-17 08:17:30,26.172491,-97.990912,26.169941,-97.990852,0.176227499736,Stationary traffic on FM-88 from I-2/US-83 (Texas Blvd/FM-88) to US-83/TX-374 (Texas Blvd/FM-88) due to roadwork.,,Expressway 83,R,Weslaco,Hidalgo,TX,78596,US,US/Central,KT65,,,,,,,,,,,True,False,False,False,False,False,False,False,False,False,False,True,False,Day,Day,Day,Day
C-1841425,2,2020-05-05 19:45:00,2020-08-08 00:06:35,41.03621,-78.382403,41.014586,-78.32815699999998,3.19805301378,Roadwork on I-80 eastbound between Exit 111: PA 153 - CLEARFIELD and Exit 147: PA 144 - SNOW SHOE. There is a traffic disruption.,,I-80 E,R,Clearfield,Clearfield,PA,16830,US,US/Eastern,KFIG,2020-05-05 19:54:00,54.0,54.0,25.0,28.22,10.0,SE,3.0,0.0,Fair,False,False,False,False,False,False,False,False,False,False,False,False,False,Day,Day,Day,Day
C-1841426,2,2020-11-06 07:00:00,2020-11-06 13:45:00,38.884324,-77.224293,38.885711,-77.220252,0.237526818852,On I-66 in the County of Fairfax from mile marker 64.6 to mile marker 64.8 motorists can expect potential delays in this area from 11/05/20 at 11:00 PM until 11/06/20 at 5:00 AM due to construction activities. The east left lane left center lane and right center lane are closed.,,I-66 E,R,Dunn Loring,Fairfax County,VA,22027,US,US/Eastern,KDCA,2020-11-06 06:52:00,50.0,50.0,96.0,30.31,8.0,CALM,0.0,0.0,Cloudy,False,False,False,False,False,False,False,False,False,False,False,False,False,Day,Day,Day,Day
C-1841427,2,2021-04-19 05:11:30,2021-04-20 04:50:00,39.250024,-104.885117,39.191773,-104.851132,4.416781231730001,Slow traffic on US-85 S - I-25 S - US-87 S from Tomah Road/Exit 174 (I-25) to Greenland Rd/Exit 167 (I-25) due to roadwork.,,I-25 S,R,Larkspur,Douglas,CO,80118,US,US/Mountain,KMNH,2021-04-19 05:15:00,34.0,26.0,56.0,23.12,10.0,SSW,9.0,0.0,Fair,False,False,False,False,False,False,False,False,False,False,False,False,False,Night,Night,Night,Day
C-1841428,2,2021-03-02 03:29:30,2021-03-02 12:18:10,25.625594,-80.342508,25.62898,-80.34172099999998,0.2390322775409999,Slow traffic on US-1 N - FL-992 - FL-5 from SW 156th St to SW 92nd Ave due to roadwork.,15599.0,S Dixie Hwy,R,Miami,Miami-Dade,FL,33157,US,US/Eastern,KTMB,2021-03-02 03:49:00,70.0,70.0,88.0,30.04,1.0,CALM,0.0,0.0,Fog,False,False,True,False,False,False,False,False,False,False,False,True,False,Night,Night,Night,Night
C-1841429,2,2021-02-21 08:41:00,2021-02-21 10:24:30,41.582574,-87.684702,41.578934,-87.676399,0.4973952271500001,Slow traffic on I-80 E from I-294/Tri State Tollway (I-294/I-80) to Dixie Hwy (I-294/I-80) due to roadwork.,,I-80 E,R,Hazel Crest,Cook,IL,60429,US,US/Central,KIGQ,2021-02-21 08:35:00,23.0,13.0,70.0,29.61,10.0,SSE,10.0,0.0,Mostly Cloudy,False,False,False,False,True,False,False,False,False,False,False,False,False,Day,Day,Day,Day
C-1841430,2,2020-04-26 09:02:03,2020-04-29 15:59:59,28.52013,-81.38875999999998,28.52018,-81.38469,0.247109284739,Between S Parramore Ave and S Division Ave - Roadwork. Right lane closed.,,S Parramore Ave,R,Orlando,Orange,FL,32805,US,US/Eastern,KORL,2020-04-26 08:53:00,79.0,79.0,79.0,29.89,9.0,W,5.0,0.0,Mostly Cloudy,False,False,True,False,False,False,False,False,False,False,False,True,False,Day,Day,Day,Day
C-1841431,2,2021-05-20 05:35:00,2021-05-20 17:49:05,33.494240000000005,-112.254137,33.493556,-112.25513,0.0742108737395,Stationary traffic from N 89th Ln to W Indianola Ave due to roadwork.,9063.0,W Indian School Rd,L,Phoenix,Maricopa,AZ,85037-2029,US,US/Mountain,KGEU,2021-05-20 05:58:00,73.0,73.0,25.0,28.56,10.0,SW,3.0,0.0,Fair,False,False,False,False,False,False,False,False,False,False,False,False,False,Day,Day,Day,Day
C-1841432,2,2020-10-28 06:30:00,2020-10-28 07:22:00,39.165176,-104.853054,39.219636,-104.878324,3.99874983891,Slow traffic on I-25 from County Line Rd/Exit 163 (I-25) to Upper Lake Gulch Rd/Exit 172 (I-25) due to roadwork.,,I-25 N,R,Larkspur,Douglas,CO,80118,US,US/Mountain,KMNH,2020-10-28 06:35:00,23.0,13.0,68.0,23.15,10.0,WSW,9.0,0.0,Fair,False,False,False,False,False,False,False,False,False,False,False,False,False,Night,Night,Day,Day
C-1841433,2,2018-11-10 08:01:38,2018-11-14 08:00:57,33.952659999999995,-118.38587,33.95265,-118.388329,0.14093423195,Between Airport Blvd and Jenny Ave - Construction work.,6101.0,Westchester Pkwy,L,Los Angeles,Los Angeles,CA,90045,US,US/Pacific,KLAX,2018-11-10 07:53:00,64.4,,10.0,29.99,10.0,Variable,3.5,,Scattered Clouds,False,False,False,False,False,False,False,False,False,False,False,True,False,Day,Day,Day,Day
C-1841434,2,2021-09-01 09:52:30,2021-12-23 12:13:04,31.620309,-101.624638,31.643775,-101.632017,1.6784523096,Slow traffic on FM-1800 - TX-137 from Daniel Rd (TX-137) to FM-2401 (FM-1800/TX-137) due to roadwork.,19231.0,N State Highway 137,L,Big Lake,Reagan,TX,76932,US,US/Central,KOZA,2021-09-01 09:55:00,81.0,81.0,65.0,27.44,10.0,S,16.0,0.0,Fair,False,False,False,False,False,False,False,False,False,False,False,False,False,Day,Day,Day,Day
C-1841435,2,2021-07-28 21:00:00,2021-07-29 05:45:00,42.063346,-71.397696,42.085619,-71.42369599999998,2.03625592911,Construction on I-495 NB near MM 36 Expect long delays.,,I-495 N,R,Franklin,Norfolk,MA,02038,US,US/Eastern,KSFZ,2021-07-28 20:56:00,63.0,63.0,90.0,29.56,9.0,CALM,0.0,0.0,Fair,False,False,False,False,False,False,False,False,False,False,False,False,False,Night,Night,Day,Day
C-1841436,2,2020-10-21 09:00:00,2020-10-21 14:00:00,29.82469600000001,-90.465477,,,1.79999995232,Intermittent lane closures due to bridge maintenance work on US-90 Eastbound between LA-631 and LA-632 Wpa Rd.,100.0,Wpa Rd,L,Des Allemands,St. Charles,LA,70030-3001,US,US/Central,KMSY,2020-10-21 08:53:00,77.0,77.0,84.0,30.07,10.0,ENE,10.0,0.0,Partly Cloudy,False,False,False,False,False,False,False,False,False,False,False,False,False,Day,Day,Day,Day
C-1841437,2,2021-02-17 05:16:00,2021-02-17 17:39:30,30.068792,-81.86630600000002,30.06283,-81.874227,0.627723019773,Slow traffic on FL-21 from Palmetto St (FL-21) to FL-218 (FL-21) due to roadwork.,2542.0,Blanding Blvd,L,Middleburg,Clay,FL,32068-5167,US,US/Eastern,KVQQ,2021-02-17 05:15:00,45.0,45.0,76.0,30.02,10.0,CALM,0.0,0.0,Partly Cloudy,False,False,False,False,False,False,False,False,False,False,False,True,False,Night,Night,Night,Night
C-1841438,2,2021-08-21 20:00:00,2021-08-21 20:14:30,41.085615,-111.987328,41.103293,-112.00367,1.4886223955899998,Slow traffic on I-15 N from UT-232/Exit 334 (I-15) to UT-193/Exit 336 (I-15) due to roadwork.,,I-15 N,R,Layton,Davis,UT,84041,US,US/Mountain,KHIF,2021-08-21 18:09:00,79.0,79.0,34.0,24.97,10.0,NW,33.0,0.0,Thunder / Windy,False,False,False,False,True,False,False,False,False,False,False,False,False,Day,Day,Day,Day
C-1841439,2,2020-10-11 17:07:00,2020-10-12 01:22:30,40.711394,-74.00859399999999,40.711404,-74.008004,0.0309078698023,Major roadwork from Broadway / Vesey St to Spruce St.,2.0,Vesey St,R,New York,New York,NY,10007-2957,US,US/Eastern,KJRB,2020-10-11 16:51:00,64.0,64.0,60.0,30.04,10.0,NE,6.0,0.0,Cloudy,True,False,True,False,False,False,False,False,True,True,False,True,False,Day,Day,Day,Day
C-1841440,2,2021-12-18 23:21:00,2021-12-19 00:30:00,47.001625,-123.399413,47.004065,-123.391253,0.419828318245,Road work on US 12 eastbound at milepost 20.6 near SR 8 beginning at 11:21 pm on December 18 2021 until about 12:30 am on December 19 2021.,,Olympic Hwy,R,Elma,Grays Harbor,WA,98541,US,US/Pacific,KSHN,2021-12-18 22:53:00,37.0,32.0,100.0,29.59,10.0,SE,6.0,0.0,Partly Cloudy,False,False,False,False,True,False,False,False,False,False,False,False,False,Night,Night,Night,Night
C-1841441,2,2020-07-14 04:34:21,2020-07-14 12:34:21,42.416098,-123.384477,42.416058,-123.384794,0.0164044432626,Road maintenance operations are occurring causing no to minimum delays. Use caution.,2996.0,Redwood Hwy,L,Grants Pass,Josephine,OR,97527-9261,US,US/Pacific,KSXT,2020-07-14 04:56:00,52.0,52.0,61.0,26.14,10.0,N,14.0,0.0,Fair,False,False,False,False,False,False,False,False,False,False,False,False,False,Night,Night,Day,Day
C-1841442,2,2021-09-27 08:51:03,2021-09-27 09:12:00,40.756671,-73.978567,40.75910800000001,-73.98436600000002,0.347079339388,Slow traffic from 5th Ave / E 47th St to 7th Ave due to roadwork.,2.0,E 47th St,R,New York,New York,NY,10017-1905,US,US/Eastern,KNYC,2021-09-27 08:51:00,64.0,,56.0,29.9,10.0,,,0.0,Partly Cloudy,False,False,True,False,False,False,True,False,True,False,False,True,False,Day,Day,Day,Day
C-1841443,4,2021-09-13 02:03:48,2021-09-20 23:59:00,27.798038,-97.405804,27.796148,-97.409954,0.28529093007,Bridge closure from Crosstown Expwy (TX-286) exit [1C] to TX-286 S.,,I-37 N,R,Corpus Christi,Nueces,TX,78401,US,US/Central,KCRP,2021-09-13 02:14:00,77.0,77.0,94.0,29.9,5.0,ESE,13.0,0.02,Rain,False,False,False,False,True,False,False,False,False,False,False,False,False,Night,Night,Night,Night
C-1841445,2,2018-05-14 08:10:52,2018-05-14 14:12:54,40.522159,-79.055779,40.53657000000001,-79.06526,1.11325557812,At PA-259/Robinson St - Roadwork. Lane blocked.,6640.0,Route 56 Hwy E,L,Homer City,Indiana,PA,15748-5842,US,US/Eastern,KIDI,2018-05-14 08:15:00,64.4,,100.0,30.05,2.5,Calm,,,Overcast,False,False,False,False,False,False,False,False,False,False,False,False,False,Day,Day,Day,Day
C-1841446,2,2020-11-16 16:09:00,2020-11-16 16:29:00,40.875889,-73.884731,40.875753,-73.883442,0.0679944175000999,Stationary traffic from Grand Concourse to E Mosholu Pkwy S due to roadwork.,172.0,E 206th St,R,Bronx,Bronx,NY,10458-1102,US,US/Eastern,KLGA,2020-11-16 15:51:00,53.0,53.0,37.0,29.93,10.0,WNW,13.0,0.0,Fair,False,False,False,False,False,False,False,False,False,True,False,False,False,Day,Day,Day,Day
C-1841447,2,2021-07-21 14:26:30,2021-11-19 09:23:30,42.109975,-87.975475,42.109539,-87.980525,0.26059872089,Stationary traffic from Palatine Road Express Ln to E Lillian Ave due to roadwork.,682.0,E Palatine Rd,L,Arlington Heights,Cook,IL,60004,US,US/Central,KPWK,2021-07-21 14:33:00,74.0,74.0,68.0,29.47,10.0,VAR,7.0,0.0,Cloudy,False,False,True,False,False,False,False,False,False,False,False,True,False,Day,Day,Day,Day
C-1841448,2,2021-09-21 15:59:00,2021-09-21 16:22:00,33.458702,-112.144377,33.458666,-112.134481,0.570445570881,Slow traffic from N 40th Ave to N 35th Ave due to roadwork.,3932.0,W Roosevelt St,R,Phoenix,Maricopa,AZ,85009,US,US/Mountain,KPHX,2021-09-21 15:51:00,101.0,101.0,11.0,28.82,10.0,VAR,7.0,0.0,Fair,False,False,True,False,False,False,False,False,False,False,False,True,False,Day,Day,Day,Day
C-1841450,2,2021-08-30 03:07:22,2021-09-06 01:02:31,40.071265,-105.037416,40.066964,-105.037522,0.297223646636,Roadwork from County Road 12 to Rue de Trust.,4905.0,County Road 3,R,Erie,Weld,CO,80516-9312,US,US/Mountain,KEIK,2021-08-30 03:15:00,58.0,58.0,80.0,24.89,10.0,CALM,0.0,0.0,Fair,False,False,False,False,False,False,False,False,False,False,False,False,False,Night,Night,Night,Night
C-1841451,3,2016-08-05 21:30:00,2016-08-11 06:00:00,40.77618,-74.24173,40.75126,-74.18701999999998,3.34093640918,Between CR-508/Exit 10 and 1st St/6th St/Orange St/Exit 13 - Construction work.,,I-280 E,R,West Orange,Essex,NJ,07052,US,US/Eastern,KCDW,2016-08-05 21:53:00,78.1,,64.0,29.9,10.0,Variable,3.5,,Clear,False,False,False,False,True,False,False,False,False,False,False,False,False,Night,Night,Night,Day
C-1841452,2,2021-05-26 16:03:08,2021-05-26 17:10:45,25.89752,-80.34175,25.894894,-80.340314,0.202204699016,Stationary traffic from W 30th Ct to W 81st St due to roadwork.,2842.0,W 84th St,R,Hialeah,Miami-Dade,FL,33018-4912,US,US/Eastern,KOPF,2021-05-26 15:53:00,84.0,84.0,53.0,30.15,10.0,E,13.0,0.0,Partly Cloudy,False,False,False,False,False,False,False,False,False,False,False,True,False,Day,Day,Day,Day
C-1841453,2,2021-05-20 20:00:00,2021-05-21 05:45:00,35.675686,-86.284722,35.631206,-86.245772,3.77185303641,Construction on I-24 EB near MM 96 Drive with caution.,,I-24 E,R,Christiana,Rutherford,TN,37037,US,US/Central,KMQY,2021-05-20 19:53:00,76.0,76.0,46.0,29.61,10.0,SSE,6.0,0.0,Fair,False,False,False,False,False,False,False,False,False,False,False,False,False,Night,Day,Day,Day
C-1841454,2,2020-09-10 16:00:00,2020-09-19 12:00:00,33.406699,-112.064564,33.407063,-112.064564,0.0251500047165,WIER AVE - BROADWAY RD - Construction - CONCRETE ASPHALTLanesRestricted: NB&amp;#61;1 SB&amp;#61;ALLWIER AVE - BROADWAY RD Comments: WIER AVE - MARGUERITE AVE,4301.0,S 7th St,L,Phoenix,Maricopa,AZ,85040,US,US/Mountain,KPHX,2020-09-10 15:51:00,90.0,90.0,13.0,28.75,10.0,SSW,6.0,0.0,Mostly Cloudy,True,False,True,False,False,False,False,False,True,False,False,True,False,Day,Day,Day,Day
C-1841455,2,2021-11-17 16:41:06,2021-11-17 17:01:06,30.606877,-97.681833,30.607962,-97.685782,0.246510892886,Stationary traffic from Blue Springs Blvd / Snead Dr to I-35 N / S Austin Ave due to roadwork.,152.0,SE Inner Loop,R,Georgetown,Williamson,TX,78626,US,US/Central,KGTU,2021-11-17 16:56:00,79.0,79.0,52.0,29.11,10.0,SSE,12.0,0.0,Fair,False,False,False,False,False,False,False,False,False,False,False,True,False,Day,Day,Day,Day
C-1841456,2,2021-03-03 04:23:00,2021-03-03 10:53:45,26.203091,-80.157416,26.201682,-80.155793,0.140003440471,Slow traffic on FL-845 from NW 12th Ave to NW 57th Ct due to roadwork.,980.0,W Cypress Creek Rd,L,Fort Lauderdale,Broward,FL,33309-1904,US,US/Eastern,KFXE,2021-03-03 04:53:00,71.0,71.0,87.0,29.93,10.0,SW,5.0,0.0,Fair,False,False,False,False,False,False,False,False,False,False,False,False,False,Night,Night,Night,Night
C-1841457,2,2020-10-23 02:16:00,2020-10-23 02:57:00,38.2147,-95.248786,38.224625,-95.248414,0.686049437904,Stationary traffic on KS-31 from US-169 (Garnett) (East) (US-59/KS-31) to US-169 (Garnett) (West) (US-169/US-59/S Maple St/KS-31) due to roadwork.,22150.0,N Highway 169,R,Garnett,Anderson,KS,66032,US,US/Central,KUKL,2020-10-23 02:31:00,40.0,31.0,97.0,28.76,6.0,N,17.0,0.0,Light Rain,False,False,False,False,False,False,False,False,False,False,False,False,False,Night,Night,Night,Night
C-1841458,2,2020-12-02 14:00:00,2020-12-02 18:45:00,40.60368,-74.053461,40.605468,-74.047922,0.315732181289,Construction on VERRAZANO NARROWS BRG EB near BROOKLYN Allow extra time.,,I-278 E,R,Staten Island,Richmond,NY,10305,US,US/Eastern,KEWR,2020-12-02 13:51:00,42.0,33.0,60.0,29.92,10.0,W,21.0,0.0,Cloudy / Windy,False,False,False,False,False,False,False,False,False,False,False,False,False,Day,Day,Day,Day
C-1841459,2,2021-05-05 10:45:01,2021-05-10 23:59:00,42.700456,-73.835452,42.695256,-73.838702,0.395376155857,Bridge work on ADIRONDACK NORTHWAY southbound over I-90 (Albany) Not currently Scheduled,,I-87 S,R,Albany,Albany,NY,12205,US,US/Eastern,KALB,2021-05-05 10:51:00,51.0,51.0,100.0,29.39,7.0,S,9.0,0.0,Light Rain,False,False,False,False,True,False,False,False,False,False,False,False,False,Day,Day,Day,Day
C-1841460,2,2018-10-02 22:01:44,2018-10-08 22:02:23,40.744046,-74.008561,40.72587,-74.0112,1.26341930533,Between 11th Ave and Canal St - Construction work.,49.0,11th Ave,R,New York,New York,NY,10011-2829,US,US/Eastern,KNYC,2018-10-03 21:51:00,64.9,,78.0,30.09,10.0,Calm,,,Clear,True,False,True,False,False,False,False,False,False,False,False,True,False,Night,Night,Night,Night
C-1841461,2,2021-11-24 15:03:56,2021-11-24 17:53:02,33.965295000000005,-96.416734,33.947445,-96.416934,1.23337080044,Stationary traffic on US-69 S - US-75 S from US-70 Byp (US-75/US-69) to US-75 Bus/US-69 Bus (US-75/US-69) due to roadwork.,,US-69 S,R,Durant,Bryan,OK,74701,US,US/Central,KDUA,2021-11-24 14:55:00,73.0,73.0,50.0,29.18,10.0,S,14.0,0.0,Mostly Cloudy,False,False,False,False,True,False,False,False,False,False,False,False,False,Day,Day,Day,Day
C-1841462,4,2021-08-03 13:30:00,2021-08-06 18:00:00,34.91923,-95.745406,34.919488,-95.746476,0.0631861820780999,Closed road from S George Nigh Expy to S 17th St due to roadwork.,501.0,S George Nigh Expy,L,Mcalester,Pittsburg,OK,74501-6725,US,US/Central,KMLC,2021-08-03 13:53:00,89.0,,42.0,29.19,9.0,,,0.0,Fair,False,False,False,False,False,False,False,False,False,True,False,False,False,Day,Day,Day,Day
C-1841463,2,2021-04-13 06:24:00,2021-04-13 18:31:21,27.820976,-82.729519,27.82149,-82.72842,0.0759685508792,Stationary traffic on FL-693 from 67th St N to 55th Ave N due to roadwork.,5441.0,66th Way N,R,Saint Petersburg,Pinellas,FL,33709-2821,US,US/Eastern,KPIE,2021-04-13 06:53:00,68.0,68.0,96.0,30.0,10.0,NNE,6.0,0.0,Fair,False,False,False,False,False,False,False,False,True,False,False,False,False,Night,Night,Day,Day
C-1841464,2,2021-01-24 18:13:02,2021-01-25 19:01:08,38.987102,-77.108533,38.987227,-77.103337,0.279186938402,Construction on MD-188 EB near STRATFORD RD Expect long delays.,5409.0,Wilson Ln,R,Bethesda,Montgomery,MD,20814-1316,US,US/Eastern,KCGS,2021-01-24 18:15:00,34.0,34.0,35.0,30.16,10.0,CALM,0.0,0.0,Cloudy,False,False,False,False,False,False,False,False,False,False,False,False,False,Night,Night,Day,Day
C-1841465,3,2016-11-14 20:00:00,2016-11-15 06:00:00,42.071541,-88.312813,,,2.32,One right lane closed due to maintenance work on I-90 Westbound between Duncan Ave and Elgin Toll Plaza.,,Jane Addams Memorial Tollway E,R,Elgin,Kane,IL,60123,US,US/Central,KDPA,2016-11-14 19:52:00,46.0,,83.0,29.88,9.0,Calm,,,Clear,False,False,False,False,True,False,False,False,False,False,False,False,False,Night,Night,Night,Night
C-1841466,2,2020-07-09 03:00:00,2020-07-09 12:45:00,39.609843,-75.64989200000002,39.623323,-75.64778199999998,0.938125567748,Construction on DE-1 NB near EXIT 156 Construction. Left lane closed.,,DE-1 N,R,New Castle,New Castle,DE,19720,US,US/Eastern,KILG,2020-07-09 03:00:00,76.0,76.0,85.0,29.87,10.0,CALM,0.0,0.0,Mostly Cloudy,False,False,False,False,False,False,False,False,False,False,False,False,False,Night,Night,Night,Night
C-1841467,2,2017-05-03 02:51:53,2017-05-03 06:06:00,41.693508,-72.75808,,,1.93,Two lanes closed due to construction on CT-9 Northbound between Exits 27 28 28-28A CT-72 and Exit 29 CT-175 East St.,,CT-9 N,R,New Britain,Hartford,CT,06053,US,US/Eastern,KHFD,2017-05-03 02:53:00,57.9,,42.0,29.73,10.0,West,9.2,,Overcast,False,False,False,False,False,False,False,False,False,False,False,False,False,Night,Night,Night,Night
C-1841468,2,2021-06-12 06:06:00,2021-06-17 04:58:19,40.815122,-76.199649,40.80396500000001,-76.208066,0.8876947923270001,Construction on PA-924 SB near HERALD RD Allow extra time.,662.0,S Main St,L,Shenandoah,Schuylkill,PA,17976-2531,US,US/Eastern,KRDG,2021-06-12 05:54:00,60.0,60.0,93.0,29.45,10.0,W,3.0,0.0,Mostly Cloudy,False,False,False,False,False,False,False,False,False,False,False,False,False,Day,Day,Day,Day
C-1841469,3,2020-06-28 05:34:55,2020-06-28 07:33:50,45.37159000000001,-122.71215,45.36834,-122.70011,0.6260767191659999,At Stafford Rd/Exit 3 - Construction work.,,E Portland Fwy N,R,Tualatin,Clackamas,OR,97062,US,US/Pacific,KUAO,2020-06-28 05:53:00,54.0,54.0,80.0,29.72,10.0,SSW,3.0,0.0,Mostly Cloudy,False,False,False,False,True,False,False,False,False,False,False,False,False,Day,Day,Day,Day
C-1841470,2,2020-12-11 11:10:30,2020-12-11 12:16:30,34.547597,-92.627466,34.541557,-92.642449,0.949346353518,Slow traffic on AR-88 W - US-70 W - I-30 W from Sevier St/Exit 116 (I-30) to US-70/Exit 111 (I-30) due to roadwork.,,AR-88 W,R,Benton,Saline,AR,72015,US,US/Central,KLIT,2020-12-11 10:53:00,60.0,60.0,75.0,29.67,10.0,SSW,8.0,0.0,Cloudy,False,False,False,False,False,False,False,False,False,False,False,False,False,Day,Day,Day,Day
C-1841471,2,2021-09-20 16:48:00,2021-09-20 19:27:45,27.916764,-82.798447,27.916664,-82.795813,0.160961846048,Slow traffic on County Hwy-416 - FL-686 from Howard Dr to Ridge Rd SW due to roadwork.,951.0,W Bay Dr,L,Largo,Pinellas,FL,33770,US,US/Eastern,KPIE,2021-09-20 16:53:00,81.0,81.0,79.0,29.97,10.0,NW,6.0,0.0,Fair,False,False,False,False,False,False,False,False,True,False,False,True,False,Day,Day,Day,Day
C-1841472,2,2021-10-13 15:06:30,2021-10-13 17:11:46,42.38154,-83.314073,42.384431,-83.31423199999998,0.1999138381619999,Slow traffic from Plymouth Rd (Inkster Rd) to I-96 (Inkster Rd) due to roadwork.,13476.0,Inkster Rd,R,Redford,Wayne,MI,48239,US,US/Eastern,KDTW,2021-10-13 14:53:00,73.0,73.0,53.0,29.3,10.0,WSW,9.0,0.0,Partly Cloudy,False,False,True,False,False,False,False,False,False,False,False,True,False,Day,Day,Day,Day
C-1841473,2,2020-02-04 10:28:45,2020-02-04 12:00:00,41.05675,-73.83548,41.05675,-73.83548,0.0,At I-287/Exit 8 - Construction work. Right lane blocked.,,I-87 N,R,Irvington,Westchester,NY,10533,US,US/Eastern,KHPN,2020-02-04 10:56:00,43.0,40.0,86.0,29.35,10.0,ESE,5.0,0.0,Cloudy,False,False,False,False,False,False,False,False,False,False,False,False,False,Day,Day,Day,Day
C-1841474,2,2020-09-30 21:50:00,2020-10-01 01:25:30,39.98502,-75.094364,40.015805,-75.05242199999998,3.07446643206,Slow traffic on I-95 from Allegheny Ave/Exit 25 (I-95) to Cottman Ave/Exit 30 (I-95) due to roadwork.,,I-95 N,R,Philadelphia,Philadelphia,PA,19134,US,US/Eastern,KPNE,2020-09-30 21:54:00,63.0,63.0,65.0,29.77,10.0,SSW,3.0,0.0,Fair,False,False,False,False,False,False,False,False,False,False,False,False,False,Night,Night,Night,Night
C-1841475,2,2021-07-27 07:57:00,2021-07-28 08:48:10,41.073898,-75.97689100000002,41.085259,-75.962753,1.0762795372,Construction on I-81 NB near MP 154 Allow extra time.,,I-81 N,R,Mountain Top,Luzerne,PA,18707,US,US/Eastern,KAVP,2021-07-27 07:54:00,68.0,68.0,78.0,29.0,6.0,CALM,0.0,0.0,Haze,False,False,False,False,False,False,False,False,False,False,False,False,False,Day,Day,Day,Day
C-1841476,2,2016-10-18 12:27:34,2016-11-11 05:00:00,38.81985,-77.64516,38.79832,-77.56365,4.63378895329,Between US-15/Exit 40 and VA-234/Exit 44 - Construction work.,,I-66 E,R,Haymarket,Prince William,VA,20169,US,US/Eastern,KIAD,2016-10-18 12:52:00,81.0,,52.0,29.92,10.0,Variable,4.6,,Scattered Clouds,False,False,False,False,True,False,False,False,False,False,False,False,False,Day,Day,Day,Day
C-1841477,2,2020-10-06 10:21:00,2020-10-06 17:22:00,40.762871,-73.969691,40.762221,-73.968171,0.0913484271341,Stationary traffic from Park Ave (E 59th St) to 3rd Ave (E 59th St) due to resurfacing work.,501.0,Park Ave,R,New York,New York,NY,10022-1188,US,US/Eastern,KNYC,2020-10-06 09:51:00,61.0,61.0,67.0,30.07,10.0,VAR,5.0,0.0,Fair,True,False,False,False,False,False,True,False,True,False,False,True,False,Day,Day,Day,Day
C-1841478,2,2021-10-21 12:04:30,2021-10-21 14:17:17,34.506708,-117.367676,34.506711,-117.363586,0.232872885661,Stationary traffic on CA-18 from US-395 (CA-18) to El Evado Rd (CA-18) due to roadwork.,13563.0,Palmdale Rd,L,Victorville,San Bernardino,CA,92392-9364,US,US/Pacific,KVCV,2021-10-21 11:45:00,70.0,70.0,20.0,27.2,10.0,N,3.0,0.0,Fair,False,False,False,False,False,False,False,False,False,False,False,False,False,Day,Day,Day,Day
C-1841479,2,2021-07-28 01:43:30,2021-09-20 08:38:30,45.690511,-88.435138,45.703934,-88.43002,0.959764981806,Stationary traffic on WI-101 from US-8 (WI-101) to CR-C (WI-101) due to roadwork.,8862.0,State Highway 101,R,Armstrong Creek,Forest,WI,54103-9620,US,US/Central,KIMT,2021-09-20 08:27:00,64.0,64.0,93.0,28.64,4.0,SE,6.0,0.0,Mostly Cloudy,False,False,False,False,False,False,False,False,False,False,False,False,False,Night,Night,Night,Night
C-1841480,4,2021-10-04 01:00:00,2021-10-22 01:45:00,39.745225,-90.23858,39.745224,-90.235669,0.154648618092,Construction on IL-78 NB near DIAMOND ST Expect delays.,651.0,W Walnut St,R,Jacksonville,Morgan,IL,62650-1244,US,US/Central,KIJX,2021-10-04 00:55:00,59.0,59.0,100.0,29.23,3.0,CALM,0.0,0.0,Fair,False,False,False,False,False,False,False,False,False,False,False,False,False,Night,Night,Night,Night
C-1841481,2,2021-07-28 19:01:00,2021-07-29 08:46:00,39.320715,-120.566055,39.308144,-120.541716,1.56435505768,Alternating Lanes closure due to Bridge Work between End Chain Control Area and South Yuba River,,I-80 E,R,Soda Springs,Nevada,CA,95728,US,US/Pacific,KBLU,2021-07-28 19:05:00,78.0,78.0,32.0,24.92,2.0,VAR,3.0,0.0,Haze,False,False,False,False,False,False,False,False,False,False,False,False,False,Day,Day,Day,Day
C-1841482,3,2016-08-23 18:01:25,2016-08-24 00:01:25,45.19686,-93.55745,45.12494,-93.4842,6.11786955726,Between MN-101/Exit 207 and CR-30/95th Ave/Exit 213 - Roadwork.,,US-52 E,R,Rogers,Hennepin,MN,55374,US,US/Central,KMIC,2016-08-23 17:53:00,79.0,,56.0,29.88,10.0,South,20.7,,Clear,False,False,False,False,False,False,False,False,False,False,False,False,False,Day,Day,Day,Day
C-1841483,2,2021-07-23 11:53:03,2021-07-23 12:36:30,38.844565,-104.86532,38.841142,-104.858805,0.422915935223,Slow traffic on US-24 E from S 26th St to Naegele Rd due to roadwork.,,W US Highway 24,R,Colorado Springs,El Paso,CO,80904,US,US/Mountain,KAFF,2021-07-23 11:58:00,83.0,83.0,34.0,23.71,10.0,N,8.0,0.0,Fair,False,False,True,False,False,False,False,False,False,False,False,False,False,Day,Day,Day,Day
C-1841484,2,2021-08-10 10:31:30,2021-08-13 02:04:35,37.343429,-87.141199,37.340328,-87.142429,0.224659509929,Roadwork on KY-85/Main St (US-431) from KY-81 (US-431) to US-431 S - US-431 N.,11228.0,US Highway 431 N,R,Central City,Muhlenberg,KY,42330-5804,US,US/Central,K2I0,2021-08-10 10:35:00,89.0,89.0,63.0,29.63,10.0,WSW,13.0,0.0,Partly Cloudy,False,False,False,False,False,False,False,False,False,False,False,False,False,Day,Day,Day,Day
C-1841485,2,2021-07-29 09:00:00,2021-07-30 16:45:00,34.099898,-118.662427,34.100216,-118.66236200000002,0.0222842089328,Construction on 2188 COLD CANYON RD near MULHOLLAND HY Drive with caution.,2266.0,Cold Canyon Rd,R,Calabasas,Los Angeles,CA,91302-2308,US,US/Pacific,KVNY,2021-07-29 08:51:00,78.0,78.0,50.0,29.08,10.0,CALM,0.0,0.0,Fair,False,False,False,False,False,False,False,False,False,False,False,False,False,Day,Day,Day,Day
C-1841486,2,2017-08-03 05:02:06,2017-08-03 11:02:06,34.36128,-118.50558,34.38016,-118.49055,1.56089683008,Between CA-126/San Fernando Rd and Placerita Canyon Rd - Construction work.,,CA-14 N,R,Newhall,Los Angeles,CA,91321,US,US/Pacific,K3A6,2017-08-03 04:51:00,79.0,79.0,62.0,29.09,10.0,CALM,0.0,0.0,Partly Cloudy,False,False,False,False,False,False,False,False,False,False,False,False,False,Night,Night,Night,Day
C-1841487,2,2020-12-21 17:41:40,2020-12-22 00:24:00,41.67038,-72.839366,41.66603,-72.846476,0.47434316871,Construction on I-84 WB near EXIT 33 Construction. Right lane closed.,,CT-72 W,R,Plainville,Hartford,CT,06062,US,US/Eastern,KMMK,2020-12-21 17:53:00,30.0,30.0,96.0,29.61,2.0,CALM,0.0,0.0,Fog,False,False,False,False,False,False,False,False,False,False,False,False,False,Night,Night,Night,Day
C-1841488,2,2020-02-13 21:00:00,2020-02-17 21:52:46,40.51844000000001,-74.81456999999997,40.51844000000001,-74.81456999999997,0.0,At Dory Dilts Rd/River Rd - Bridge maintenance work. Right lane blocked. Hard shoulder blocked.,522.0,US Highway 202,R,Flemington,Hunterdon,NJ,08822,US,US/Eastern,KSMQ,2020-02-13 20:53:00,41.0,35.0,65.0,29.74,10.0,NW,9.0,0.0,Cloudy,False,False,False,False,False,False,False,False,False,False,False,False,False,Night,Night,Night,Night
C-1841489,2,2019-07-22 00:01:00,2019-07-31 23:59:00,39.048458,-84.556252,,,0.0,Road closed due to construction on Beechwood Rd both ways from US-127 Dixie Hwy to Ashton Rd.,99.0,Beechwood Rd,L,Ft Mitchell,Kenton,KY,41017-2717,US,US/Eastern,KCVG,2019-07-22 00:20:00,73.0,73.0,90.0,28.99,1.0,SW,7.0,0.14,Heavy Rain,False,False,True,False,False,False,False,False,False,False,False,False,False,Night,Night,Night,Night
C-1841490,4,2021-09-15 07:03:06,2021-09-15 16:15:00,43.471066,-76.387953,43.477065,-76.361226,1.40273218968,Construction on NY-104 EB near COUNTY HWY-29 Road closed. Take alternate route.,5053.0,State Route 104,R,Oswego,Oswego,NY,13126,US,US/Eastern,KFZY,2021-09-15 06:54:00,70.0,70.0,81.0,29.32,10.0,S,7.0,0.0,Fair,False,False,False,False,False,False,False,False,False,False,False,False,False,Day,Day,Day,Day
C-1841491,2,2018-10-30 05:31:36,2018-10-30 15:00:00,39.949547,-74.486572,,,0.0,Traffic shift due to construction on NJ-70 both ways at County Hwy-530 Lakehurst Rd.,910.0,Lakehurst Rd,R,Browns Mills,Burlington,NJ,08015,US,US/Eastern,KWRI,2018-10-30 05:56:00,37.9,33.5,91.0,30.02,10.0,West,5.8,,Clear,False,False,False,False,False,False,False,False,False,False,False,False,False,Night,Night,Night,Night
C-1841492,2,2018-12-24 09:58:15,2019-06-01 12:00:00,29.999626,-90.117905,,,0.25,Drainage works and construction work on Veterans Blvd both ways from Fleur De Lis Dr / Veterans Hwy / Leslie Ln to Veterans Hwy / Harney St.,232.0,Veterans Blvd,L,New Orleans,Orleans,LA,70124,US,US/Central,KNEW,2018-12-24 10:53:00,55.0,,64.0,30.3,10.0,ENE,13.8,,Partly Cloudy,False,False,False,False,False,False,False,False,False,False,False,False,False,Day,Day,Day,Day
C-1841493,3,2018-06-29 12:53:29,2018-06-30 06:53:29,42.64497,-83.19181,42.645418,-83.196554,0.243081102532,At W Hamlin Rd - Roadwork.,,MI-59 W,R,Rochester,Oakland,MI,48309,US,US/Eastern,KVLL,,,,,,,,,,,False,False,False,False,True,False,False,False,False,False,False,False,False,Day,Day,Day,Day
C-1841494,2,2021-12-28 20:11:00,2021-12-28 22:13:17,38.502901,-120.664528,38.50171,-120.660763,0.219581274776,Roadwork from Jura Ln to Camino del Aparicio.,19401.0,Fiddletown Rd,R,Fiddletown,Amador,CA,95629-9734,US,US/Pacific,KPVF,,,,,,,,,,,False,False,False,False,False,False,False,False,False,False,False,False,False,Night,Night,Night,Night
C-1841495,2,2021-09-16 10:57:00,2021-09-16 13:48:41,33.414685,-111.927848,33.415341999999995,-111.926275,0.101442422269,Stationary traffic from Sonora Ctr to E Lemon St due to roadwork.,741.0,E Apache Blvd,R,Tempe,Maricopa,AZ,85281,US,US/Mountain,KPHX,2021-09-16 10:51:00,92.0,92.0,20.0,28.61,10.0,ESE,8.0,0.0,Fair,False,False,False,False,False,False,False,False,True,False,False,False,False,Day,Day,Day,Day
C-1841496,2,2021-12-01 07:20:30,2021-12-01 07:44:30,39.891558,-82.930021,39.887966,-82.930257,0.248498719467,Stationary traffic from OH-104/Performance Way/Refugee Rd (Alum Creek Dr) to I-270 (Alum Creek Dr) due to roadwork.,3731.0,Alum Creek Dr,R,Columbus,Franklin,OH,43207-3430,US,US/Eastern,KLCK,2021-12-01 06:55:00,27.0,20.0,94.0,29.35,7.0,NE,6.0,0.0,Fair,False,False,True,False,False,False,False,False,False,False,False,False,False,Night,Day,Day,Day
C-1841497,3,2017-04-01 12:22:22,2017-08-02 05:00:00,42.44156,-96.37516,42.488,-96.39767,3.40765409341,Between US-75/Industrial Road/Exit 143 and Floyd Blvd/Exit 147A - Roadwork. Contraflow. Lane closed.,,I-29 N,R,Sioux City,Woodbury,IA,51111,US,US/Central,KSUX,2017-04-01 12:52:00,50.0,,61.0,30.25,10.0,SE,5.8,,Overcast,False,False,False,False,False,False,False,False,False,False,False,False,False,Day,Day,Day,Day
C-1841498,2,2020-10-21 14:00:00,2020-10-22 06:59:00,42.774056,-73.696578,42.775626,-73.697348,0.1152919085449999,Construction on NY 787 southbound between Saratoga Street; NY 32 (Cohoes) and Tibbits Avenue (Colonie) Cohoes Blvd Corridor Improvements Wednesday October 21st 2020 07:00 AM thru 06:30 PM various lane closure,,Ontario St,R,Cohoes,Albany,NY,12047,US,US/Eastern,KALB,2020-10-21 13:51:00,68.0,68.0,73.0,29.83,10.0,SSE,16.0,0.0,Fair,False,False,True,False,False,False,False,False,False,False,False,True,False,Day,Day,Day,Day
C-1841499,2,2020-05-05 19:04:02,2020-05-09 19:03:34,28.44072,-81.22979000000002,28.4602,-81.232,1.35261910384,At SR-528/Bee Line/Exit 26 - Construction work.,,FL-417 N,R,Orlando,Orange,FL,32832,US,US/Eastern,KMCO,2020-05-05 18:53:00,88.0,88.0,43.0,29.79,10.0,W,12.0,0.0,Fair,False,False,False,False,False,False,False,False,False,False,False,False,False,Day,Day,Day,Day
C-1841500,4,2021-10-17 00:00:00,2021-10-19 23:59:59,42.70590900000001,-71.165712,42.706317,-71.164793,0.0545147134291,Closed road from Broadway to Hampshire St due to roadwork.,492.0,Essex St,L,Lawrence,Essex,MA,01840-1242,US,US/Eastern,KLWM,2021-10-17 00:54:00,60.0,60.0,86.0,29.49,10.0,WNW,8.0,0.01,Light Rain,False,False,False,False,False,False,False,False,False,False,False,True,False,Night,Night,Night,Night
C-1841501,2,2021-11-30 12:58:30,2021-11-30 13:20:00,28.262838,-82.290936,28.272656,-82.282328,0.8570688032279999,Stationary traffic on County Hwy-577 from FL-54 (Curley Rd/CR-577) to Elam Rd (Curley Rd/CR-577) due to roadwork.,7500.0,Curley Rd,R,Wesley Chapel,Pasco,FL,33545,US,US/Eastern,KZPH,2021-11-30 12:55:00,70.0,70.0,33.0,30.01,10.0,NE,3.0,0.0,Fair,False,False,True,False,False,False,False,False,False,False,False,False,False,Day,Day,Day,Day
C-1841502,2,2020-09-21 21:31:00,2020-09-21 22:31:00,43.662855,-116.410229,43.662867,-116.413715,0.174243421223,Stationary traffic on US-20 from N Meridian Rd (US-26/US-20) to N Linder Rd (US-26/US-20) due to roadwork.,1211.0,W Chinden Blvd,R,Meridian,Ada,ID,83646,US,US/Mountain,KMAN,2020-09-21 21:35:00,66.0,66.0,37.0,27.21,10.0,ESE,5.0,0.0,,False,False,True,False,False,False,False,False,False,False,False,True,False,Night,Night,Night,Night
C-1841503,4,2020-09-15 13:59:00,2020-09-16 07:44:00,35.512822,-79.19270300000002,35.51372199999999,-79.196523,0.223658014715,Construction on US-1 SB near US-421 Use alternate exit ramp.,,Sanford Byp,R,Sanford,Lee,NC,27330,US,US/Eastern,KTTA,2020-09-15 13:55:00,74.0,74.0,47.0,29.97,10.0,NE,10.0,0.0,Fair,False,False,False,False,False,False,False,False,False,False,False,False,False,Day,Day,Day,Day
C-1841504,3,2019-12-20 09:00:00,2019-12-20 10:00:00,41.102024,-73.99295,,,3.32999992371,Right lane blocked due to construction work on I-87 Northbound between Exit 12 NY-303 and Exit 13 Palisades Interstate Pkwy.,,I-287 W,R,Nanuet,Rockland,NY,10954,US,US/Eastern,KHPN,2019-12-20 08:56:00,22.0,13.0,66.0,30.01,10.0,WNW,7.0,0.0,Fair,False,False,False,False,True,False,False,False,False,False,False,False,False,Day,Day,Day,Day
C-1841505,3,2019-07-13 08:03:59,2019-07-19 08:00:33,24.712216,-81.090626,24.734458,-81.014076,5.04409479717,Between 36th St and Coco Plum Dr - Construction work. Right lane blocked.,3698.0,Overseas Hwy,R,Marathon,Monroe,FL,33050-2340,US,US/Eastern,KMTH,2019-07-13 07:53:00,85.0,85.0,74.0,30.03,10.0,ESE,9.0,0.0,Fair,False,False,False,False,False,False,False,False,False,False,False,False,False,Day,Day,Day,Day
C-1841506,2,2021-09-21 17:52:44,2021-09-21 19:55:21,36.005538,-80.437846,36.004586,-80.438686,0.0808146687479,Stationary traffic on US-158 W - NC-801 from Medical Dr to NC Highway 801 N due to roadwork.,101.0,Medical Dr,R,Advance,Davie,NC,27006-6651,US,US/Eastern,KINT,2021-09-21 17:54:00,71.0,71.0,90.0,29.07,1.0,E,7.0,0.18,Heavy Rain,False,False,False,False,False,False,False,False,False,False,False,False,False,Day,Day,Day,Day
C-1841507,2,2021-03-05 06:48:30,2021-03-05 12:09:00,36.984856,-120.08715,36.97465800000001,-120.076519,0.916947194226,Slow traffic on CA-99 S from Avenue 17 (CA-99) to Cleveland Ave (CA-99) due to roadwork.,,CA-99 S,R,Madera,Madera,CA,93637,US,US/Pacific,KMAE,2021-03-05 06:53:00,36.0,,97.0,29.95,,,,0.0,Fair,False,False,False,False,True,False,False,False,False,False,False,False,False,Day,Day,Day,Day
C-1841508,2,2019-05-20 19:01:32,2019-05-24 19:01:10,40.171576,-75.044641,40.166545,-75.04607800000002,0.3557924095709999,At Industrial Blvd - Roadwork. Traffic problem.,606.0,2nd Street Pike,L,Southampton,Bucks,PA,18966-3942,US,US/Eastern,KPNE,2019-05-20 18:54:00,86.0,86.0,41.0,29.61,10.0,W,14.0,0.0,Partly Cloudy,False,False,True,False,False,False,False,False,False,False,False,True,False,Day,Day,Day,Day
C-1841509,2,2021-06-23 17:12:48,2021-06-23 19:27:40,26.243295,-80.186284,26.244693,-80.187454,0.120777878317,Stationary traffic from Pompano Sq to Banks Rd due to roadwork.,1170.0,Lyons Rd,R,Pompano Beach,Broward,FL,33066,US,US/Eastern,KFXE,2021-06-23 16:53:00,83.0,83.0,74.0,30.08,10.0,NW,9.0,0.0,Fair,True,False,False,False,False,False,False,False,False,False,False,False,False,Day,Day,Day,Day
C-1841510,2,2021-10-26 03:44:22,2021-11-25 01:58:38,34.468381,-92.532338,34.455181,-92.532476,0.912067019986,Roadwork on Skyeagle (AR-35) from US-16/Sheridan Bypass (North) (AR-35) to AR-35.,10699.0,Parson Rd,L,Benton,Saline,AR,72015,US,US/Central,KLIT,2021-10-26 03:53:00,53.0,53.0,80.0,29.78,10.0,E,8.0,0.0,Fair,False,False,False,False,False,False,False,False,False,False,False,False,False,Night,Night,Night,Night
C-1841511,2,2021-11-01 09:30:00,2021-11-05 05:00:00,33.675054,-112.117208,33.67505,-112.117342,0.00770985361028,ROSS DR - Construction - ASPHALT CONCRETELanesRestricted: EB&amp;#61;1 WB&amp;#61;1ROSS DR at 27TH AVEComments: 150&amp;#39; E/O,,W Ross Dr,R,Phoenix,Maricopa,AZ,85027,US,US/Mountain,KDVT,2021-11-01 09:53:00,71.0,71.0,32.0,28.44,10.0,ESE,5.0,0.0,Fair,False,False,False,False,False,False,False,False,False,True,False,False,False,Day,Day,Day,Day
C-1841512,2,2021-11-12 10:10:00,2021-11-12 10:48:30,29.53472600000001,-95.808317,29.532507,-95.809315,0.164638932711,Slow traffic on TX-36 from Rice St to Houston St due to roadwork.,3236.0,1st St,L,Rosenberg,Fort Bend,TX,77471-5827,US,US/Central,KSGR,2021-11-12 10:11:00,71.0,71.0,63.0,30.07,10.0,CALM,0.0,0.0,Partly Cloudy,False,False,False,False,False,False,False,False,False,False,False,False,False,Day,Day,Day,Day
C-1841513,2,2020-07-08 13:15:00,2020-07-08 22:45:00,47.547109000000006,-116.169211,47.54576,-116.133214,1.6813968585,Construction on I-90 EB near AIRPORT RD Construction. Left lane closed.,,I-90 E,R,Smelterville,Shoshone,ID,83868,US,US/Pacific,KMLP,2020-07-08 12:53:00,48.0,48.0,74.0,24.01,10.0,VAR,3.0,0.0,Cloudy,False,False,False,False,False,False,False,False,False,False,False,False,False,Day,Day,Day,Day
C-1841514,3,2016-06-27 19:00:44,2016-06-28 01:00:44,40.732118,-111.949872,40.66254,-111.95275,4.80974534184,Between UT-201/Magna/21st/Exit 20 and UT-266/4700/Exit 15 - Roadwork.,,I-215 S,R,Salt Lake City,Salt Lake,UT,84104,US,US/Mountain,KSLC,2016-06-27 18:54:00,99.0,,9.0,29.9,10.0,NNW,4.6,,Partly Cloudy,False,False,False,False,True,False,False,False,False,False,False,False,False,Day,Day,Day,Day
C-1841515,2,2021-07-16 23:12:00,2021-12-09 11:29:58,25.781184,-80.314839,25.779954,-80.3152,0.0879027280543,Slow traffic on FL-969 from NW 72nd Ave to Dolphin Expy W due to roadwork.,,NW 11th St,R,Miami,Miami-Dade,FL,33126,US,US/Eastern,KMIA,2021-10-06 16:53:00,85.0,85.0,69.0,29.98,10.0,SE,12.0,0.0,Mostly Cloudy,False,False,False,False,False,False,False,False,False,False,False,False,False,Night,Night,Night,Night
C-1841516,2,2021-05-20 10:22:30,2021-05-20 16:17:23,40.427853000000006,-78.399179,40.428291,-78.389561,0.506766394602,Slow traffic on US-22 E - US-22 W from Old US-220/W Plank Rd (US-22) to PA-36/Penn St (Penn St/Blair St/US-22) due to roadwork.,123.0,Broad St,R,Hollidaysburg,Blair,PA,16648-1454,US,US/Eastern,KAOO,2021-05-20 09:53:00,73.0,73.0,44.0,28.84,10.0,CALM,0.0,0.0,Fair,False,False,True,False,False,False,False,False,False,False,False,True,False,Day,Day,Day,Day
C-1841517,3,2021-12-10 09:00:00,2021-12-10 15:00:00,41.878811,-70.923698,,,0.1400000005959999,Road closed due to construction work on MA-105 Main St Northbound from Riverside Dr to MA-79.,,MA-79,R,Lakeville,Plymouth,MA,02347,US,US/Eastern,KTAN,2021-12-10 08:52:00,34.0,29.0,75.0,30.17,10.0,ESE,6.0,0.0,Cloudy,False,False,True,False,False,False,False,False,False,False,False,True,False,Day,Day,Day,Day
C-1841518,2,2021-07-28 16:42:05,2021-07-28 17:15:57,44.984861,-93.272969,44.982938,-93.267897,0.281234407206,Slow traffic on County Hwy-152 from 5th Ave N to N 2nd St due to roadwork.,314.0,Washington Ave N,R,Minneapolis,Hennepin,MN,55401-1315,US,US/Central,KMIC,2021-07-28 16:53:00,89.0,89.0,59.0,28.92,10.0,SSW,9.0,0.0,Fair,True,False,True,False,False,False,False,False,False,False,False,True,False,Day,Day,Day,Day
C-1841519,2,2020-11-02 17:00:00,2020-11-02 23:30:00,38.949006,-77.33280500000002,38.949169,-77.332723,0.0120934886111,On Rt. 675 (Sunset Hills Rd) in the County of Fairfax at Michael Faraday Ct; Rt. 6331N/S (Fairfax County) motorists can expect potential delays in this area from 11/02/20 at 9:00 AM until 11/02/20 at 3:30 PM due to maintenance activities. The east right lane and right shoulder are closed.,1806.0,Michael Faraday Dr,R,Reston,Fairfax County,VA,20190-5304,US,US/Eastern,KIAD,2020-11-02 16:52:00,46.0,41.0,33.0,29.75,10.0,W,9.0,0.0,Fair,False,False,True,False,False,False,False,False,False,False,False,True,False,Day,Day,Day,Day
C-1841520,2,2021-05-03 05:39:00,2021-05-03 16:46:32,33.469906,-111.926208,33.465058,-111.926325,0.335032773167,Slow traffic from Thomas Rd (N Scottsdale Rd) to McKellips Rd (N Scottsdale Rd) due to roadwork.,2038.0,N Scottsdale Rd,R,Scottsdale,Maricopa,AZ,85257-2121,US,US/Mountain,KPHX,2021-05-03 05:51:00,68.0,68.0,28.0,28.46,10.0,E,7.0,0.0,Fair,False,False,False,False,False,False,False,False,True,False,False,False,False,Day,Day,Day,Day
C-1841521,2,2020-03-01 05:01:00,2020-03-02 09:01:00,34.04695,-118.44657,34.06195,-118.4571,1.19894717133,Between Santa Monica Blvd Route 2 and Waterford St - Maintenance work. Lane closed.,,I-405 N,R,Los Angeles,Los Angeles,CA,90025,US,US/Pacific,KSMO,2020-03-01 04:51:00,56.0,56.0,77.0,29.78,10.0,WSW,3.0,0.0,Mostly Cloudy,False,False,False,False,False,False,False,False,False,False,False,False,False,Night,Night,Night,Day
C-1841522,2,2021-11-22 10:27:30,2021-11-22 10:48:00,40.4125,-79.94506700000002,40.40860900000001,-79.943714,0.2781058851949999,Slow traffic on PA-885 from Hot Metal St (2nd Ave/PA-885) to Glenwood Bridge (2nd Ave/PA-885) due to roadwork.,200.0,Minden St,R,Pittsburgh,Allegheny,PA,15207,US,US/Eastern,KAGC,2021-11-22 10:53:00,35.0,27.0,54.0,28.68,10.0,NNW,10.0,0.0,Partly Cloudy,False,False,False,False,False,False,False,False,False,False,False,True,False,Day,Day,Day,Day
C-1841523,2,2021-02-02 14:44:00,2021-02-03 00:00:11,33.421825,-111.788081,33.422647999999995,-111.788845,0.0719348414373999,Stationary traffic from E Rancho Palos Verde to N Hall due to roadwork.,341.0,N Gilbert Rd,L,Mesa,Maricopa,AZ,85203-8220,US,US/Mountain,KFFZ,2021-02-02 14:51:00,81.0,81.0,19.0,28.76,10.0,CALM,0.0,0.0,Partly Cloudy,False,False,False,False,False,False,False,False,False,False,False,False,False,Day,Day,Day,Day
C-1841524,2,2021-12-30 12:49:30,2021-12-30 13:25:30,47.783003,-121.039303,47.769917,-120.999553,2.05525594353,Slow traffic on US-2 W - US-2 E from NFD-6700 (US-2) to White Pine Rd (US-2) due to roadwork.,29987.0,US Highway 2,R,Leavenworth,Chelan,WA,98826,US,US/Pacific,KEAT,2021-12-30 12:55:00,15.0,8.0,80.0,28.37,10.0,W,5.0,0.0,Cloudy,False,False,False,False,False,False,False,False,False,False,False,False,False,Day,Day,Day,Day
C-1841525,2,2021-09-24 14:49:39,2021-09-24 15:12:44,34.295196999999995,-81.542589,34.296784,-81.536406,0.36957120534,Stationary traffic on SC-219 from I-26 (SC-219) to US-176 (SC-219) due to roadwork.,5613.0,SC Highway 219,L,Newberry,Newberry,SC,29108-9360,US,US/Eastern,KEOE,2021-09-24 14:55:00,73.0,73.0,36.0,29.51,10.0,NNE,7.0,0.0,Fair,False,False,False,False,False,False,False,False,False,False,False,False,False,Day,Day,Day,Day
C-1841527,4,2021-10-22 05:41:48,2021-10-29 23:59:00,42.804663,-71.097077,42.807028,-71.094217,0.218448419908,Closed road from Main St to Kimberly Way due to roadwork.,19.0,Talmuth Ave,R,Haverhill,Essex,MA,01830-1420,US,US/Eastern,KLWM,2021-10-22 05:29:00,60.0,60.0,93.0,29.59,10.0,SW,8.0,0.0,Mostly Cloudy,False,False,False,False,False,False,False,False,False,False,False,False,False,Night,Night,Night,Day
C-1841528,2,2021-02-04 13:28:00,2021-02-04 23:37:52,41.733622,-87.795199,41.733531,-87.80001,0.248138877364,Slow traffic from State Rd/Ridgeland Ave (W 87th St) to S Roberts Rd (W 87th St) due to roadwork.,7018.0,W 87th St,R,Burbank,Cook,IL,60459-2246,US,US/Central,KMDW,2021-02-04 13:21:00,34.0,23.0,82.0,28.83,0.5,S,17.0,0.02,Snow,False,False,False,False,False,False,False,False,True,False,False,False,False,Day,Day,Day,Day
C-1841529,2,2020-10-22 14:05:30,2020-10-22 22:15:39,43.604954,-116.35308,43.604037,-116.354845,0.108684330616,Slow traffic on ID-55 from S Brooklyn Ave to E Springwood Dr due to roadwork.,3323.0,E Franklin Rd,R,Meridian,Ada,ID,83642-6008,US,US/Mountain,KMAN,2020-10-22 13:55:00,50.0,50.0,30.0,27.57,10.0,NW,10.0,0.0,Fair,False,False,False,False,False,False,False,False,False,False,False,False,False,Day,Day,Day,Day
C-1841530,2,2021-03-22 04:07:30,2021-03-22 04:47:30,33.87112800000001,-118.006702,33.879183000000005,-118.01961599999998,0.926579035271,Stationary traffic on I-5 N - Santa Ana Fwy N from CA-39/Beach Blvd (I-5) to Valley View Ave (I-5) due to roadwork.,,I-5 N,R,Buena Park,Orange,CA,90621,US,US/Pacific,KFUL,2021-03-22 03:53:00,51.0,51.0,66.0,29.99,10.0,CALM,0.0,0.0,Fair,False,False,False,False,False,False,False,False,False,False,False,False,False,Night,Night,Night,Night
C-1841531,2,2021-03-19 07:06:30,2021-03-19 17:46:43,33.509232,-112.059137,33.508503999999995,-112.06501000000002,0.342062730449,Slow traffic from N 11th St to E Pierson St due to roadwork.,1051.0,E Camelback Rd,R,Phoenix,Maricopa,AZ,85014-3229,US,US/Mountain,KPHX,2021-03-19 06:51:00,56.0,56.0,36.0,28.85,10.0,SE,5.0,0.0,Fair,False,False,False,False,False,False,False,False,False,False,False,False,False,Day,Day,Day,Day
C-1841532,4,2019-04-01 04:08:26,2019-04-01 06:08:20,44.94496,-122.99015,44.951779,-122.99003,0.471184569178,At OR-213/Market St/Exit 256 - Maintenance work.,,I-5 N,R,Salem,Marion,OR,97301,US,US/Pacific,KSLE,2019-04-01 03:56:00,52.0,52.0,71.0,29.81,10.0,CALM,0.0,0.0,Cloudy,False,False,False,False,True,False,False,False,False,False,False,False,False,Night,Night,Night,Night
C-1841533,2,2019-03-19 22:02:53,2019-03-24 22:01:13,40.744047,-74.008561,40.72587,-74.0112,1.26348798427,Between 11th Ave and Canal St - Construction work.,49.0,11th Ave,R,New York,New York,NY,10011-2829,US,US/Eastern,KNYC,2019-03-20 04:51:00,37.9,35.5,68.0,30.39,10.0,WNW,3.5,,Clear,True,False,True,False,False,False,False,False,False,False,False,True,False,Night,Night,Night,Night
C-1841534,4,2018-10-20 03:03:42,2018-10-20 08:01:05,42.848492,-78.861491,42.88016,-78.87876,2.35635613848,Closed between Fuhrmann Blvd/Tifft St and I-190/New York State Thruway - Closed due to roadwork.,,Buffalo Skwy N,R,Buffalo,Erie,NY,14203,US,US/Eastern,KBUF,2018-10-20 03:01:00,48.0,,89.0,29.63,2.5,SW,23.0,0.01,Light Rain,False,False,False,False,False,False,False,False,False,False,False,False,False,Night,Night,Night,Night
C-1841535,2,2021-08-14 14:25:11,2021-08-14 14:37:11,40.766633,-74.021847,40.756447,-73.995761,1.53591013757,Slow traffic on NY-495 E - NJ-495 E from Toll Plaza (NJ-495) to 35th St/36th St (NY-495) due to roadwork.,,Boulevard E,R,Weehawken,Hudson,NJ,07086,US,US/Eastern,KNYC,2021-08-14 14:51:00,86.0,,57.0,29.96,10.0,,,0.0,Fair,False,False,False,False,False,False,False,False,False,False,False,False,False,Day,Day,Day,Day
C-1841536,2,2020-03-25 21:28:46,2020-03-26 21:58:46,29.44028,-98.39266,29.44028,-98.39266,0.0,At I-10/US-90/Exit 33 - Construction work.,,I-410 S,R,San Antonio,Bexar,TX,78219,US,US/Central,KSAT,2020-03-25 21:51:00,75.0,75.0,76.0,29.02,10.0,ESE,5.0,0.0,Fair,False,False,False,False,True,False,False,False,False,False,False,False,False,Night,Night,Night,Night
C-1841537,2,2021-12-29 09:30:00,2021-12-29 15:30:00,38.811651,-77.196239,38.811713,-77.19413399999998,0.113410547912,On Rt. 620 (Braddock Rd) in the County of Fairfax from Ferndale St; Rt. 2858N/S (Fairfax County) to Woodland Dr; Rt. 822N/S (Fairfax County) motorists can expect potential delays in this area from 12/29/21 at 9:30 AM until 12/29/21 at 3:30 PM due to maintenance activities. All east lanes are alternating closures. All west lanes are alternating closures.,5100.0,Ferndale St,L,Springfield,Fairfax County,VA,22151-3011,US,US/Eastern,KDAA,2021-12-29 09:56:00,51.0,51.0,73.0,29.8,10.0,CALM,0.0,0.0,Cloudy,False,False,False,False,False,False,False,False,False,False,False,False,False,Day,Day,Day,Day
C-1841538,2,2021-09-29 15:02:30,2021-09-29 17:04:44,25.942311,-80.182163,25.94162,-80.18719,0.315962530686,Slow traffic on FL-860 from 10th Ave (FL-860) to I-95/FL-915/6th Ave (FL-860) due to roadwork.,925.0,NE Miami Gardens Dr,R,Miami,Miami-Dade,FL,33162,US,US/Eastern,KHWO,2021-09-29 14:53:00,87.0,87.0,55.0,29.95,10.0,ENE,12.0,0.0,Partly Cloudy,False,False,False,False,False,False,False,False,True,False,False,False,False,Day,Day,Day,Day
C-1841539,2,2019-08-29 20:03:25,2019-09-04 18:02:14,41.749429,-72.711701,41.750312,-72.711069,0.0691628214105,At New Park Ave - Construction work.,241.0,New Park Ave,R,Hartford,Hartford,CT,06106-2949,US,US/Eastern,KHFD,2019-08-31 17:53:00,76.0,76.0,38.0,30.2,10.0,N,10.0,0.0,Fair,False,False,False,False,False,False,False,False,False,False,False,False,False,Night,Night,Day,Day
C-1841540,2,2017-04-29 07:01:37,2017-04-29 13:01:37,42.60489000000001,-83.20851,42.60894,-83.20869,0.2799780259209999,At I-75/Square Lake Rd - Construction work.,2998.0,W Square Lake Rd,R,Troy,Oakland,MI,48098-5723,US,US/Eastern,KVLL,2017-04-29 06:54:00,44.6,41.4,64.0,30.1,10.0,NNE,5.8,,Overcast,False,False,False,False,False,False,False,False,False,False,False,True,False,Day,Day,Day,Day
C-1841541,4,2021-12-22 00:00:00,2021-12-23 00:44:00,38.491843,-92.570965,38.49359000000001,-92.571284,0.121932713234,Construction on MO-87 NB near MO-C Road closed. Take alternate route.,39701.0,Highway 87,R,Russellville,Moniteau,MO,65074-3102,US,US/Central,KJEF,2021-12-22 00:53:00,31.0,31.0,69.0,29.47,10.0,CALM,0.0,0.0,Fair,False,False,False,False,False,False,False,False,False,False,False,False,False,Night,Night,Night,Night
C-1841542,2,2021-06-30 16:04:24,2021-06-30 16:38:43,39.27440900000001,-76.98654300000003,39.282706,-76.973276,0.912207370828,Slow traffic on MD-32 from Burntwoods Rd (MD-32) to MD-144/Frederick Rd (MD-32) due to roadwork.,3545.0,State Route 32,R,West Friendship,Howard,MD,21794,US,US/Eastern,KGAI,2021-06-30 15:56:00,96.0,96.0,44.0,29.42,10.0,W,8.0,0.0,Partly Cloudy,False,False,False,False,False,False,False,False,False,False,False,False,False,Day,Day,Day,Day
C-1841543,2,2021-06-30 15:20:27,2021-06-30 15:43:00,34.831865,-91.37393,34.837337,-91.344126,1.73201864623,Slow traffic on US-70 W - US-70 E from Prairie--Monroe County Border (US-70) to AR-17 (US-70) due to roadwork.,122.0,Highway 70,L,Brinkley,Monroe,AR,72021,US,US/Central,KSGT,2021-06-30 14:56:00,91.0,91.0,52.0,29.83,10.0,WSW,7.0,0.0,Fair,False,False,False,False,False,False,False,False,False,False,False,False,False,Day,Day,Day,Day
C-1841544,2,2019-10-23 09:10:21,2019-10-27 09:12:36,40.19663,-75.20934,40.20047,-75.21568,0.427017947823,At PA-309/Bethlehem Pike - Roadwork. Open.,798.0,W Welsh Rd,L,Ambler,Montgomery,PA,19002,US,US/Eastern,KLOM,2019-10-23 09:15:00,55.0,55.0,87.0,29.66,10.0,W,6.0,0.0,Fair,False,False,False,False,False,False,False,False,False,False,False,True,False,Day,Day,Day,Day
C-1841545,2,2021-05-14 05:36:00,2021-12-06 15:29:00,39.737666,-105.053222,39.740413,-105.053974,0.193959330198,Slow traffic on US-40 W - CO-95 - I-70 Bus W from Sheridan Blvd / W 12th Ave to N Ames St due to roadwork.,1352.0,N Sheridan Blvd,R,Denver,Denver,CO,80214-3009,US,US/Mountain,KBJC,2021-05-14 05:35:00,46.0,41.0,76.0,24.5,10.0,N,10.0,0.0,Fair,False,False,False,False,False,False,False,False,False,False,False,False,False,Night,Day,Day,Day
C-1841546,3,2019-04-01 11:20:08,2019-04-05 11:20:02,41.924981,-71.88474000000002,41.89702,-71.89856999999998,2.05864062566,Between US-44/Exit 97 and Kennedy Dr/Exit 95 - Construction work.,,I-395 S,R,Putnam,Windham,CT,06260,US,US/Eastern,KIJD,2019-04-01 10:52:00,38.0,29.0,43.0,29.83,10.0,NW,17.0,0.0,Fair,False,False,False,False,False,False,False,False,False,False,False,False,False,Day,Day,Day,Day
C-1841547,4,2021-05-20 00:00:00,2021-06-18 00:45:00,39.765646,-104.910578,39.761971,-104.910558,0.253920538656,Construction on N NIAGARA ST SB near E MARTIN LUTHER KING BLVD Expect delays.,6701.0,E 35th Ave,L,Denver,Denver,CO,80207,US,US/Mountain,KBKF,2021-05-20 00:58:00,54.0,54.0,72.0,24.22,10.0,S,12.0,0.0,Fair,False,False,False,False,False,False,False,False,False,False,False,False,False,Night,Night,Night,Night
C-1841548,2,2020-04-12 06:29:39,2020-04-13 06:29:39,42.52318,-87.90342,42.52563,-87.9368,1.70815563743,Between WI-31/Green Bay Rd and I-94/I-41 - Roadwork. Right lane closed.,,80th Ave,R,Pleasant Prairie,Kenosha,WI,53158,US,US/Central,KENW,2020-04-12 06:53:00,47.0,44.0,90.0,28.92,5.0,E,6.0,0.0,Cloudy,False,False,False,False,False,False,False,False,False,False,False,False,False,Day,Day,Day,Day
C-1841549,2,2020-05-18 20:00:00,2020-05-19 05:00:00,39.81286,-104.98305,39.81286,-104.98305,0.0,At I-76/Exit 216 - Construction work.,,I-25 N,R,Denver,Adams,CO,80221,US,US/Mountain,KBJC,2020-05-18 20:45:00,72.0,72.0,33.0,24.31,10.0,WNW,3.0,0.0,Partly Cloudy,False,False,False,False,False,False,False,False,False,False,False,False,False,Day,Day,Day,Day
C-1841550,2,2019-04-02 10:00:00,2019-04-02 14:00:00,40.91597,-73.812042,,,6.0,Intermittent lane closures due to bridge maintenance work on Hutchinson River Pkwy both ways between Exit 7 US-1 Boston Post Rd and Exit 12 First Ave.,,Hutchinson River Pkwy S,R,Mount Vernon,Westchester,NY,10553,US,US/Eastern,KLGA,2019-04-02 09:51:00,46.0,40.0,44.0,30.39,10.0,SSE,15.0,0.0,Mostly Cloudy,False,False,False,False,True,False,False,False,False,False,False,False,False,Day,Day,Day,Day
C-1841551,4,2020-06-14 10:25:13,2020-06-14 12:23:50,29.67769,-95.2697,29.68505,-95.27706,0.6736407946490001,Between TX-3/Monroe Rd/Exit 38 and Broadway/Park Place Blvd/Exit 39 - Roadwork.,,I-45 N,R,Houston,Harris,TX,77017,US,US/Central,KHOU,2020-06-14 10:53:00,86.0,86.0,48.0,30.01,10.0,E,8.0,0.0,Fair,False,False,False,False,False,False,False,False,False,False,False,False,False,Day,Day,Day,Day
C-1841552,2,2021-09-11 13:00:00,2021-09-11 13:27:00,39.768466,-105.025315,39.754834,-105.025289,0.941882507622,Stationary traffic on US-287 S from W 38th Ave (Federal Blvd/US-287) to W 26th Ave (Federal Blvd/US-287) due to roadwork.,3755.0,N Federal Blvd,R,Denver,Denver,CO,80211-2857,US,US/Mountain,KBJC,2021-09-11 12:59:00,90.0,90.0,15.0,24.49,10.0,ESE,9.0,0.0,Partly Cloudy,True,False,True,False,False,False,False,False,False,True,False,True,False,Day,Day,Day,Day
C-1841553,2,2021-03-01 14:58:23,2021-03-01 17:00:54,47.68258400000001,-122.321509,47.677388,-122.32066100000002,0.361170154816,Roadwork on 85th St/Exit 172 (I-5 Exp) from WA-522/73rd St/Exit 171 (I-5 Exp) to I-5 N - I-5 S.,,I-5 N,R,Seattle,King,WA,98115,US,US/Pacific,KBFI,2021-03-01 14:53:00,57.0,57.0,47.0,30.03,10.0,S,7.0,0.0,Partly Cloudy,False,False,False,False,True,False,False,False,False,False,False,False,False,Day,Day,Day,Day
C-1841554,4,2018-10-25 21:00:00,2018-10-26 05:00:00,40.11214,-83.042248,40.11214,-83.04238199999998,0.00708077497537,Closed at Sr 315 - Closed due to roadwork.,,Linworth Rd,R,Columbus,Franklin,OH,43235,US,US/Eastern,KOSU,2018-10-25 20:53:00,42.8,40.1,76.0,30.07,10.0,East,4.6,,Clear,False,False,False,False,False,False,False,False,False,False,False,False,False,Night,Night,Night,Night
C-1841555,2,2020-11-13 14:30:00,2020-11-14 01:51:54,30.443964,-91.163023,30.444174,-91.154442,0.511351258918,Stationary traffic on LA-73 from S 22nd St (Government St) to S Acadian Trwy (Government St) due to roadwork.,2340.0,Government St,R,Baton Rouge,East Baton Rouge,LA,70806-5315,US,US/Central,KBTR,2020-11-13 14:53:00,83.0,83.0,28.0,30.01,10.0,NE,5.0,0.0,Fair,False,False,False,False,False,False,False,False,False,False,False,False,False,Day,Day,Day,Day
C-1841556,2,2021-02-17 12:13:20,2021-02-17 16:15:51,30.751687,-93.024255,30.764517,-93.020965,0.907736113587,Roadwork on Ebbie Perkins Rd from Friendly Ln to LA-113.,5081.0,Highway 113,R,Deridder,Beauregard,LA,70634-8118,US,US/Central,KDRI,2021-02-17 11:35:00,32.0,32.0,96.0,29.78,2.0,NNE,3.0,0.0,Light Snow,False,False,False,False,False,False,False,False,False,False,False,False,False,Day,Day,Day,Day
C-1841557,2,2021-11-19 16:10:30,2021-11-19 18:15:11,41.929971,-87.843856,41.929126,-87.84591,0.120649455235,Stationary traffic from Indian Boundary Rd to Richard St due to roadwork.,2700.0,Indian Boundary Rd,R,River Grove,Cook,IL,60171,US,US/Central,KORD,2021-11-19 15:51:00,38.0,31.0,48.0,29.63,10.0,S,9.0,0.0,Mostly Cloudy,False,False,False,False,False,False,False,False,True,False,False,False,False,Day,Day,Day,Day
C-1841558,2,2020-11-25 04:03:30,2020-11-25 04:27:00,40.790866,-73.972695,40.791506,-73.97420799999998,0.0906609202571,Slow traffic from Amsterdam Ave to Broadway due to roadwork.,699.0,Amsterdam Ave,R,New York,New York,NY,10024-1800,US,US/Eastern,KNYC,2020-11-25 03:51:00,45.0,43.0,53.0,30.26,10.0,SE,5.0,0.0,Cloudy,True,False,True,False,False,False,False,False,True,False,False,True,False,Night,Night,Night,Night
C-1841559,2,2021-06-04 14:46:45,2021-06-04 17:03:52,25.883551,-80.21345500000002,25.883047,-80.210559,0.183359192239,Slow traffic on FL-924 - US-441 S from NW 10th Ave to NW 118th St due to roadwork.,886.0,NW 119th St,L,Miami,Miami-Dade,FL,33168-2339,US,US/Eastern,KOPF,2021-06-04 14:53:00,88.0,88.0,57.0,30.02,10.0,ESE,14.0,0.0,Fair,False,False,False,False,False,False,False,False,False,False,False,False,False,Day,Day,Day,Day
C-1841560,2,2020-11-09 14:52:00,2020-11-10 00:55:23,40.713813,-73.920604,40.713844,-73.91513499999998,0.286426199402,Slow traffic from Woodward Ave to 53rd St due to roadwork.,4703.0,Metropolitan Ave,L,Ridgewood,Queens,NY,11385-1046,US,US/Eastern,KLGA,2020-11-09 14:51:00,77.0,77.0,25.0,30.23,10.0,SSW,7.0,0.0,Fair,True,False,False,False,False,False,False,False,True,True,False,True,False,Day,Day,Day,Day
C-1841561,2,2020-10-19 21:11:00,2020-10-19 23:41:30,40.231429,-76.318727,40.226149,-76.30242700000002,0.934029962618,Queuing traffic on US-322 from Speedwell Forge Rd (W 28th Division Hwy/US-322) to PA-501/Furnace Hills Pike (28th Division Hwy/US-322) due to roadwork.,398.0,Park Ave,L,Lititz,Lancaster,PA,17543-9553,US,US/Eastern,KLNS,2020-10-19 20:53:00,60.0,60.0,75.0,29.8,10.0,ESE,5.0,0.0,Fair,False,False,False,False,False,False,False,False,False,False,False,True,False,Night,Night,Night,Night
C-1841562,3,2018-11-29 20:00:00,2018-11-30 06:00:00,39.113106,-75.537308,,,1.78999996185,Road closed due to construction work on US-13 Dupont Hwy both ways from Voshells Mill Star Hill Rd to DE-10 Camden Wyoming Ave.,,W Lebanon Rd,R,Camden Wyoming,Kent,DE,19934,US,US/Eastern,KDOV,2018-11-29 19:56:00,35.4,29.0,64.0,30.07,10.0,West,8.1,,Clear,False,False,False,False,False,False,False,False,False,False,False,True,False,Night,Night,Night,Night
C-1841563,2,2020-06-24 20:12:41,2020-06-25 06:00:00,41.03351,-74.421,40.98776,-74.32723,5.82179729372,Between CR-695/Echo Lake Rd and I-287 - Construction work.,2499.0,State Highway 23,R,Newfoundland,Passaic,NJ,07435,US,US/Eastern,KCDW,2020-06-24 19:53:00,84.0,84.0,34.0,29.6,10.0,WNW,6.0,0.0,Fair,False,False,False,False,True,False,False,False,False,False,False,True,False,Day,Day,Day,Day
C-1841564,3,2017-10-16 22:00:00,2017-10-17 06:00:00,41.116394,-74.113045,,,10.779999733,Intermittent lane closures due to bridge maintenance work on I-87 I-287 Northbound between Exits 13N 13S Palisades Interstate Pkwy and Exit 14B County Hwy-89 Airmont Rd.,,I-87 S,R,Suffern,Rockland,NY,10901,US,US/Eastern,KCDW,2017-10-16 21:53:00,48.0,,58.0,30.23,10.0,Variable,6.9,,Clear,False,False,False,False,False,False,False,False,False,False,False,False,False,Night,Night,Night,Night
C-1841565,2,2021-06-18 16:28:00,2021-09-17 12:05:30,39.740051,-104.983392,39.740136,-104.987391,0.212546222275,Slow traffic on US-40 W - I-70 Bus W - US-287 N from Ogden St (Colfax Ave) to Broadway (Colfax Ave) due to roadwork.,257.0,E Colfax Ave,L,Denver,Denver,CO,80203-1715,US,US/Mountain,KBKF,2021-06-18 15:58:00,87.0,87.0,22.0,24.43,10.0,CALM,0.0,0.0,Mostly Cloudy,True,False,True,False,False,False,False,False,True,False,False,True,False,Day,Day,Day,Day
C-1841566,2,2021-07-07 09:12:44,2021-11-17 09:52:03,39.16167700000001,-76.793961,39.162603,-76.793258,0.0742420804704,Construction on US-1 EB near WASHINGTON BLVD Drive with caution. Expect delays.,8215.0,Washington Blvd,L,Jessup,Howard,MD,20794-9466,US,US/Eastern,KFME,2021-07-07 09:15:00,81.0,81.0,79.0,29.87,10.0,CALM,0.0,,Fair,False,False,False,False,False,False,False,False,False,False,False,True,False,Day,Day,Day,Day
C-1841567,2,2021-04-22 00:00:00,2021-10-16 00:45:00,46.821654,-100.856821,46.826262,-100.891207,1.6565384228600002,Concrete Pavement Repair Concrete Grinding and downtown work; lane closures or intersection flaggers may be present.,2563.0,Memorial Hwy,R,Mandan,Morton,ND,58554-4630,US,US/Central,KY19,2021-04-22 00:15:00,36.0,28.0,48.0,27.9,10.0,WSW,10.0,0.0,Fair,False,False,False,False,False,False,False,False,False,False,False,False,False,Night,Night,Night,Night
C-1841568,2,2021-03-21 06:50:00,2021-03-21 13:15:01,39.738476,-105.05321200000002,39.740414,-105.0538,0.137499065175,Slow traffic on US-40 W - CO-95 - I-70 Bus W from W 14th Ave to N Ames St due to roadwork.,5200.0,W 14th Ave,L,Denver,Jefferson,CO,80214,US,US/Mountain,KBJC,2021-03-21 06:48:00,46.0,38.0,34.0,24.25,60.0,W,23.0,0.0,Partly Cloudy / Windy,False,False,True,False,False,False,False,False,True,False,False,True,False,Night,Day,Day,Day
C-1841569,2,2018-10-31 04:19:22,2018-11-23 17:00:00,33.21347,-97.130257,,,0.0,Long-term construction and construction work on Mulberry St both ways between Bell Ave and Industrial St.,213.0,E Mulberry St,L,Denton,Denton,TX,76201-4256,US,US/Central,KDTO,2018-10-31 03:53:00,59.0,,81.0,29.88,10.0,NNW,6.9,,Overcast,True,False,True,False,False,False,False,False,False,False,False,False,False,Night,Night,Night,Night
C-1841570,4,2020-09-03 01:01:00,2020-09-03 14:46:00,34.031135,-117.628448,34.031026000000004,-117.62942,0.0561640202586,Construction on CA-60 WB near GROVE AVE Take alternate route.,2399.0,S Grove Ave,L,Ontario,San Bernardino,CA,91761-5660,US,US/Pacific,KONT,2020-09-03 00:53:00,70.0,70.0,65.0,28.95,10.0,WSW,6.0,0.0,Fair,False,False,False,False,False,False,False,False,False,False,False,True,False,Night,Night,Night,Night
C-1841571,3,2020-04-14 07:00:00,2020-05-15 17:00:00,38.88762,-76.9615,38.90035,-76.94611,1.20771188817,Between Pennsylvania Ave and Burroughs Ave - Construction work.,,Anacostia Fwy N,R,Washington,District of Columbia,DC,20019,US,US/Eastern,KWBC,2020-04-14 06:56:00,46.0,41.0,48.0,29.81,10.0,NW,12.0,0.0,Cloudy,False,False,False,False,True,False,False,False,False,False,False,False,False,Day,Day,Day,Day
C-1841572,2,2021-03-15 14:55:00,2021-03-19 23:59:00,28.999229,-81.310959,,,0.0,Intermittent lane closures due to paving repairs on FL-15A both ways at Adelle Ave.,1605.0,S State Road 15A,R,Deland,Volusia,FL,32720-7745,US,US/Eastern,KDED,2021-03-15 14:55:00,83.0,83.0,49.0,30.03,10.0,E,8.0,0.0,Mostly Cloudy,False,False,False,False,False,False,False,False,False,False,False,False,False,Day,Day,Day,Day
C-1841573,2,2021-02-18 10:17:31,2021-02-18 16:13:37,33.278564,-91.925013,33.274131,-91.924781,0.306584167603,Roadwork on County Road 94 from Bobby Craig Rd to AR-133.,2998.0,Highway 133 N,R,Hamburg,Ashley,AR,71646,US,US/Central,KLLQ,2021-02-18 09:53:00,24.0,17.0,81.0,30.03,10.0,VAR,6.0,0.0,Cloudy,False,False,False,False,False,False,False,False,False,False,False,False,False,Day,Day,Day,Day
C-1841574,2,2017-03-15 10:30:09,2017-03-15 15:00:00,40.263676,-75.624954,,,0.0,Intermittent lane closures due to construction on Buchert Road in Pottstown.,121.0,Buchert Rd,L,Pottstown,Montgomery,PA,19464-1037,US,US/Eastern,KPTW,2017-03-15 10:54:00,21.0,8.1,60.0,29.72,9.0,WNW,13.8,,Overcast,False,False,False,False,False,False,False,False,False,False,False,False,False,Day,Day,Day,Day
C-1841575,2,2019-06-04 13:17:21,2019-06-08 13:19:49,40.02938,-76.55034,39.98409,-76.72865300000002,9.94222247632,Between PA-441 and I-83 - Roadwork. Open.,,US-30 W,R,Wrightsville,York,PA,17368,US,US/Eastern,KLNS,2019-06-04 12:53:00,68.0,68.0,39.0,29.7,10.0,WSW,10.0,0.0,Fair,False,False,False,False,False,False,False,False,False,False,False,False,False,Day,Day,Day,Day
C-1841576,4,2019-11-10 00:02:48,2019-11-10 05:02:24,34.02987,-84.04824,34.02987,-84.04824,0.0,At GA-317/Exit 111 - Exit ramp closed. Construction work.,,Lawrenceville Suwanee Rd,R,Suwanee,Gwinnett,GA,30024,US,US/Eastern,KLZU,2019-11-10 00:56:00,34.0,34.0,100.0,29.07,8.0,CALM,0.0,0.0,Fair,False,False,True,False,False,False,False,False,False,False,False,False,False,Night,Night,Night,Night
C-1841577,2,2021-12-18 14:05:30,2021-12-18 16:08:34,33.523974,-112.136084,33.524573,-112.134264,0.1127057042599999,Stationary traffic from N 36th Ave to W Rovey Ave due to roadwork.,3598.0,W Bethany Home Rd,R,Phoenix,Maricopa,AZ,85019-1940,US,US/Mountain,KGEU,2021-12-18 13:58:00,66.0,66.0,12.0,28.93,10.0,NNE,9.0,0.0,Fair,False,False,False,False,False,False,False,False,False,True,False,False,False,Day,Day,Day,Day
C-1841578,4,2021-08-03 09:00:00,2021-08-03 14:45:00,43.192459,-88.124309,43.189379,-88.117159,0.418347621751,Construction on I-41 SB near COUNTY Q Take alternate route.,,N96W17151 County Line Rd,R,Germantown,Washington,WI,53022,US,US/Central,KMWC,2021-08-03 08:45:00,70.0,70.0,56.0,29.32,10.0,W,6.0,0.0,Fair,False,False,True,False,True,False,False,False,False,False,False,True,False,Day,Day,Day,Day
C-1841579,2,2021-03-11 11:30:30,2021-03-11 12:16:00,42.552694,-88.86519,42.557756,-88.865146,0.349758059101,Stationary traffic on WI-140 from E Lake Shore Rd to Milwaukee Rd due to roadwork.,108.0,Church St,L,Clinton,Rock,WI,53525,US,US/Central,KJVL,2021-03-11 11:45:00,45.0,37.0,66.0,29.17,10.0,W,17.0,0.0,Mostly Cloudy,False,False,False,False,False,False,False,False,False,False,False,False,False,Day,Day,Day,Day
C-1841580,2,2020-10-08 15:04:28,2020-10-09 08:55:17,27.784151,-97.571564,27.784141,-97.572508,0.057708627292,Roadwork on TX-44 from FM-2292/Clarkwood Rd (TX-44) to CR-61 (TX-44).,,Highway 44,R,Robstown,Nueces,TX,78380,US,US/Central,KRBO,2020-10-08 14:55:00,90.0,90.0,50.0,29.79,10.0,NNE,13.0,0.0,Partly Cloudy,False,False,False,False,False,False,False,False,False,False,False,False,False,Day,Day,Day,Day
C-1841581,2,2021-07-09 04:35:30,2021-07-09 04:49:00,42.050873,-122.607421,42.095052,-122.60549,3.05408434945,Slow traffic on Pacific Highway 1 N - I-5 N - OR-99 N from OR-99/Exit 1 (I-5) to OR-99/Exit 11 (I-5) due to roadwork.,,I-5 N,R,Ashland,Jackson,OR,97520,US,US/Pacific,KMFR,2021-07-09 04:53:00,62.0,62.0,58.0,28.61,10.0,N,5.0,0.0,Fair,False,False,False,False,False,False,False,False,False,False,False,False,False,Night,Night,Day,Day
C-1841582,3,2020-05-17 05:48:34,2020-05-18 05:48:34,42.41994,-83.26641,42.41649,-83.25761999999997,0.507784503131,At Lasher Rd - Construction work. Two lanes blocked.,22775.0,Grand River Ave,R,Detroit,Wayne,MI,48219-3113,US,US/Eastern,KVLL,2020-05-17 05:55:00,53.0,53.0,82.0,29.34,10.0,NE,7.0,0.0,Partly Cloudy,False,False,True,False,False,False,False,False,False,False,False,True,False,Night,Day,Day,Day
C-1841583,2,2020-10-25 06:01:00,2020-10-25 12:46:00,37.314902,-121.910659,37.316882,-121.919229,0.490393337352,Alternating Lanes closure due to Bridge Inspection between Race St Oc and Meridian/Southwest Exp,,I-280 N,R,San Jose,Santa Clara,CA,95126,US,US/Pacific,KSJC,2020-10-25 05:53:00,57.0,57.0,77.0,29.86,10.0,S,3.0,0.0,Fair,False,False,False,False,False,False,False,False,False,False,False,False,False,Night,Night,Night,Day
C-1841584,2,2021-01-12 18:20:05,2021-01-13 05:03:00,39.034677,-95.605318,39.032569,-95.593846,0.632696548656,Slow traffic on I-70 E from Rice Rd/Exit 365 (I-70) to Toll Plaza 183 (I-70) due to roadwork.,,I-70 E,R,Tecumseh,Shawnee,KS,66542,US,US/Central,KTOP,2021-01-12 17:53:00,51.0,51.0,38.0,29.14,10.0,SSW,3.0,0.0,Fair,False,False,False,False,False,False,False,False,False,False,False,False,False,Night,Night,Day,Day
C-1841585,2,2020-12-11 08:06:37,2020-12-11 13:37:47,29.131757,-95.054844,29.13353900000001,-95.052177,0.202652444551,Roadwork on CR-257 (Termini San Luis Pass Rd/Seawall Blvd) from Buccaneer Rd (Termini San Luis Pass Rd/Seawall Blvd) to FM-3005.,22749.0,Termini San Luis Pass Rd,R,Galveston,Galveston,TX,77554-8798,US,US/Central,KGLS,2020-12-11 07:52:00,69.0,69.0,78.0,29.93,10.0,SSE,14.0,0.0,Mostly Cloudy,False,False,False,False,False,False,False,False,False,False,False,False,False,Day,Day,Day,Day
C-1841586,4,2021-12-09 21:00:00,2021-12-12 23:59:00,40.715107,-74.13818,40.723019,-74.133163,0.606522688955,NJ Turnpike Auth.: line striping and milling and paving operations on New Jersey Turnpike - Eastern Spur northbound between Southern Mixing Bowl (Newark) and Northern Mixing Bowl (Ridgefield) Thursday December 9th 2021 thru Saturday December 11th 2021 ,,New Jersey Tpke N,R,Newark,Essex,NJ,07105,US,US/Eastern,KEWR,2021-12-09 20:51:00,39.0,36.0,46.0,30.24,10.0,S,5.0,0.0,Cloudy,False,False,False,False,False,False,False,False,False,False,False,False,False,Night,Night,Night,Night
C-1841587,2,2021-12-11 12:18:42,2021-12-11 12:38:42,40.685057,-73.978246,40.683478,-73.977046,0.125918797908,Slow traffic from Nevins St (Flatbush Ave) to Grand Army Plz (Grand Army Plz/Flatbush Ave) due to roadwork.,122.0,Flatbush Ave,L,Brooklyn,Kings,NY,11217-1412,US,US/Eastern,KJRB,2021-12-11 11:51:00,59.0,59.0,93.0,29.62,9.0,VAR,5.0,0.0,Cloudy,True,False,False,False,False,False,True,False,True,True,False,True,False,Day,Day,Day,Day
C-1841588,2,2021-05-05 19:11:31,2021-05-07 01:09:31,43.402521,-72.588864,43.38507,-72.632142,2.48497144398,Roadwork on VT-106 (VT-131) from VT-103 (VT-131) to VT-131.,1499.0,VT Route 131,L,Cavendish,Windsor,VT,05142-9704,US,US/Eastern,KVSF,2021-05-05 19:06:00,51.0,51.0,92.0,29.07,10.0,CALM,0.0,0.0,Light Rain,False,False,False,False,False,False,False,False,False,False,False,False,False,Day,Day,Day,Day
C-1841589,2,2020-09-13 14:54:30,2020-09-13 21:56:41,42.151991,-87.96057900000002,42.153656,-87.960546,0.115052961565,Stationary traffic from Aptakisic Rd to S McHenry Rd due to roadwork.,101.0,S Buffalo Grove Rd,L,Buffalo Grove,Cook,IL,60089,US,US/Central,KPWK,2020-09-13 14:52:00,76.0,76.0,54.0,29.4,10.0,VAR,5.0,0.0,Fair,False,False,False,False,False,False,False,False,False,False,False,False,False,Day,Day,Day,Day
C-1841590,2,2020-08-30 16:25:30,2020-08-30 23:10:00,48.233408,-122.071764,48.230094,-122.080078,0.4459246641179999,Stationary traffic on WA-530 from Hillis Rd (Arlington-Darrington Rd/WA-530) to WA-9 (WA-530) due to roadwork.,11691.0,State Route 530 NE,L,Arlington,Snohomish,WA,98223-6815,US,US/Pacific,KAWO,2020-08-30 16:18:00,72.0,72.0,41.0,29.96,10.0,W,5.0,0.0,Fair,False,False,False,False,False,False,False,False,False,False,False,False,False,Day,Day,Day,Day
C-1841591,2,2021-12-24 12:01:00,2021-12-24 14:13:04,25.924072,-80.15433900000002,25.926216,-80.154653,0.149415798318,Stationary traffic on US-1 N - FL-826 - FL-5 from US-1 to W Dixie Hwy due to roadwork.,16099.0,Biscayne Blvd,L,North Miami Beach,Miami-Dade,FL,33160,US,US/Eastern,KHWO,2021-12-24 11:53:00,76.0,76.0,45.0,30.18,10.0,E,9.0,0.0,Fair,False,False,False,False,False,False,False,False,True,False,False,False,False,Day,Day,Day,Day
C-1841592,2,2018-06-19 21:01:43,2018-06-20 03:01:43,34.03028,-84.04871999999997,34.02963,-84.04796999999998,0.0621393572373,At GA-317/Exit 111 - Construction work.,3000.0,Lawrenceville Suwanee Rd,L,Suwanee,Gwinnett,GA,30024-2412,US,US/Eastern,KLZU,2018-06-19 20:56:00,82.9,,72.0,29.97,10.0,Calm,,,Clear,False,False,True,False,False,False,False,False,False,False,False,True,False,Night,Day,Day,Day
C-1841593,4,2019-04-30 19:56:00,2019-05-04 19:55:53,33.9666,-118.37097,33.9637,-118.37009,0.206619181439,Ramp closed to Florence Ave/La Cienega Blvd - Closed due to roadwork.,,San Diego Fwy S,R,Inglewood,Los Angeles,CA,90302,US,US/Pacific,KLAX,2019-04-30 19:53:00,59.0,59.0,64.0,29.85,10.0,WSW,9.0,0.0,Fair,False,False,False,False,False,False,False,False,False,False,False,False,False,Night,Day,Day,Day
C-1841594,2,2020-09-23 14:57:08,2020-09-24 15:45:28,39.166957,-76.62201999999998,39.16742,-76.62182800000002,0.0336029895507,Construction on MD-2 NB near GEORGIA AVE Expect delays.,7401.0,Ritchie Hwy,L,Glen Burnie,Anne Arundel,MD,21061-3101,US,US/Eastern,KBWI,2020-09-23 14:54:00,80.0,80.0,38.0,29.77,10.0,W,13.0,0.0,Fair,False,False,True,False,False,False,False,False,False,False,False,True,False,Day,Day,Day,Day
C-1841595,2,2020-09-01 22:02:30,2020-09-01 23:31:30,40.170489,-79.726721,40.187249,-79.70507099999998,1.62701933505,Queuing traffic on I-70 from Exit 49 (I-70) to PA-31/Exit 51 (I-70) due to roadwork.,,I-70 E,R,Smithton,Westmoreland,PA,15479,US,US/Eastern,KAGC,2020-09-01 21:53:00,74.0,74.0,82.0,28.62,9.0,S,9.0,0.0,Light Rain,False,False,False,False,False,False,False,False,False,False,False,False,False,Night,Night,Night,Night
C-1841596,2,2021-10-21 03:31:24,2021-10-21 05:59:00,34.171959,-118.57254,,,0.980000019073,Entry ramp to US-101 Northbound from Winnetka Ave closed due to construction work.,,US-101 N,R,Woodland Hills,Los Angeles,CA,91367,US,US/Pacific,KVNY,2021-10-21 03:51:00,54.0,54.0,69.0,29.23,10.0,CALM,0.0,0.0,Fair,False,False,False,False,False,False,False,False,False,False,False,False,False,Night,Night,Night,Night
C-1841597,2,2021-09-15 09:27:30,2021-12-10 10:17:48,33.548242,-112.255027,33.551738,-112.254122,0.247108050955,Stationary traffic from W Orangewood Ave to N 89th Ln due to roadwork.,7745.0,N 91st Ave,R,Glendale,Maricopa,AZ,85305,US,US/Mountain,KGEU,2021-10-07 15:58:00,89.0,89.0,25.0,28.74,10.0,WSW,5.0,0.0,Fair,False,False,True,False,False,False,False,False,False,False,False,False,False,Day,Day,Day,Day
C-1841598,2,2021-06-23 15:02:00,2021-06-23 15:24:30,37.721031,-107.750397,37.733581,-107.710917,2.32524278906,Slow traffic on US-550 S - US-550 N from 32nd St (Main Ave/US-550) to CO-62/Hunter Pkwy/Sherman St (US-550) due to roadwork.,,County Road 1,R,Silverton,San Juan,CO,81433,US,US/Mountain,KTEX,2021-06-23 14:55:00,70.0,70.0,28.0,21.66,10.0,WNW,7.0,0.0,Mostly Cloudy,False,False,False,False,False,False,False,False,False,True,False,False,False,Day,Day,Day,Day
