ID,Severity,Start_Time,End_Time,Start_Lat,Start_Lng,End_Lat,End_Lng,Distance(mi),Description,Number,Street,Side,City,County,State,Zipcode,Country,Timezone,Airport_Code,Weather_Timestamp,Temperature(F),Wind_Chill(F),Humidity(%),Pressure(in),Visibility(mi),Wind_Direction,Wind_Speed(mph),Precipitation(in),Weather_Condition,Amenity,Bump,Crossing,Give_Way,Junction,No_Exit,Railway,Roundabout,Station,Stop,Traffic_Calming,Traffic_Signal,Turning_Loop,Sunrise_Sunset,Civil_Twilight,Nautical_Twilight,Astronomical_Twilight
C-5151523,2,2021-06-18 22:19:02,2021-06-19 05:47:31,40.840873,-73.87281899999998,40.84160900000001,-73.872253,0.058832758583,Construction construction on Bronx River Parkway northbound at East 180th Street; Morris Park Avenue (New York) 2 Right lanes of 3 lanes closed until 5:00 A.M.,1182.0,E 180th St,R,Bronx,Bronx,NY,10460-3005,US,US/Eastern,KLGA,2021-06-18 21:51:00,79.0,79.0,40.0,29.85,10.0,SSW,18.0,0.0,Mostly Cloudy,False,False,False,False,False,False,False,False,True,False,False,True,False,Night,Night,Night,Day
C-5151524,2,2021-08-31 12:37:30,2021-08-31 14:40:17,30.463368,-91.103281,30.467122,-91.105963,0.304611414986,Stationary traffic on US-190 W - US-61 N from US-190/Florida Blvd (US-61) to LA-37/Greenwell Springs Rd (US-61) due to roadwork.,8153.0,Airline Hwy,L,Baton Rouge,East Baton Rouge,LA,70815-8110,US,US/Central,KBTR,2021-08-31 12:53:00,87.0,87.0,67.0,29.71,10.0,W,12.0,0.0,Fair,False,False,False,False,False,False,False,False,False,False,False,False,False,Day,Day,Day,Day
C-5151525,2,2021-10-24 07:00:00,2021-10-24 23:59:00,39.813329,-75.12453000000002,39.81299,-75.124517,0.0234328288196,NJ DOT - TOC South: utility work on NJ 47 northbound CR 665/Cattell Rd (Deptford Twp) Sunday October 24th 2021 07:00 AM thru 03:00 PM right shoulder closed,1701.0,Delsea Dr,R,Woodbury,Gloucester,NJ,08096-3624,US,US/Eastern,KPHL,2021-10-24 06:54:00,49.0,49.0,80.0,30.15,10.0,NNW,3.0,0.0,Mostly Cloudy,False,False,False,False,False,False,False,False,False,False,False,True,False,Night,Day,Day,Day
C-5151526,3,2019-10-14 07:02:51,2019-10-18 07:02:10,33.202220000000004,-117.24408,33.202220000000004,-117.24408,0.0,At CR-S14/N Santa Fe Ave - Construction work.,511.0,Vista Village Dr,L,Vista,San Diego,CA,92083-4993,US,US/Pacific,KCRQ,2019-10-14 06:53:00,62.0,62.0,80.0,29.57,10.0,CALM,0.0,0.0,Mostly Cloudy,False,False,True,False,False,False,True,False,False,False,False,True,False,Day,Day,Day,Day
C-5151527,2,2021-11-12 19:23:30,2021-11-12 21:25:20,44.949339,-93.279672,44.946935,-93.279702,0.1661070589079999,Slow traffic from W 28th St to W 31st St due to roadwork.,2935.0,Blaisdell Ave S,L,Minneapolis,Hennepin,MN,55408,US,US/Central,KMSP,2021-11-12 19:31:00,36.0,26.0,73.0,29.03,10.0,NW,17.0,0.0,Cloudy,False,False,False,False,False,False,False,False,True,False,False,False,False,Night,Night,Night,Night
C-5151528,2,2020-03-23 19:02:00,2020-03-24 05:00:00,38.63852,-90.47592,38.6355,-90.417,3.18675498131,Between Mason Rd/Exit 24 and Spoede Rd/Exit 27 - Roadwork. Two lanes closed.,,US-61 N,R,Saint Louis,St. Louis County,MO,63141,US,US/Central,KSTL,2020-03-23 18:51:00,44.0,41.0,73.0,29.48,10.0,NNE,6.0,0.0,Cloudy,False,False,False,False,False,False,False,False,False,False,False,False,False,Day,Day,Day,Day
C-5151529,4,2019-02-05 14:29:16,2019-02-05 19:27:08,32.759019,-97.067225,32.757532,-97.064724,0.177971568193,Closed at Six Flags Dr/N Watson Rd - Bridge closed. Bridge maintenance work. Roadway reduced to 1 lane.,2494.0,E Copeland Rd,R,Arlington,Tarrant,TX,76011,US,US/Central,KGPM,2019-02-05 15:50:00,75.2,,61.0,29.8,10.0,South,11.5,,Mostly Cloudy,False,False,False,False,False,False,False,False,False,True,False,False,False,Day,Day,Day,Day
C-5151530,2,2021-04-14 09:30:00,2021-04-23 17:45:00,33.484007,-111.717413,33.484012,-111.718468,0.0607971117908,5253 E THOMAS - Construction - Westbound Thomas Rd right lane restriction for BPG utility work TTCP Number: TTC21-00919,5208.0,E Thomas Rd,R,Mesa,Maricopa,AZ,85215,US,US/Mountain,KFFZ,2021-04-14 09:51:00,73.0,73.0,23.0,28.65,10.0,SSE,8.0,0.0,Fair,False,False,True,False,False,False,False,False,False,False,False,True,False,Day,Day,Day,Day
C-5151531,2,2016-08-01 20:00:00,2016-08-02 06:00:00,42.618713,-83.320915,,,0.0,Two lanes closed due to construction on US-24 Telegraph Rd Southbound from Elizabeth Lake Rd to Orchard Lake Rd.,,Orchard Lake Rd,R,Pontiac,Oakland,MI,48341,US,US/Eastern,KPTK,2016-08-01 19:53:00,81.0,,52.0,30.03,10.0,Calm,,,Partly Cloudy,False,False,False,False,False,False,False,False,False,False,False,False,False,Day,Day,Day,Day
C-5151532,2,2021-04-12 06:19:00,2021-12-29 02:59:52,40.004898,-75.221388,40.003267,-75.222139,0.11949548201,Slow traffic on US-1 N - US-1 S from Saint Asaphs Rd to W City Ave due to roadwork.,16.0,Belmont Ave,L,Bala Cynwyd,Montgomery,PA,19004-2441,US,US/Eastern,KLOM,2021-06-25 11:15:00,73.0,73.0,58.0,29.99,10.0,SE,5.0,0.0,Fair,False,False,False,False,False,False,False,False,False,False,False,False,False,Night,Day,Day,Day
C-5151533,2,2019-03-04 09:02:16,2019-03-08 09:01:46,37.37323,-121.91809,37.376198,-121.920258,0.2371154032919999,Between E Brokaw Rd and Karina Ct - Construction work.,1998.0,N 1st St,R,San Jose,Santa Clara,CA,95112,US,US/Pacific,KSJC,2019-03-04 08:53:00,53.1,,71.0,30.14,10.0,ESE,6.9,,Mostly Cloudy,False,False,True,False,False,False,True,False,True,False,False,True,False,Day,Day,Day,Day
C-5151534,2,2019-03-25 09:37:19,2019-03-31 09:33:30,42.233041,-75.51870799999998,42.22945,-75.52458,0.389622603367,At RT-41/Maple St - Bridge maintenance work.,239.0,Main St,L,Afton,Chenango,NY,13730-2114,US,US/Eastern,KBGM,2019-03-27 09:53:00,28.9,22.8,40.0,30.51,10.0,Variable,5.8,,Clear,False,False,False,False,False,False,False,False,False,False,False,False,False,Day,Day,Day,Day
C-5151535,2,2019-10-16 07:00:00,2019-10-16 17:00:00,40.5753,-105.00119,40.57789,-105.00116,0.178958881939,At CO-14/Mulberry St/Exit 269 - Construction work.,,I-25 N,R,Fort Collins,Larimer,CO,80524,US,US/Mountain,KFNL,2019-10-16 06:56:00,35.0,35.0,78.0,25.1,10.0,CALM,0.0,0.0,Fair,False,False,False,False,True,False,False,False,False,False,False,False,False,Night,Day,Day,Day
C-5151536,2,2021-09-23 12:27:00,2021-09-23 12:51:30,33.619631,-111.925656,33.625691,-111.925492,0.4188124256270001,Stationary traffic from Thunderbird Rd (N Scottsdale Rd) to N Greenway Hayden Loop/N Kierland Blvd (N Scottsdale Rd) due to roadwork.,14737.0,N Scottsdale Rd,R,Scottsdale,Maricopa,AZ,85254-2898,US,US/Mountain,KSDL,2021-09-23 12:53:00,92.0,92.0,27.0,28.27,10.0,S,6.0,0.0,Fair,False,False,True,False,False,False,False,False,False,False,False,True,False,Day,Day,Day,Day
C-5151537,2,2021-05-21 05:44:00,2021-10-22 16:43:01,33.502499,-112.203201,33.502041,-112.203207,0.0316466742368,CAMPBELL AVE - Construction - LEAKY WATER SERVICESLanesRestricted: NB ALL SB &amp;#61;ALL EB &amp;#61;1 WB &amp;#61;1CAMPBELL AVE at 67TH AVEComments: 6702 W CAMPBELL,4525.0,N 67th Ave,R,Phoenix,Maricopa,AZ,85033-1657,US,US/Mountain,KGEU,2021-08-10 09:58:00,81.0,81.0,66.0,28.84,10.0,SE,7.0,0.0,Mostly Cloudy,False,False,True,False,False,False,False,False,True,True,False,True,False,Day,Day,Day,Day
C-5151538,4,2020-11-18 16:00:00,2020-11-19 00:45:00,40.586323,-82.126362,40.569941,-82.141743,1.39020879472,Construction on OH-514 WB near TOWNSHIP ROAD 211 Road closed. Take alternate route.,6028.0,State Route 514,R,Lakeville,Holmes,OH,44638-9759,US,US/Eastern,KBJJ,2020-11-18 15:56:00,41.0,35.0,45.0,29.28,10.0,SW,9.0,0.0,Fair,False,False,False,False,False,False,False,False,False,False,False,False,False,Day,Day,Day,Day
C-5151539,2,2021-12-03 12:59:00,2021-12-03 13:19:00,31.767287,-106.318899,31.770945,-106.319249,0.253578563853,Stationary traffic from Vista Del Sol Dr (N Lee Trevino Dr) to Pebble Hills Blvd (N Lee Trevino Dr) due to roadwork.,1854.0,N Lee Trevino Dr,R,El Paso,El Paso,TX,79936-4108,US,US/Mountain,KELP,2021-12-03 12:40:00,72.0,72.0,29.0,26.16,10.0,WSW,12.0,,Partly Cloudy,False,False,False,False,False,False,False,False,False,False,False,False,False,Day,Day,Day,Day
C-5151540,2,2021-01-05 21:29:09,2021-01-05 23:22:27,29.773876,-98.038823,29.751561,-98.054682,1.81163156713,Slow traffic on Vetter Memorial Hwy - I-35 S from Watson Ln/Exit 195 (I-35) to Conrads Ln/Kohlenberg Rd/Exit 193 (I-35) due to roadwork.,,I-35 S,R,New Braunfels,Comal,TX,78130,US,US/Central,KBAZ,2021-01-05 21:22:00,64.0,64.0,84.0,29.29,10.0,SSE,12.0,0.0,Cloudy,False,False,False,False,False,False,False,False,False,False,False,False,False,Night,Night,Night,Night
C-5151541,2,2019-09-20 20:00:00,2019-09-23 06:00:00,39.883422,-86.04755,39.876148,-86.04744000000002,0.502619374398,At 56th St/Shadeland Ave/Exit 40 - Roadwork. Construction work.,,E 71st St,R,Indianapolis,Marion,IN,46220,US,US/Eastern,KEYE,2019-09-20 19:53:00,81.0,81.0,58.0,29.24,10.0,SW,3.0,0.0,Fair,False,False,False,False,False,False,False,False,False,False,False,False,False,Night,Day,Day,Day
C-5151542,2,2021-07-02 11:17:30,2021-07-02 16:02:30,42.199309,-88.111349,42.20488,-88.11145400000002,0.384956955703,Stationary traffic on US-12 W from IL-22/W Main St (S Rand Rd/US-12) to CR-2/W Miller Rd (N Rand Rd/US-12) due to roadwork.,278.0,N Rand Rd,L,Lake Zurich,Lake,IL,60047-2282,US,US/Central,KPWK,2021-07-02 10:52:00,69.0,69.0,65.0,29.44,10.0,ENE,8.0,0.0,Fair,False,False,False,False,False,False,False,False,False,False,False,False,False,Day,Day,Day,Day
C-5151543,2,2021-10-09 15:06:30,2021-10-09 17:20:49,28.567415000000004,-81.21289,28.565916,-81.207697,0.331705977174,Slow traffic on FL-50 from Armone St to Iroquois Trl due to roadwork.,11542.0,E Colonial Dr,R,Orlando,Orange,FL,32817-4605,US,US/Eastern,KORL,2021-10-09 14:53:00,86.0,86.0,55.0,29.77,10.0,N,12.0,0.0,Partly Cloudy,False,False,True,False,False,False,False,False,False,False,False,False,False,Day,Day,Day,Day
C-5151544,2,2021-09-29 16:44:30,2021-09-29 18:46:11,41.96517100000001,-80.34040999999998,41.963297,-80.34061700000002,0.129917063762,Roadwork on US-20/Ridge Rd (Meadville Rd/PA-18) from I-90 (Meadville Rd/PA-18) to PA-18.,7799.0,Meadville Rd,R,Girard,Erie,PA,16417-9331,US,US/Eastern,KERI,2021-09-29 16:51:00,65.0,65.0,56.0,29.3,10.0,W,7.0,0.0,Fair,False,False,False,False,False,False,False,False,False,True,False,False,False,Day,Day,Day,Day
C-5151545,2,2020-06-09 16:47:00,2020-09-01 02:30:00,26.483444,-98.388384,26.483804,-98.391058,0.167228080164,Construction on FM-681 WB near FM-2058 Allow extra time.,37301.0,FM 490,R,Edinburg,Hidalgo,TX,78541-7005,US,US/Central,KEBG,2020-06-09 16:55:00,96.0,96.0,45.0,29.63,10.0,SE,6.0,0.0,Partly Cloudy,False,False,False,False,False,False,False,False,False,False,False,False,False,Day,Day,Day,Day
C-5151546,2,2021-04-13 10:01:00,2021-12-02 16:45:45,41.46445,-81.56748,41.46497100000001,-81.564996,0.13355461822,Slow traffic on OH-8 - US-422 W - US-422 E from Kinsman Rd / Menlo Rd to Van Aken Blvd due to roadwork.,16253.0,Chagrin Blvd,L,Cleveland,Cuyahoga,OH,44120-3709,US,US/Eastern,KBKL,2021-12-02 13:53:00,54.0,54.0,62.0,29.02,10.0,W,17.0,0.0,Fair,False,False,False,False,False,False,False,False,False,False,False,False,False,Day,Day,Day,Day
C-5151547,2,2021-09-28 07:01:00,2021-09-28 09:03:38,38.221612,-122.257619,38.223217,-122.258814,0.128472685327,Slow traffic on CA-29 from Broadway St to Devlin Rd due to roadwork.,856.0,Napa Vallejo Hwy,R,Napa,Napa,CA,94558,US,US/Pacific,KAPC,2021-09-28 06:54:00,51.0,51.0,83.0,30.03,10.0,CALM,0.0,0.0,Fair,False,False,False,False,False,False,False,False,False,False,False,False,False,Night,Day,Day,Day
C-5151548,2,2020-05-05 14:40:57,2020-05-08 02:40:19,41.42536,-87.32138,41.435,-87.32141,0.666062377544,At US-30/Exit 253 - Roadwork. Right lane closed. Two lanes closed.,,I-65 S,R,Crown Point,Lake,IN,46307,US,US/Central,KIGQ,2020-05-05 14:35:00,46.0,,66.0,29.3,10.0,,,0.0,Light Rain,False,False,False,False,False,False,False,False,False,False,False,False,False,Day,Day,Day,Day
C-5151549,2,2021-03-15 06:26:00,2021-03-15 12:47:16,25.883515,-80.214325,25.884376,-80.210541,0.24262702809,Slow traffic on FL-924 - US-441 N from NW 10th Ave to NW 121st St due to roadwork.,970.0,NW 119th St,L,Miami,Miami-Dade,FL,33168-2339,US,US/Eastern,KOPF,2021-03-15 06:53:00,67.0,67.0,90.0,30.09,10.0,NNE,3.0,0.0,Partly Cloudy,False,False,False,False,False,False,False,False,True,False,False,True,False,Night,Night,Night,Day
C-5151550,2,2021-12-06 00:00:00,2021-12-11 23:59:59,41.684175,-72.709586,41.683718,-72.709843,0.0342474569164999,Signal repair on US 5 southbound at KITTS LN (Newington) Lane closures on Route 5 and 15 (Berlin Turnpike) may occur overnight Monday to Friday 6:00 p.m. to 6:00 a.m. and Saturday and Sunday 6:00 p.m. to 10:00 a.m. Lane closures for ramps turning roadways and all other project roadways may occur Monday to Friday from 9:00 a.m. to 3:00 p.m. or 6:00 p.m. to 6:00 a.m. Saturday and Sunday from 6:00 p.m. to 10:00 a.m Sunday August 1st 2021 thru Saturday May 28th 2022 Monday thru Friday 06:00 PM thru 06:00 AM All lanes open Sunday August 1st 2021 thru Saturday May 28th 2022 06:00 PM thru 10:00 AM All lanes open,2487.0,Berlin Tpke,L,Newington,Hartford,CT,06111-4107,US,US/Eastern,KHFD,2021-12-06 00:33:00,44.0,40.0,63.0,30.21,10.0,ESE,8.0,0.0,Cloudy,False,False,False,False,False,False,False,False,False,False,False,False,False,Night,Night,Night,Night
C-5151551,2,2021-09-15 07:08:30,2021-09-15 10:05:21,42.32079,-83.080111,42.322726,-83.081703,0.15654847299,Stationary traffic from W Fort St to I-75 N due to roadwork.,700.0,Ambassador Brg,R,Detroit,Wayne,MI,48216,US,US/Eastern,KDET,2021-09-15 06:53:00,64.0,64.0,87.0,29.23,10.0,CALM,0.0,0.0,Fair,False,False,False,False,True,False,False,False,False,False,False,False,False,Night,Day,Day,Day
C-5151552,2,2021-11-03 15:52:00,2021-11-03 16:28:00,33.362955,-112.153667,33.36298,-112.143434,0.590518920923,Stationary traffic from S 51st Ave (W Dobbins Rd) to S 35th Ave (W Dobbins Rd) due to roadwork.,4354.0,W Dobbins Rd,R,Laveen,Maricopa,AZ,85339-2023,US,US/Mountain,KPHX,2021-11-03 15:51:00,84.0,84.0,17.0,28.75,10.0,WNW,7.0,0.0,Fair,False,False,False,False,False,False,False,False,False,False,False,False,False,Day,Day,Day,Day
C-5151553,2,2019-03-31 22:36:00,2021-06-29 08:23:09,47.432017,-121.638475,47.430458,-121.635529,0.174822840283,I-90 milepost 34 to 137 North Bend to Vantage: There are a number of work zones between North Bend and Vantage. Motorists will experience minor delays due to lane closures and other traffic revisions in place for maintenance and construction activities. Motorists are reminded to slow down and obey all traffic control devices as you enter and exit our work zones.,,I-90 E,R,North Bend,King,WA,98045,US,US/Pacific,KRNT,2019-03-31 22:53:00,52.0,,69.0,30.13,10.0,NW,5.8,,Clear,False,False,False,False,False,False,False,False,False,False,False,False,False,Night,Night,Night,Night
C-5151554,3,2016-07-14 03:53:04,2016-07-14 09:00:00,33.831635,-118.255981,,,0.0,Entry ramp closed due to construction on I-405 Southbound at Exit 34 Carson St.,,E Carson St,R,Carson,Los Angeles,CA,90745,US,US/Pacific,KTOA,2016-07-14 06:47:00,66.2,,94.0,30.02,2.0,Variable,5.8,,Haze,False,False,False,False,True,False,False,False,False,False,False,False,False,Night,Night,Night,Night
C-5151555,2,2021-10-27 16:08:00,2021-10-27 18:10:10,45.577113,-122.694092,45.577135,-122.686394,0.372292536302,Slow traffic on US-30 Byp E - US-30 Byp W from N Portsmouth Ave (US-30 Byp/N Lombard St) to N Interstate Ave (US-30 Byp/N Lombard St) due to roadwork.,2633.0,N Lombard St,R,Portland,Multnomah,OR,97217-6230,US,US/Pacific,KVUO,2021-10-27 15:53:00,57.0,57.0,77.0,30.27,8.0,ESE,3.0,0.0,Light Rain,True,False,True,False,False,False,False,False,True,False,False,False,False,Day,Day,Day,Day
C-5151556,2,2021-03-11 20:50:00,2021-12-30 20:54:00,42.476368,-83.081918,42.476646,-83.084532,0.134587532762,Slow traffic from Westbrook St to Kenney Ave due to roadwork.,2072.0,E 10 Mile Rd,R,Warren,Macomb,MI,48091-1380,US,US/Eastern,KDET,2021-06-09 10:53:00,83.0,83.0,65.0,29.42,10.0,VAR,3.0,0.0,Partly Cloudy,False,False,False,False,False,False,False,False,True,False,False,False,False,Night,Night,Night,Night
C-5151557,2,2021-09-07 21:00:00,2021-10-26 19:43:14,40.537543,-80.18637199999998,40.536061,-80.183314,0.190446214809,Stationary traffic on PA-65 from Ferry St (Ohio River Blvd/PA-65) to Beaver St (Ohio River Blvd/PA-65) due to roadwork.,382.0,Ohio River Blvd,R,Sewickley,Allegheny,PA,15143-1344,US,US/Eastern,KPIT,2021-10-26 17:51:00,47.0,41.0,77.0,28.56,10.0,NW,14.0,0.0,Mostly Cloudy,False,False,False,False,False,False,False,False,True,False,False,True,False,Night,Night,Night,Day
C-5151558,3,2019-02-05 09:03:46,2019-02-11 09:02:05,34.014691,-84.49432900000002,34.021026,-84.489124,0.5295677419,Between Marietta and Ebenezer Rd NE - Construction work. Lane blocked.,2666.0,Sandy Plains Rd,R,Marietta,Cobb,GA,30066-4240,US,US/Eastern,KRYY,2019-02-06 08:48:00,61.0,,97.0,29.29,4.0,Calm,,,Overcast,False,False,True,False,False,False,False,False,False,False,False,True,False,Day,Day,Day,Day
C-5151559,2,2020-05-20 19:15:15,2020-05-22 00:00:00,41.7663,-72.65198000000002,41.7663,-72.65198000000002,0.0,At CT-2/Exit 55 - Roadwork. Right lane blocked.,,I-84 W,R,East Hartford,Hartford,CT,06108,US,US/Eastern,KHFD,2020-05-20 18:53:00,63.0,63.0,37.0,30.38,10.0,S,13.0,0.0,Fair,False,False,False,False,True,False,False,False,False,False,False,False,False,Day,Day,Day,Day
C-5151560,2,2018-03-14 04:15:07,2018-03-14 05:00:00,40.715809,-73.824486,,,0.180000007153,Two lanes closed due to construction work on Union Tpke Eastbound between 132nd St and 134th St.,13398.0,Union Tpke,R,Jamaica,Queens,NY,11435,US,US/Eastern,KJFK,2018-03-14 03:51:00,32.0,20.1,64.0,29.67,10.0,West,19.6,,Partly Cloudy,False,False,False,False,False,False,False,False,False,False,False,False,False,Night,Night,Night,Night
C-5151561,2,2021-06-09 08:00:00,2021-06-09 17:15:00,31.530112,-92.891692,31.530508,-92.890457,0.0777086972096,Construction on LA-1 near CANE RIV Construction. Expect long delays.,17400.0,Highway 1,L,Lena,Natchitoches,LA,71447,US,US/Central,KAEX,2021-06-09 07:53:00,80.0,80.0,90.0,29.94,7.0,S,6.0,0.0,Cloudy,False,False,False,False,False,False,False,False,False,False,False,False,False,Day,Day,Day,Day
C-5151562,2,2021-07-26 02:43:08,2021-07-28 02:13:46,26.479796,-97.844821,26.479769,-97.850844,0.37249680504,Roadwork on FM-1834 (TX-186) from FM-88 (TX-186) to TX-186.,10174.0,Highway 186,R,Raymondville,Willacy,TX,78580,US,US/Central,KHRL,2021-07-26 02:52:00,77.0,77.0,100.0,29.9,9.0,SE,6.0,0.0,Fair,False,False,False,False,False,False,False,False,False,False,False,False,False,Night,Night,Night,Night
C-5151563,4,2018-09-21 16:46:57,2018-09-21 18:46:12,32.85899000000001,-97.51742,32.87305,-97.52778,1.14245688335,Between SE Parkway St and Fort Worth City Line - Roadwork.,12152.0,Jacksboro Hwy,R,Fort Worth,Tarrant,TX,76135-9146,US,US/Central,KAWN,2018-09-21 16:00:00,,,,,,North,,,,False,False,False,False,False,False,False,False,False,False,False,False,False,Day,Day,Day,Day
C-5151564,2,2021-07-22 14:13:45,2021-07-22 15:11:55,44.394693,-103.592454,44.393672,-103.615987,1.16397022783,Slow traffic on US-14A W - US-14A E from I-90/US-14 (US-14 Alt/US-14A) to US-85 (Deadwood) (US-14 Alt) due to roadwork.,12299.0,US Highway 14A,L,Sturgis,Lawrence,SD,57785-5509,US,US/Central,KSPF,2021-07-22 14:15:00,95.0,95.0,30.0,25.97,10.0,E,16.0,0.0,Fair,False,False,False,False,False,False,False,False,False,False,False,False,False,Day,Day,Day,Day
C-5151565,2,2021-06-20 23:00:00,2021-10-15 13:17:30,40.826012,-97.807086,40.824051,-97.807109,0.135497531966,Stationary traffic on NE-93A from Road 10 to I-80 W due to roadwork.,916.0,Road B,L,Henderson,York,NE,68371-8874,US,US/Central,KAUH,2021-10-15 12:55:00,56.0,56.0,40.0,28.25,10.0,NW,13.0,0.0,Fair,False,False,False,False,False,False,False,False,False,False,False,False,False,Night,Night,Night,Day
C-5151566,2,2021-01-12 16:09:00,2021-01-12 18:18:43,40.420535,-77.01311899999997,40.390725,-77.033199,2.31481798713,Roadwork on US 11 southbound at Exit: US 22/US 322 EAST - HARRISBURG. There is a lane restriction.,,US-11 S,R,Duncannon,Dauphin,PA,17020,US,US/Eastern,KCXY,2021-01-12 15:56:00,42.0,38.0,47.0,29.7,10.0,WSW,6.0,0.0,Fair,False,False,False,False,True,False,False,False,False,False,False,False,False,Day,Day,Day,Day
C-5151567,2,2020-09-26 19:45:00,2020-09-26 20:58:00,30.121416,-93.751821,30.119148,-93.736331,0.938913590752,Stationary traffic on I-10 from Exit 875 (I-10) to US-90/Exit 878 (I-10) due to roadwork.,,I-10 E,R,Orange,Orange,TX,77630,US,US/Central,KORG,2020-09-26 19:55:00,77.0,77.0,75.0,29.89,10.0,S,5.0,0.0,Fair,False,False,False,False,False,False,False,False,False,False,False,False,False,Night,Night,Day,Day
C-5151568,2,2020-11-12 00:16:16,2020-11-12 00:41:15,30.463239,-81.43142399999998,30.4614,-81.424968,0.404944449597,Stationary traffic on FL-105 - FL-A1A from Houston Ave (FL-A1A) to FL-105/Heckscher Dr (FL-A1A) due to roadwork.,,Heckscher Dr,R,Jacksonville,Duval,FL,32226,US,US/Eastern,KJAX,2020-11-12 00:56:00,77.0,77.0,90.0,29.77,5.0,SE,14.0,0.0,Light Rain,False,False,False,False,False,False,False,False,False,False,False,False,False,Night,Night,Night,Night
C-5151569,2,2021-10-19 00:27:00,2021-10-19 01:18:00,40.3716,-75.92709,40.358014,-75.94511,1.33458514652,Slow traffic on PA-12 W from N 11th St (Warren St Byp/PA-12) to PA-183/Schuylkill Ave (Warren St Byp/PA-12) due to roadwork.,,Warren Street Byp W,R,Reading,Berks,PA,19605,US,US/Eastern,KRDG,2021-10-19 00:54:00,46.0,42.0,73.0,29.66,10.0,WNW,7.0,0.0,Fair,False,False,False,False,False,False,False,False,False,False,False,False,False,Night,Night,Night,Night
C-5151570,4,2021-12-13 09:53:37,2021-12-20 23:59:00,29.00841,-80.96979300000002,29.009051,-80.971513,0.112974718725,Closed road from Wood Creek Ln to Nature Creek Ln due to roadwork.,,Wood Creek Ln,R,New Smyrna Beach,Volusia,FL,32168,US,US/Eastern,KEVB,2021-12-13 09:47:00,72.0,72.0,83.0,30.3,10.0,N,12.0,,Fair,False,False,False,False,False,False,False,False,False,False,False,False,False,Day,Day,Day,Day
C-5151572,2,2019-05-21 09:03:52,2019-05-25 09:03:38,26.75986,-80.10863,26.75471,-80.10899,0.356523593239,Between 45th St and Shiloh Dr - Roadwork. Lane blocked.,5603.0,N Military Trl,R,West Palm Beach,Palm Beach,FL,33407-1841,US,US/Eastern,KPBI,2019-05-21 08:53:00,83.0,83.0,63.0,29.96,10.0,CALM,0.0,0.0,Partly Cloudy,False,False,False,False,False,False,False,False,False,False,False,True,False,Day,Day,Day,Day
C-5151573,3,2019-03-19 22:00:00,2019-03-20 05:31:00,39.55555,-104.87036100000002,,,0.20000000298,Exit ramp from I-25 Southbound at Exits 194 195 to E-470 TOLL Northbound closed due to construction during the night.,,I-25 N,R,Englewood,Douglas,CO,80112,US,US/Mountain,KAPA,2019-03-19 21:53:00,33.1,26.9,48.0,30.36,10.0,North,6.9,,Partly Cloudy,False,False,False,False,False,False,False,False,False,False,False,False,False,Night,Night,Night,Night
C-5151574,2,2021-12-08 06:01:00,2021-12-08 18:46:00,37.458871,-119.916424,37.459616,-119.940527,1.32294049636,Lane closure due to Guardrail Work between Madera/Mariposa County Line and Varain Road (Left),5000.0,Allred Rd,R,Mariposa,Mariposa,CA,95338-9705,US,US/Pacific,KMCE,2021-12-08 05:53:00,46.0,46.0,93.0,29.92,2.0,NE,3.0,0.0,Fog,False,False,False,False,False,False,False,False,False,False,False,False,False,Night,Night,Day,Day
C-5151575,2,2021-11-23 07:01:00,2021-11-23 19:46:00,39.431616,-123.357142,39.424886,-123.351762,0.5465027302809999,Construction on US-101 SB near UPP CREEK BRG Expect long delays.,,N Highway 101,R,Willits,Mendocino,CA,95490,US,US/Pacific,KUKI,2021-11-23 06:56:00,44.0,44.0,79.0,29.42,10.0,CALM,0.0,0.0,Mostly Cloudy,False,False,False,False,False,False,False,False,False,False,False,False,False,Night,Day,Day,Day
C-5151576,4,2018-07-12 15:07:54,2018-07-12 21:07:54,32.84538,-96.91218,32.843431,-96.910041,0.183170210073,Between Tom Braniff Dr and TX-482-SPUR/Stadium Dr - Construction work.,,Loop 12 N,R,Irving,Dallas,TX,75062,US,US/Central,KDFW,2018-07-12 15:08:00,89.1,,53.0,29.99,3.0,SSE,11.5,0.03,Heavy Rain,False,False,False,False,False,False,False,False,False,False,False,False,False,Day,Day,Day,Day
C-5151577,2,2021-04-26 06:18:30,2021-04-26 10:17:35,29.646665,-82.605474,29.645915,-82.60669200000002,0.0896364547517,Stationary traffic on US-27 S - FL-45 - FL-26 - US-41 S from NW 249th St to NW 250th St due to roadwork.,24899.0,W Newberry Rd,R,Newberry,Alachua,FL,32669-2649,US,US/Eastern,KGNV,2021-04-26 06:41:00,55.0,55.0,93.0,29.85,10.0,NW,3.0,0.0,Fair,False,False,False,False,False,False,False,False,False,False,False,False,False,Night,Night,Day,Day
C-5151578,2,2021-09-27 21:09:00,2021-09-27 21:27:00,35.037440000000004,-107.35506399999998,35.028048,-107.336174,1.25029678697,Slow traffic on I-40 E from NM-124/Exit 114 (I-40) to Indian Service Rte 491/Exit 117 (I-40) due to roadwork.,,I-40 E,R,Casa Blanca,Cibola,NM,87007,US,US/Mountain,KGNT,2021-09-27 20:53:00,51.0,51.0,89.0,23.73,10.0,CALM,0.0,0.0,Fair,False,False,False,False,False,False,False,False,False,False,False,False,False,Night,Night,Night,Night
C-5151579,2,2020-03-13 15:36:04,2020-09-17 12:35:35,35.48000800000001,-99.104074,35.491565,-99.004171,5.676979341619999,Construction on I-40 near US-183 Construction. Expect long delays.,,I-40 E,R,Clinton,Custer,OK,73601,US,US/Central,KCLK,2020-03-13 15:53:00,39.0,31.0,96.0,28.07,10.0,NE,14.0,0.0,Cloudy,False,False,False,False,False,False,False,False,False,False,False,False,False,Day,Day,Day,Day
C-5151580,2,2021-05-14 06:18:00,2021-05-14 15:11:49,33.497988,-112.012995,33.495216,-112.012468,0.193919053425,Slow traffic from E Glenrosa Ave to N 33rd St due to roadwork.,4233.0,N 32nd St,R,Phoenix,Maricopa,AZ,85018-4722,US,US/Mountain,KPHX,2021-05-14 06:51:00,72.0,72.0,21.0,28.68,10.0,E,8.0,0.0,Fair,True,False,False,False,False,False,False,False,True,False,False,False,False,Day,Day,Day,Day
C-5151581,3,2016-06-18 03:29:19,2016-06-19 03:01:45,39.9912,-85.91868000000002,39.95057,-86.01259,5.710336859040001,Between Hamilton/Madison County Line and IN-37/Exit 5 - Construction work.,,I-69 S,R,Noblesville,Hamilton,IN,46060,US,US/Eastern,KTYQ,2016-06-18 03:35:00,63.1,,61.0,30.12,10.0,Calm,,,Clear,False,False,False,False,False,False,False,False,False,False,False,False,False,Night,Night,Night,Night
C-5151582,3,2019-11-07 09:00:00,2019-11-07 16:00:00,37.64950200000001,-77.593369,,,0.0,Lane closed due to construction work on I-64 Westbound at Exits 178A 178B US-250 Broad St.,,I-64 W,R,Glen Allen,Henrico,VA,23060,US,US/Eastern,KOFP,2019-11-07 08:54:00,50.0,50.0,74.0,30.02,10.0,S,7.0,0.0,Fair,False,False,False,False,False,False,False,False,False,False,False,False,False,Day,Day,Day,Day
C-5151583,2,2020-12-13 13:28:30,2020-12-14 20:40:30,41.668672,-84.858583,41.669906,-84.861071,0.154139700066,Slow traffic on I-90 W - I-80 W - Indiana East-West Toll Rd W from IN--OH State Border (I-90/I-80) to Eastpoint Barrier Toll Plaza (I-90/I-80) due to roadwork.,1786.0,N 700 E,R,Angola,Steuben,IN,46703,US,US/Eastern,KANQ,,,,,,,,,,,False,False,False,False,False,False,False,False,False,False,False,False,False,Day,Day,Day,Day
C-5151584,2,2021-07-07 08:32:00,2021-07-08 02:55:54,40.589802,-77.598412,40.590547,-77.596779,0.099954186648,Roadwork on TR 0022 BUSINESS / FOURTH ST / SR 3002 SH / E CHARLES ST both directions at UNION AV. There is a lane restriction.,1100.0,W 4th St,R,Lewistown,Mifflin,PA,17044-1909,US,US/Eastern,KUNV,2021-07-07 08:53:00,79.0,79.0,83.0,28.68,7.0,SW,6.0,0.0,Haze,False,False,True,False,False,False,False,False,False,True,False,False,False,Day,Day,Day,Day
C-5151585,2,2021-09-27 08:36:00,2021-10-08 10:06:11,27.844381,-82.381553,27.849778000000004,-82.38126199999998,0.373320723131,Slow traffic on FL-45 - US-41 N from Mottie Rd to Gibsonton Dr due to roadwork.,10854.0,S US Highway 41,R,Gibsonton,Hillsborough,FL,33534-4708,US,US/Eastern,KTPF,2021-10-08 07:35:00,73.0,73.0,100.0,30.0,4.0,CALM,0.0,0.0,Fair,False,False,True,False,False,False,True,False,True,False,False,False,False,Day,Day,Day,Day
C-5151586,2,2021-02-17 04:32:00,2021-02-17 19:43:08,33.47691,-112.169028,33.480478999999995,-112.168347,0.249697951008,Slow traffic from W Virginia Ave to N 50th Dr due to roadwork.,,N 51st Ave,R,Phoenix,Maricopa,AZ,85035,US,US/Mountain,KGEU,2021-02-17 04:58:00,48.0,46.0,30.0,28.68,10.0,NNE,5.0,0.0,Fair,True,False,False,False,False,False,False,False,True,False,False,False,False,Night,Night,Night,Night
C-5151587,3,2018-08-15 00:01:00,2018-08-15 05:00:00,40.701725,-73.992233,,,0.409999996424,One lane closed due to construction work on I-278 Brooklyn Queens Expy Eastbound from Orange St to Middagh St.,,Brooklyn Queens Expy,R,Brooklyn,Kings,NY,11201,US,US/Eastern,KJRB,2018-08-15 00:15:00,71.6,,94.0,30.42,10.0,North,,,Partly Cloudy,False,False,True,False,False,False,False,False,False,False,False,True,False,Night,Night,Night,Night
C-5151588,4,2020-05-15 00:56:22,2020-05-15 05:53:56,42.16584,-79.05745999999998,42.1653,-79.08601,1.46259577537,Closed at US-62 - Closed due to roadwork.,2.0,Route 394,R,Kennedy,Cattaraugus,NY,14747-9740,US,US/Eastern,KJHW,2020-05-15 00:56:00,58.0,58.0,97.0,28.16,10.0,SW,10.0,0.0,Cloudy,False,False,False,False,False,False,False,False,False,False,False,False,False,Night,Night,Night,Night
C-5151589,2,2021-06-16 20:32:07,2021-12-09 23:01:56,33.58185,-84.37843000000002,33.583137,-84.377841,0.0951671464926,Slow traffic from Valley Hill Rd (Upper Riverdale Rd) to I-75/US-41/US-19/GA-3/Tara Blvd (Upper Riverdale Rd) due to roadwork.,363.0,Upper Riverdale Rd SW,L,Jonesboro,Clayton,GA,30236,US,US/Eastern,KATL,2021-12-09 20:52:00,49.0,46.0,80.0,29.06,10.0,ESE,7.0,0.0,Cloudy,False,False,True,False,False,False,False,False,False,False,False,True,False,Day,Day,Day,Day
C-5151591,2,2020-04-16 19:00:00,2020-04-18 07:00:00,40.79622,-74.14095999999998,40.79622,-74.14095999999998,0.0,At Main St/Terry St/Exit 7 - Roadwork. One lane blocked.,,NJ-21 S,R,Belleville,Essex,NJ,07109,US,US/Eastern,KTEB,2020-04-16 18:51:00,45.0,39.0,30.0,30.09,10.0,NW,12.0,0.0,Mostly Cloudy,False,False,False,False,False,False,False,False,False,False,False,False,False,Day,Day,Day,Day
C-5151592,2,2021-02-19 17:26:12,2021-02-20 01:55:33,32.08097,-93.319576,32.071859,-93.32489,0.702191905091,Roadwork on LA-786 (US-371) from US-71/Shreveport Rd (US-371) to US-371 N - US-371 S.,7466.0,Highway 371,L,Coushatta,Red River,LA,71019-6436,US,US/Central,KIER,,,,,,,,,,,False,False,False,False,False,False,False,False,False,False,False,False,False,Day,Day,Day,Day
C-5151593,2,2020-07-17 03:00:00,2020-07-17 13:45:00,33.230898,-97.133447,33.216606,-97.133655,0.987556332605,Construction on US-77 SB near FM-2164 Drive with caution.,200.0,W University Dr,R,Denton,Denton,TX,76201-1838,US,US/Central,KDTO,2020-07-17 02:53:00,82.0,82.0,69.0,29.32,10.0,SE,7.0,0.0,Fair,False,False,True,False,False,False,False,False,False,False,False,True,False,Night,Night,Night,Night
C-5151594,2,2021-03-26 06:21:00,2021-03-26 18:49:08,33.508794,-112.241181,33.508399,-112.237691,0.202903797365,Stationary traffic from N 84th Ln to W Pierson St due to roadwork.,8445.0,W Camelback Rd,L,Phoenix,Maricopa,AZ,85037,US,US/Mountain,KGEU,2021-03-26 05:58:00,53.0,53.0,55.0,28.64,10.0,SSW,8.0,0.0,Cloudy,True,False,True,False,False,False,False,False,True,True,False,True,False,Night,Day,Day,Day
C-5151595,2,2021-10-05 18:37:51,2021-10-05 20:39:21,40.635769,-73.928674,40.633228,-73.92944399999998,0.180148830163,Slow traffic from Farragut Rd to Avenue H due to roadwork.,1496.0,Utica Ave,R,Brooklyn,Kings,NY,11234-1507,US,US/Eastern,KJRB,2021-10-05 18:51:00,62.0,62.0,90.0,30.19,6.0,CALM,0.0,0.0,Cloudy,False,False,False,False,False,False,False,False,False,False,False,False,False,Night,Day,Day,Day
C-5151596,2,2020-05-18 14:16:16,2020-05-22 14:15:38,27.84388,-82.84100000000002,27.88389,-82.85051999999997,2.82492689118,At 5th Ave - Construction work.,19005.0,Gulf Blvd,R,Indian Shores,Pinellas,FL,33785-2107,US,US/Eastern,KPIE,2020-05-18 13:53:00,80.0,80.0,64.0,29.94,10.0,SW,14.0,0.0,Fair,False,False,True,True,False,False,False,False,False,False,False,True,False,Day,Day,Day,Day
C-5151597,3,2019-08-15 00:42:45,2019-08-17 14:26:25,41.82376,-87.72305,41.82364000000001,-87.72407,0.0531686522112,Ramp to S Pulaski Rd Northbound - Roadwork.,,Adlai E Stevenson Expy S,R,Chicago,Cook,IL,60632,US,US/Central,KMDW,2019-08-15 11:53:00,77.0,77.0,56.0,29.33,10.0,N,9.0,0.0,Partly Cloudy,False,False,False,False,False,False,True,False,False,False,False,False,False,Night,Night,Night,Night
C-5151598,2,2020-09-03 16:00:00,2020-09-03 21:45:00,30.546012,-91.029248,30.546185,-91.029298,0.0123178767091,Construction on LA-3034 SB near HUNTLEY AVE Construction. Right lane closed.,10846.0,Sullivan Rd,R,Baton Rouge,East Baton Rouge,LA,70818-4139,US,US/Central,KBTR,2020-09-03 15:53:00,92.0,92.0,47.0,29.88,10.0,CALM,0.0,0.0,Fair,False,False,False,False,False,False,False,False,False,False,False,False,False,Day,Day,Day,Day
C-5151599,2,2017-03-20 09:00:00,2017-03-20 16:00:00,41.610134,-74.301964,,,0.0,Intermittent lane closures due to construction work on NY-302 Maple Ave both ways between NY-17K and NY-52.,201.0,Maple Ave,L,Pine Bush,Orange,NY,12566-7121,US,US/Eastern,KMGJ,2017-03-20 08:54:00,21.9,,78.0,30.16,10.0,Calm,,,Clear,True,False,True,False,False,False,False,False,False,False,False,True,False,Day,Day,Day,Day
C-5151600,2,2020-10-23 14:00:00,2020-10-24 01:45:00,43.540655,-72.389186,43.532495,-72.395016,0.634937334107,Construction on I-91 SB near HARTLAND Construction. Expect long delays.,,I-91 S,R,Hartland,Windsor,VT,05048,US,US/Eastern,KLEB,2020-10-23 13:53:00,65.0,65.0,70.0,29.48,10.0,CALM,0.0,0.0,Cloudy,False,False,False,False,False,False,False,False,False,False,False,False,False,Day,Day,Day,Day
C-5151601,2,2021-12-16 16:32:00,2021-12-16 18:35:20,33.508214,-111.986733,33.5094,-111.985845,0.0966026517555,Slow traffic from E Calle Feliz to N Village Dr due to roadwork.,4878.0,N 44th St,L,Phoenix,Maricopa,AZ,85018,US,US/Mountain,KPHX,2021-12-16 16:51:00,60.0,60.0,36.0,28.75,10.0,W,9.0,0.0,Fair,False,False,False,False,False,False,False,False,False,False,False,False,False,Day,Day,Day,Day
C-5151602,2,2021-10-25 16:30:00,2021-10-25 16:51:30,43.577165,-116.294207,43.57562,-116.29421200000002,0.106749626591,Stationary traffic from W Overland Rd (Maple Grove Rd) to W Victory Rd (Maple Grove Rd) due to roadwork.,2830.0,S Maple Grove Rd,L,Boise,Ada,ID,83709-3609,US,US/Mountain,KBOI,2021-10-25 16:27:00,48.0,43.0,89.0,26.71,2.0,WNW,12.0,0.01,Heavy Rain,False,False,True,False,False,False,False,False,True,False,False,True,False,Day,Day,Day,Day
C-5151603,2,2021-02-15 10:39:00,2021-02-15 11:38:00,40.159118,-103.216313,40.159111,-103.21965,0.176211248246,Stationary traffic on US-34 W - US-34 E from CO-63/Cedar Ave (E 1st St/US-34) to CR-BB (US-34) due to roadwork.,413.0,W 1st St,R,Akron,Washington,CO,80720-1001,US,US/Mountain,KAKO,2021-02-15 10:53:00,-2.0,-15.0,72.0,25.22,10.0,S,7.0,0.0,Cloudy,False,False,False,False,False,False,False,False,False,False,False,False,False,Day,Day,Day,Day
C-5151604,2,2020-12-30 21:30:00,2020-12-31 07:59:00,43.10517,-73.579144,43.104703,-73.579334,0.0336600661535,Pothole repair on NY 32 eastbound at US 4; Village of Schuylerville (Saratoga) Alternating Lane Closures Not currently Scheduled,216.0,Broad St,R,Schuylerville,Saratoga,NY,12871-1023,US,US/Eastern,KGFL,2020-12-30 21:53:00,32.0,25.0,69.0,29.58,10.0,SSW,8.0,0.0,Wintry Mix,True,False,False,False,False,False,False,False,False,False,False,False,False,Night,Night,Night,Night
C-5151605,2,2021-12-18 17:58:30,2021-12-18 18:12:00,40.577563,-75.80312099999998,40.57700300000001,-75.889411,4.528532688169999,Slow traffic on US-22 W - I-78 W from PA-737/Exit 40 (I-78) to PA-143/Exit 35 (I-78) due to roadwork.,,I-78 W,R,Lenhartsville,Berks,PA,19534,US,US/Eastern,KRDG,2021-12-18 17:54:00,42.0,42.0,100.0,29.53,1.0,SSE,3.0,0.0,Fog,False,False,False,False,True,False,False,False,False,True,False,False,False,Night,Night,Night,Day
C-5151606,2,2021-12-01 08:24:30,2021-12-01 11:14:20,33.859709,-117.885629,33.859682,-117.890406,0.274089022461,Stationary traffic from Placentia Ave (Orangethorpe Ave) to Raymond Ave (Orangethorpe Ave) due to roadwork.,2332.0,E Orangethorpe Ave,R,Anaheim,Orange,CA,92806-1231,US,US/Pacific,KFUL,2021-12-01 08:53:00,55.0,55.0,100.0,30.0,0.25,CALM,0.0,0.0,Fog,False,False,False,False,False,False,False,False,False,False,False,False,False,Day,Day,Day,Day
C-5151607,2,2020-03-19 07:00:31,2020-03-19 12:00:00,42.58819,-76.12850999999998,42.58819,-76.12850999999998,0.0,At US-11/RT-41/Exit 10 - Roadwork.,,I-81 N,R,Mc Graw,Cortland,NY,13101,US,US/Eastern,KN03,2020-03-19 08:55:00,37.0,37.0,100.0,28.92,10.0,E,3.0,,Cloudy,False,False,False,False,True,False,False,False,False,False,False,False,False,Night,Day,Day,Day
C-5151608,2,2020-06-15 20:10:00,2020-06-16 08:00:00,47.71298,-122.56729,47.71298,-122.56729,0.0,At Agate Pass Brg - Roadwork.,,State Highway 305 NE,R,Poulsbo,Kitsap,WA,98370-7825,US,US/Pacific,KPWT,2020-06-15 19:56:00,57.0,57.0,67.0,29.43,10.0,SSW,16.0,0.0,Partly Cloudy,False,False,False,False,False,False,False,False,False,False,False,False,False,Day,Day,Day,Night
C-5151609,4,2019-04-18 22:56:06,2019-04-19 03:54:53,32.736225,-96.8228,32.74007,-96.82282,0.26566674099,Closed at I-35E/US-67/US-77/W 12th St - Closed due to roadwork.,995.0,S Beckley Ave,R,Dallas,Dallas,TX,75203-2807,US,US/Central,KRBD,2019-04-18 22:53:00,56.0,56.0,67.0,29.21,10.0,N,13.0,0.0,Cloudy,False,False,False,False,False,False,False,False,False,False,False,False,False,Night,Night,Night,Night
C-5151610,2,2021-03-30 05:28:05,2021-04-08 02:53:14,28.255735,-81.486198,28.254843,-81.48054499999998,0.3495223678369999,Roadwork on CR-532/Osceola Polk Line Rd (US-92/US-17) from CR-535/Broad St/Ham Brown Rd (US-92/US-17) to US-92 E - US-17 N - US-92 W - US-17 S.,,S Poinciana Blvd,R,Kissimmee,Osceola,FL,34758,US,US/Eastern,KISM,2021-03-30 05:56:00,69.0,69.0,93.0,30.07,10.0,ENE,6.0,0.0,Cloudy,False,False,True,False,False,False,False,False,False,False,False,True,False,Night,Night,Night,Night
C-5151611,2,2021-09-17 13:48:00,2021-09-17 15:52:11,33.422035,-111.925095,33.422018,-111.927399,0.132871958696,Slow traffic from S McClintock Dr (E University Dr) to S Mill Ave (University Dr) due to roadwork.,923.0,E University Dr,R,Tempe,Maricopa,AZ,85281-4205,US,US/Mountain,KPHX,2021-09-17 13:51:00,95.0,95.0,25.0,28.75,10.0,E,6.0,0.0,Mostly Cloudy,False,False,True,False,False,False,False,False,False,False,False,False,False,Day,Day,Day,Day
C-5151612,2,2020-11-18 04:39:00,2020-11-18 05:02:00,40.722279,-73.980149,40.724069,-73.978865,0.140771544225,Stationary traffic from E Houston St (Avenue C) to FDR Dr/Avenue C (Avenue C) due to roadwork.,51.0,Avenue C,L,New York,New York,NY,10009-7523,US,US/Eastern,KJRB,2020-11-18 04:51:00,34.0,27.0,54.0,30.21,10.0,WNW,9.0,0.0,Fair,True,False,True,False,False,False,False,False,False,False,False,True,False,Night,Night,Night,Night
C-5151613,2,2021-05-24 18:02:00,2021-05-25 00:16:30,30.781057,-91.021242,30.808064,-91.003653,2.13817394193,Slow traffic on LA-67 from LA-959 (LA-67) to LA-63 (LA-67) due to roadwork.,4201.0,Highway 67,R,Slaughter,East Feliciana,LA,70777-4030,US,US/Central,KBTR,2021-05-24 17:53:00,83.0,83.0,44.0,30.03,10.0,SE,10.0,0.0,Fair,False,False,False,False,False,False,False,False,False,False,False,False,False,Day,Day,Day,Day
C-5151614,2,2021-06-28 08:00:00,2021-06-29 14:45:00,42.872613,-87.97103800000002,42.872564,-87.94852,1.1402352479200002,Construction on WI-100 SB near S 43RD ST Expect delays.,4301.0,W Ryan Rd,L,Franklin,Milwaukee,WI,53132,US,US/Central,KMKE,2021-06-28 07:52:00,68.0,68.0,81.0,29.37,10.0,VAR,5.0,0.0,Cloudy,False,False,False,False,False,False,False,False,False,False,False,False,False,Day,Day,Day,Day
C-5151615,2,2021-10-07 12:01:00,2021-10-07 18:15:00,41.530433,-122.276276,41.520873,-122.303676,1.56369148738,Construction on US-97 SB near COUNTY ROAD A-12 Expect long delays.,15679.0,State Highway 97,L,Montague,Siskiyou,CA,96064,US,US/Pacific,KSIY,2021-10-07 11:53:00,53.0,53.0,52.0,27.26,10.0,CALM,0.0,0.0,Fair,False,False,False,False,False,False,False,False,False,False,False,False,False,Day,Day,Day,Day
C-5151616,2,2018-08-13 11:05:00,2018-08-13 15:00:00,43.64322,-72.271231,43.65056,-72.257571,0.850658821951,At RT-120/Exit 18 - Construction work. 2 lanes closed.,,I-89 S,R,Lebanon,Grafton,NH,03766,US,US/Eastern,KLEB,2018-08-13 10:53:00,72.0,,81.0,30.1,10.0,Calm,,0.0,Overcast,False,False,False,False,False,False,False,False,False,False,False,False,False,Day,Day,Day,Day
C-5151617,2,2021-10-09 13:11:30,2021-10-09 13:32:00,30.51189,-84.24547700000002,30.509171,-84.24838100000002,0.255294952777,Slow traffic on US-319 S - FL-61 from Maclay Rd to Market St due to roadwork.,3538.0,Thomasville Rd,L,Tallahassee,Leon,FL,32309-3413,US,US/Eastern,KTLH,2021-10-09 12:53:00,85.0,85.0,49.0,29.9,10.0,N,12.0,0.0,Partly Cloudy,False,False,True,False,False,False,False,False,False,False,False,False,False,Day,Day,Day,Day
C-5151618,2,2021-12-10 02:50:54,2021-12-11 03:35:57,43.761566,-91.35992,43.762495,-91.345733,0.7108432346410001,Construction on MN-16 EB near COUNTY ROAD 25 Allow extra time.,,State Highway 16,R,Hokah,Houston,MN,55941,US,US/Central,KLSE,2021-12-10 02:53:00,30.0,30.0,88.0,29.2,7.0,CALM,0.0,0.0,Mostly Cloudy,False,False,False,False,False,False,False,False,False,False,False,False,False,Night,Night,Night,Night
C-5151619,2,2021-09-18 17:37:30,2021-09-19 00:00:45,34.203293,-117.410681,34.21261,-117.40523600000002,0.714987567594,Roadwork from I-15/Ontario Fwy (Glen Helen Pkwy/Devore Rd) to I-215/Barstow Fwy (Devore Rd).,2729.0,Glen Helen Pkwy,L,San Bernardino,San Bernardino,CA,92407,US,US/Pacific,KSBD,2021-09-18 17:51:00,84.0,84.0,27.0,28.73,6.0,WNW,9.0,0.0,Haze,False,False,False,False,False,False,False,False,False,False,False,False,False,Day,Day,Day,Day
C-5151620,2,2021-01-27 13:38:00,2021-01-28 02:14:27,25.84373900000001,-80.120703,25.845316,-80.12031,0.111667176429,Slow traffic on FL-A1A from FL-A1A/Indian Creek Dr (Miami Beach) (North) (FL-A1A) to FL-934/71st St (FL-A1A) due to roadwork.,6076.0,Collins Ave,L,Miami Beach,Miami-Dade,FL,33140,US,US/Eastern,KMIA,2021-01-27 13:53:00,84.0,84.0,53.0,30.02,10.0,W,9.0,0.0,Partly Cloudy,False,False,False,False,False,False,False,False,False,False,False,False,False,Day,Day,Day,Day
C-5151621,2,2021-11-17 10:13:00,2021-11-17 10:36:00,33.169934999999995,-87.552878,33.170455,-87.539062,0.799849911799,Slow traffic on I-59 N - I-20 E from Black Warrior Pkwy/Exit 68 (I-59/I-20) to US-82/McFarland Blvd/Exit 73 (I-59/I-20) due to roadwork.,,I-20 E,R,Tuscaloosa,Tuscaloosa,AL,35405,US,US/Central,KTCL,2021-11-17 09:53:00,68.0,68.0,76.0,30.06,10.0,S,9.0,0.0,Fair,False,False,False,False,False,False,False,False,False,False,False,False,False,Day,Day,Day,Day
C-5151622,2,2020-10-03 12:14:30,2020-10-04 04:35:00,40.099348,-86.90410899999998,40.091799,-86.904035,0.521600888591,Stationary traffic on US-231 from CR-550 (IN-43/US-231) to I-74 (IN-43/US-231) due to roadwork.,4298.0,N US Highway 231,R,Crawfordsville,Montgomery,IN,47933-7802,US,US/Eastern,KLAF,2020-10-03 11:54:00,59.0,59.0,51.0,29.55,10.0,S,9.0,0.0,Fair,False,False,False,False,False,False,False,False,False,False,False,False,False,Day,Day,Day,Day
C-5151623,2,2021-04-26 09:27:00,2021-10-13 18:28:46,35.20084,-80.844103,35.201746,-80.843137,0.0830245482592,Slow traffic from Kenilworth Ave (Charlotte) (South) (Scott Ave) to Kenilworth Ave (Charlotte) (North) (Scott Ave) due to roadwork.,1806.0,Scott Ave,R,Charlotte,Mecklenburg,NC,28203-6066,US,US/Eastern,KCLT,2021-10-13 17:52:00,81.0,81.0,54.0,29.22,10.0,CALM,0.0,0.0,Fair,False,False,False,False,False,False,False,False,False,False,False,False,False,Day,Day,Day,Day
C-5151624,2,2021-04-26 11:30:00,2021-12-23 12:12:45,38.879126,-77.252487,38.885711,-77.220252,1.7924579623400003,Slow traffic on Custis Memorial Pkwy E - I-66 E from VA-243/Nutley St/Exit 62 (I-66) to I-495/Exit 64 (I-66) due to roadwork.,,I-66 E,R,Vienna,Fairfax County,VA,22180,US,US/Eastern,KIAD,2021-10-20 16:52:00,75.0,75.0,37.0,29.75,10.0,W,7.0,0.0,Fair,False,False,False,False,False,False,False,False,False,False,False,False,False,Day,Day,Day,Day
C-5151625,4,2020-12-27 08:46:09,2021-01-04 07:59:00,33.46326,-111.919917,33.462381,-111.919952,0.0607666138803,Closed road from N Miller Rd to N 74th St due to roadwork.,7449.0,E Culver St,R,Scottsdale,Maricopa,AZ,85257-3503,US,US/Mountain,KPHX,2020-12-27 08:51:00,50.0,50.0,36.0,28.81,10.0,ESE,8.0,0.0,Partly Cloudy,True,False,False,False,False,False,False,False,False,False,False,False,False,Day,Day,Day,Day
C-5151626,2,2021-06-26 12:18:50,2021-06-26 12:41:49,41.69162,-87.69589,41.692132,-87.700847,0.258187960296,Stationary traffic from S California Ave to W 110th St due to roadwork.,2995.0,W 111th St,L,Chicago,Cook,IL,60655,US,US/Central,KMDW,2021-06-26 12:08:00,76.0,76.0,79.0,29.13,10.0,W,17.0,0.0,Thunder,True,False,True,False,False,False,True,False,True,False,False,False,False,Day,Day,Day,Day
C-5151627,2,2021-05-03 06:27:48,2021-05-03 10:21:36,41.781702,-70.604375,41.751792,-70.592229,2.15929712692,Stationary traffic on Bourne Brg S - MA-25 E - MA-28 S from Glen Charlie Rd/Exit 1 (MA-25) to End Controlled Acc (MA-25) due to roadwork.,,MA-25 E,R,Plymouth,Plymouth,MA,02360,US,US/Eastern,KPYM,2021-05-03 06:52:00,56.0,56.0,80.0,29.72,10.0,CALM,0.0,0.0,Fair,False,False,False,False,False,False,False,False,False,False,False,False,False,Day,Day,Day,Day
C-5151628,2,2020-08-25 14:00:00,2020-08-28 23:00:00,40.969326,-80.65874699999998,40.968251,-80.657115,0.112986484242,Construction on I-76 EB near MP 233 Construction. Right lane closed.,,Ohio Tpke E,R,North Lima,Mahoning,OH,44452,US,US/Eastern,KUCP,2020-08-25 13:56:00,87.0,87.0,51.0,,10.0,NW,10.0,0.0,Mostly Cloudy,False,False,False,False,False,False,False,False,False,False,False,False,False,Day,Day,Day,Day
C-5151629,2,2021-06-15 21:00:56,2021-06-16 06:45:00,41.893948,-72.643307,41.904198,-72.634687,0.83551146784,ConnDOT: Road Work on I-91 Northbound between Exits 40 and 45 (2.6 miles) in effect today until Wednesday June 16 at 6:00 am. The right and center lanes are closed. Reported Tuesday June 15 at 9:03 pm.,,I-91 N,R,Windsor,Hartford,CT,06095,US,US/Eastern,KBDL,2021-06-15 20:51:00,69.0,69.0,68.0,29.53,10.0,NW,8.0,0.0,Fair,False,False,False,False,False,False,False,False,False,False,False,False,False,Night,Day,Day,Day
C-5151630,2,2021-06-24 18:39:08,2021-09-28 09:48:00,40.742155,-73.958876,40.740567,-73.952371,0.3577734786079999,Slow traffic on I-495 E - I-495 W from 1st Ave to 21 St exit [14] due to roadwork.,,Queens Midtown Tunl,R,Long Island City,Queens,NY,11101,US,US/Eastern,KNYC,2021-09-28 09:51:00,70.0,,65.0,29.76,10.0,,,0.0,Fair,False,False,True,False,False,False,True,False,False,False,False,True,False,Day,Day,Day,Day
C-5151631,2,2020-04-28 19:14:26,2020-04-29 19:14:26,43.19522,-89.36543,43.19465,-89.32584,1.99458132222,Between River Rd and US-51 - Long-term roadwork.,4769.0,State Road 19,R,Waunakee,Dane,WI,53597,US,US/Central,KC29,2020-04-28 19:15:00,64.0,64.0,83.0,28.62,10.0,E,10.0,0.0,Cloudy,False,False,False,False,False,False,False,False,False,False,False,True,False,Day,Day,Day,Day
C-5151632,2,2020-10-27 02:30:00,2020-10-27 04:07:30,41.044901,-73.56506999999998,41.053684,-73.527579,2.04560881346,Stationary traffic on I-95 from US-1/Exit 5 (I-95) to Elm St/Exit 8 (I-95) due to roadwork.,,I-95 N,R,Old Greenwich,Fairfield,CT,06870,US,US/Eastern,KHPN,2020-10-27 02:56:00,54.0,54.0,100.0,29.59,0.25,WNW,6.0,0.0,Fog,False,False,False,False,False,False,False,False,False,False,False,False,False,Night,Night,Night,Night
C-5151633,4,2021-02-03 04:00:00,2021-02-03 15:45:00,39.165798,-122.151993,39.167558,-122.147873,0.2519879513149999,Construction on CA-20 EB near I-5 Road closed. Take alternate route.,5823.0,State Highway 20,L,Williams,Colusa,CA,95987,US,US/Pacific,KMYV,2021-02-03 03:53:00,43.0,38.0,86.0,30.12,10.0,SSE,8.0,0.0,Fair,False,False,False,False,False,False,False,False,False,False,False,False,False,Night,Night,Night,Night
C-5151634,2,2021-12-08 11:14:30,2021-12-08 13:21:02,25.92478,-80.154122,25.926209,-80.154884,0.109501570952,Slow traffic on US-1 N - FL-826 - FL-5 from US-1 to W Dixie Hwy due to roadwork.,16125.0,Biscayne Blvd,L,Aventura,Miami-Dade,FL,33160-4337,US,US/Eastern,KHWO,2021-12-08 10:53:00,79.0,79.0,60.0,30.11,10.0,SSE,5.0,0.0,Fair,False,False,False,False,False,False,False,False,True,False,False,False,False,Day,Day,Day,Day
C-5151635,2,2021-03-26 05:21:30,2021-03-26 17:29:17,32.78063,-96.772846,32.774827,-96.790187,1.08423571198,Slow traffic on R L Thornton Fwy W - US-67 S - I-30 W from 1st Ave to Ervay St exit [45] due to roadwork.,,I-30 W,R,Dallas,Dallas,TX,75226,US,US/Central,KDAL,2021-03-26 04:53:00,53.0,53.0,74.0,29.37,10.0,ESE,7.0,0.0,Fair,False,False,False,False,True,False,True,False,False,False,False,False,False,Night,Night,Night,Night
C-5151636,2,2021-12-27 14:26:00,2021-12-27 16:27:43,40.663795,-73.99445300000002,40.66546500000001,-73.992714,0.147039379362,Slow traffic from 19th St (4th Ave) to Prospect Ave (4th Ave) due to roadwork.,,19th St,R,Brooklyn,Kings,NY,11232,US,US/Eastern,KJRB,2021-12-27 14:51:00,38.0,33.0,53.0,29.9,10.0,NE,7.0,0.0,Cloudy,True,False,True,False,False,False,True,False,True,False,False,True,False,Day,Day,Day,Day
C-5151637,3,2019-03-27 18:56:27,2019-04-01 18:56:09,34.594543,-118.134786,34.581309999999995,-118.13388,0.915764430236,At CA-138/Palmdale Blvd - Roadwork.,325.0,Technology Dr,R,Palmdale,Los Angeles,CA,93551,US,US/Pacific,KPMD,2019-03-27 18:53:00,57.9,,58.0,30.0,10.0,SW,21.9,,Clear,False,False,False,False,False,False,False,False,False,False,False,False,False,Day,Day,Day,Day
C-5151638,2,2019-03-13 14:51:07,2019-03-17 14:50:49,33.743320000000004,-84.3492,33.743320000000004,-84.3492,0.0,At Faith Ave SE - Construction work. Lane blocked.,398.0,Moreland Ave SE,L,Atlanta,DeKalb,GA,30316-1925,US,US/Eastern,KATL,2019-03-13 14:52:00,70.0,,33.0,30.16,10.0,SE,11.5,,Mostly Cloudy,False,False,True,False,False,False,False,False,False,False,False,True,False,Day,Day,Day,Day
C-5151639,2,2020-04-14 23:37:51,2020-04-15 23:37:51,41.0609,-81.45987,41.06207,-81.50519,2.36241011168,Between Gilchrist Rd/Exit 27 and I-77/OH-8/Exit 23 - Resurfacing work.,,I-76 W,R,Akron,Summit,OH,44312,US,US/Eastern,KAKR,2020-04-14 23:54:00,34.0,29.0,52.0,28.95,10.0,WSW,6.0,0.0,Fair,False,False,False,False,True,False,False,False,False,False,False,False,False,Night,Night,Night,Night
C-5151640,2,2020-11-06 07:00:00,2020-11-06 18:00:00,43.924519,-90.072479,,,0.0,Left hand shoulder closed and right hand shoulder closed due to long-term construction on WI-58 both ways at CR-G.,,N7900 State Road 58,R,New Lisbon,Juneau,WI,53950,US,US/Central,KVOK,2020-11-06 06:56:00,38.0,38.0,100.0,29.09,10.0,ESE,3.0,0.0,Fair,False,False,False,False,False,False,False,False,False,False,False,False,False,Day,Day,Day,Day
C-5151641,4,2020-05-21 12:18:38,2020-06-12 20:24:41,33.05725,-96.72813,33.05636,-96.71016,1.04244506624,Closed at Alma Dr - Closed due to roadwork.,1800.0,W Spring Creek Pkwy,L,Plano,Collin,TX,75023-4201,US,US/Central,KADS,2020-05-30 22:55:00,76.0,76.0,52.0,29.42,10.0,ESE,6.0,0.0,Fair,False,False,True,False,False,False,False,False,False,False,False,True,False,Day,Day,Day,Day
C-5151642,2,2021-04-23 04:53:30,2021-04-26 00:03:08,25.73217,-80.372309,25.73318900000001,-80.36776400000002,0.291516998613,Slow traffic on FL-976 - FL-985 from SW 110th Ave to SW 38th St due to roadwork.,,SW 40th St,R,Miami,Miami-Dade,FL,33165,US,US/Eastern,KMIA,2021-04-23 04:53:00,74.0,74.0,76.0,30.01,10.0,NE,7.0,0.0,Partly Cloudy,False,False,False,False,False,False,False,False,False,False,False,False,False,Night,Night,Night,Night
C-5151643,2,2019-10-20 00:00:01,2019-10-20 23:30:00,37.2212,-108.67347,37.22045,-108.67416,0.0642382919331999,At US-491/CO-789 - Construction work.,541.0,Highway 160-491,L,Cortez,Montezuma,CO,81321-8626,US,US/Mountain,KCEZ,2019-10-20 00:00:00,56.0,56.0,17.0,23.99,10.0,W,18.0,0.0,Cloudy,False,False,False,False,False,False,False,False,False,False,False,False,False,Night,Night,Night,Night
C-5151644,2,2021-12-30 16:47:01,2021-12-30 19:14:48,40.816816,-73.928037,40.81836,-73.926662,0.128646834675,Slow traffic from Major Deegan Expy N / E 138th St to Anthony J Griffin Pl due to roadwork.,430.0,Grand Concourse,R,Bronx,Bronx,NY,10451-5308,US,US/Eastern,KLGA,2021-12-30 16:51:00,47.0,45.0,80.0,29.89,7.0,NE,5.0,0.0,Mostly Cloudy,False,False,False,False,False,False,True,False,True,False,False,True,False,Night,Day,Day,Day
C-5151645,3,2019-06-13 08:56:19,2019-06-19 08:55:11,33.766728,-118.04251,33.77128,-118.04153,0.319510371608,At Old Bolsa Chica Rd - Roadwork.,13548.0,Bolsa Chica Rd,L,Westminster,Orange,CA,92683,US,US/Pacific,KSLI,2019-06-13 08:56:00,64.0,64.0,82.0,29.92,7.0,WSW,5.0,0.0,Cloudy,False,False,False,False,False,False,False,False,False,False,False,False,False,Day,Day,Day,Day
C-5151646,4,2021-03-17 14:17:40,2021-03-18 23:59:00,40.710898,-74.24306700000002,40.71120300000001,-74.243372,0.0264434717991,Closed road from Garden State Parkway S to Garden State Pkwy N / Mill Rd due to roadwork.,532.0,N Union Ave,L,Hillside,Union,NJ,07205-1016,US,US/Eastern,KEWR,2021-03-17 13:51:00,45.0,43.0,71.0,30.15,10.0,VAR,5.0,0.0,Cloudy,False,False,False,False,False,False,False,False,False,False,False,False,False,Day,Day,Day,Day
C-5151647,2,2021-07-27 17:27:35,2021-07-27 19:33:30,26.031609,-80.143288,26.033633,-80.143839,0.143968172009,Stationary traffic on US-1 N - FL-822 - US-1 S - FL-A1A - FL-5 from Liberty St to N 19th Ave due to roadwork.,2220.0,N Federal Hwy,L,Hollywood,Broward,FL,33020-2230,US,US/Eastern,KFLL,2021-07-27 17:55:00,90.0,90.0,59.0,29.97,10.0,SSE,13.0,0.0,Partly Cloudy,False,False,False,False,False,False,False,False,False,False,False,False,False,Day,Day,Day,Day
C-5151648,2,2021-11-18 15:00:00,2021-11-18 17:04:00,33.551322,-112.065206,33.552739,-112.066548,0.124726757343,Slow traffic from E Winter Dr to N 6th St due to roadwork.,699.0,E Winter Dr,R,Phoenix,Maricopa,AZ,85020-4071,US,US/Mountain,KSDL,2021-11-18 14:53:00,81.0,81.0,11.0,28.4,10.0,ESE,6.0,0.0,Fair,False,False,False,False,False,True,False,False,False,True,False,False,False,Day,Day,Day,Day
C-5151649,2,2021-08-13 13:58:03,2021-08-13 14:22:20,40.603571,-73.99655200000002,40.601942,-73.993813,0.182519183035,Slow traffic from 18th Ave (86th St) to Bay Pkwy (86th St) due to roadwork.,2072.0,86th St,R,Brooklyn,Kings,NY,11214-3215,US,US/Eastern,KJRB,2021-08-13 13:51:00,92.0,92.0,44.0,29.94,10.0,VAR,5.0,0.0,Fair,True,False,True,False,False,False,True,False,True,False,False,True,False,Day,Day,Day,Day
C-5151650,2,2019-10-02 07:00:00,2019-10-02 15:30:00,32.5891,-96.322334,,,0.0,Intermittent lane closures due to construction work on US-175 Eastbound at TX-243.,,US-175 W,R,Kaufman,Kaufman,TX,75142,US,US/Central,KTRL,2019-10-02 06:53:00,73.0,73.0,90.0,29.5,10.0,S,5.0,0.0,Fair,False,False,False,False,False,False,False,False,False,False,False,False,False,Night,Day,Day,Day
C-5151651,2,2021-11-02 11:25:00,2021-11-02 12:35:00,44.165677,-122.260635,44.173946,-122.220534,2.06786647682,Slow traffic on OR-126 from NFD-19 (OR-126) to OR-242/McKenzie Hwy (OR-126) due to roadwork.,54000.0,McKenzie Hwy,R,Blue River,Lane,OR,97413,US,US/Pacific,KEUG,2021-11-02 11:18:00,51.0,51.0,100.0,29.77,2.0,S,3.0,0.0,Fog,False,False,False,False,False,False,False,False,False,False,False,False,False,Day,Day,Day,Day
C-5151652,2,2021-11-02 01:30:00,2021-11-02 05:45:00,38.296236,-77.49918000000002,38.296163,-77.498336,0.0460436054516,On VA-3 (Plank Rd) in the City of Fredericksburg from Altoona Dr; Apache Ter to Gateway Blvd; I-95 To Plank Rd E; FR-693N/S motorists can expect potential delays in this area from 11/02/21 at 1:30 AM until 11/02/21 at 5:00 AM due to maintenance activities. The east left lane and right lane are alternating closures.,2342.0,Plank Rd,L,Fredericksburg,Fredericksburg,VA,22401-4966,US,US/Eastern,KEZF,2021-11-02 01:35:00,48.0,48.0,100.0,30.13,10.0,CALM,0.0,0.0,Cloudy,False,False,False,False,False,False,False,False,False,False,False,True,False,Night,Night,Night,Night
C-5151654,2,2020-11-12 14:37:00,2020-11-13 00:14:52,30.444004,-91.161359,30.444174,-91.154442,0.41219299783,Slow traffic on LA-73 from S 22nd St (Government St) to S Acadian Trwy (Government St) due to roadwork.,500.0,Lavinia St,R,Baton Rouge,East Baton Rouge,LA,70806-5417,US,US/Central,KBTR,2020-11-12 14:53:00,82.0,82.0,38.0,29.9,10.0,N,7.0,0.0,Fair,False,False,False,False,False,False,False,False,False,False,False,False,False,Day,Day,Day,Day
C-5151655,2,2020-12-16 13:57:30,2020-12-17 02:01:26,26.681702,-80.250732,26.682293,-80.246923,0.238670904496,Slow traffic on FL-80 - FL-700 - US-98 E - FL-882 - US-441 S from Palms West Pkwy to Folsom Rd / Crestwood Ct N due to roadwork.,12834.0,Southern Blvd,L,Wellington,Palm Beach,FL,33414,US,US/Eastern,KPBI,2020-12-16 13:53:00,82.0,82.0,65.0,29.89,10.0,SSW,14.0,0.0,Mostly Cloudy,False,False,False,False,False,False,False,False,False,False,False,False,False,Day,Day,Day,Day
C-5151656,2,2019-07-22 09:03:14,2019-07-30 21:02:39,33.756941999999995,-84.35368100000002,33.756141,-84.35471899999997,0.0813534843148,At Hurt St NE - Construction work.,1034.0,Dekalb Ave NE,L,Atlanta,Fulton,GA,30307-2526,US,US/Eastern,KPDK,2019-07-24 20:53:00,74.0,74.0,55.0,28.96,7.0,N,5.0,0.0,Fair,True,False,False,False,False,False,False,False,False,True,False,False,False,Day,Day,Day,Day
C-5151657,2,2018-09-12 22:01:41,2018-09-16 22:01:29,40.72583,-74.01093,40.75,-74.00825999999998,1.67582766325,Between Canal St and 11th Ave - Construction work.,,West St,R,New York,New York,NY,10013,US,US/Eastern,KJRB,2018-09-12 21:56:00,73.0,,96.0,30.24,10.0,North,,0.01,Overcast,False,False,True,False,False,False,False,False,False,False,False,True,False,Night,Night,Night,Night
C-5151658,4,2020-09-12 06:56:25,2020-09-19 06:59:00,30.088058,-97.803844,30.087927,-97.803442,0.0256809073591,Closed road from Campo del Sol Pkwy to Jopoy Dr due to roadwork.,,Main St,R,Buda,Hays,TX,78610,US,US/Central,KAUS,2020-09-12 06:53:00,68.0,68.0,93.0,29.4,10.0,CALM,0.0,0.0,Fair,False,False,False,False,False,False,False,False,False,False,False,False,False,Night,Day,Day,Day
C-5151659,2,2020-06-08 21:36:52,2020-06-09 06:00:00,28.552640000000004,-81.3828,28.53836,-81.38308,0.986800378384,Between US-17-92/US-92/SR-50/W Colonial Dr and SR-526/W Washington St - Roadwork. Two lanes closed.,679.0,N Hughey Ave,R,Orlando,Orange,FL,32801,US,US/Eastern,KORL,2020-06-08 21:53:00,80.0,80.0,85.0,29.88,10.0,ESE,5.0,0.0,Fair,False,False,True,False,False,False,False,False,False,False,False,True,False,Night,Night,Night,Day
C-5151660,2,2021-08-25 17:05:40,2021-08-25 17:27:21,40.760619,-73.97357,40.76295800000001,-73.971871,0.184454424046,Slow traffic from E 42nd St (Madison Ave) to E 59th St (Madison Ave) due to roadwork.,535.0,Madison Ave,R,New York,New York,NY,10022-4301,US,US/Eastern,KNYC,2021-08-25 16:51:00,88.0,88.0,48.0,29.96,10.0,CALM,0.0,0.0,Partly Cloudy,True,False,True,False,False,False,False,False,True,False,False,True,False,Day,Day,Day,Day
C-5151661,2,2021-05-07 05:59:00,2021-05-07 09:06:06,40.714016,-73.831742,40.716217,-73.825587,0.356411094974,Slow traffic from Metropolitan Ave (NY-25) exit [6] to Grand Central Pkwy W exit [8W] due to roadwork.,,Jackie Robinson Pkwy N,R,Kew Gardens,Queens,NY,11415,US,US/Eastern,KLGA,2021-05-07 05:51:00,51.0,51.0,44.0,29.9,10.0,NNE,6.0,0.0,Fair,False,False,False,False,False,False,False,False,False,False,False,False,False,Day,Day,Day,Day
C-5151662,2,2020-12-16 16:01:00,2020-12-17 02:46:00,39.148998,-121.579958,39.148843,-121.58186200000002,0.102581596127,Lane closure due to Utility Work between R - Freeman St - Lt and Swezey St,224.0,E 12th St,R,Marysville,Yuba,CA,95901-4951,US,US/Pacific,KMYV,2020-12-16 15:53:00,52.0,52.0,71.0,30.07,10.0,SSE,7.0,0.0,Cloudy,False,False,False,False,False,False,False,False,False,True,False,False,False,Day,Day,Day,Day
C-5151663,2,2021-12-15 18:03:22,2021-12-15 20:11:55,32.838248,-97.324786,32.8383,-97.321276,0.203796318327,Stationary traffic from Superior Pkwy to Mark IV Pkwy due to roadwork.,2052.0,NE Loop 820,R,Fort Worth,Tarrant,TX,76106-1735,US,US/Central,KFTW,2021-12-15 17:53:00,76.0,76.0,64.0,29.12,10.0,S,22.0,0.0,Fair / Windy,False,False,False,False,False,False,False,False,False,False,False,False,False,Night,Night,Day,Day
C-5151664,2,2021-10-14 18:00:00,2021-10-14 20:08:49,33.465748,-112.049011,33.466196000000004,-112.047691,0.0821387171429,Stationary traffic from N 15th St to E Almeria Rd due to roadwork.,1539.0,E McDowell Rd,R,Phoenix,Maricopa,AZ,85006-2940,US,US/Mountain,KPHX,2021-10-14 17:51:00,79.0,79.0,14.0,28.75,10.0,WSW,8.0,0.0,Fair,True,False,False,False,False,False,False,False,False,False,False,False,False,Night,Day,Day,Day
C-5151665,2,2021-03-03 03:29:32,2021-12-10 19:34:21,41.647423,-91.543107,41.64595900000001,-91.540236,0.1794557997949999,Slow traffic on IA-1 from Shirken Dr to Airport Rd due to roadwork.,225.0,Highway 1 W,L,Iowa City,Johnson,IA,52246-4245,US,US/Central,KIOW,2021-12-10 16:52:00,43.0,39.0,89.0,28.73,3.0,E,7.0,0.03,Light Rain,False,False,False,False,False,False,False,False,True,False,False,False,False,Night,Night,Night,Night
C-5151666,2,2020-12-18 17:30:00,2020-12-18 22:45:00,38.641558,-77.266336,38.652475,-77.255859,0.942653593899,On US-1 (Jefferson Davis Hwy) in the County of Prince William from Jefferson Davis Hwy; Village Dr; Rt. 1317E/W (Prince William County) to Jefferson Davis Hwy; Marys Way; Marys Wy; Rt. 1270N/S (Prince William County) motorists can expect potential delays in this area from 12/18/20 at 9:30 AM until 12/18/20 at 2:00 PM due to construction activities. The south left lane is closed.,14307.0,Jefferson Davis Hwy,L,Woodbridge,Prince William,VA,22191-2710,US,US/Eastern,KDAA,2020-12-18 17:56:00,39.0,35.0,65.0,30.31,10.0,WNW,5.0,0.0,Cloudy,False,False,True,False,False,False,False,False,False,False,False,True,False,Night,Night,Day,Day
C-5151667,3,2020-03-29 10:19:37,2020-04-02 10:18:46,34.06707,-118.39919,34.06705,-118.39577,0.19575124754,At Doheny Dr - Roadwork.,101.0,S Beverly Dr,R,Beverly Hills,Los Angeles,CA,90212-3002,US,US/Pacific,KSMO,2020-03-29 09:51:00,58.0,58.0,70.0,29.93,10.0,CALM,0.0,0.0,Partly Cloudy,False,False,False,False,False,False,False,False,True,False,False,True,False,Day,Day,Day,Day
C-5151668,3,2021-05-24 22:00:00,2021-05-25 05:00:00,42.592396,-84.463295,,,2.97000002861,Road closed due to construction on US-127 Northbound from Exit 64 Kipp Rd to Exit 66 M-36 Cedar St.,,N Cedar Rd,R,Mason,Ingham,MI,48854,US,US/Eastern,KTEW,2021-05-24 21:55:00,73.0,73.0,86.0,29.1,10.0,SE,7.0,0.0,Fair,False,False,False,False,False,False,False,False,False,False,False,False,False,Night,Night,Day,Day
C-5151669,2,2021-12-31 12:43:30,2021-12-31 14:50:35,39.763698,-86.33938,39.764293,-86.33668399999998,0.148972350842,Stationary traffic on US-36 E - US-36 W from Shiloh Crossing Dr to Shiloh Xing / N County Road 1050 E due to roadwork.,10344.0,E US Highway 36,L,Avon,Hendricks,IN,46123-7050,US,US/Eastern,KIND,2021-12-31 12:54:00,51.0,51.0,86.0,28.88,8.0,SSE,8.0,0.0,Mostly Cloudy,False,False,False,False,False,False,False,False,False,False,False,False,False,Day,Day,Day,Day
C-5151670,3,2016-09-16 20:01:28,2016-09-17 02:01:28,39.04218,-94.6675,38.99042,-94.70057,3.99267566779,Between I-635/Exit 231 and 75th St/Exit 227 - Maintenance work.,,US-69 S,R,Shawnee,Johnson,KS,66203,US,US/Central,KNKA,2016-09-16 18:22:00,,,,,,North,,,,False,False,False,False,False,False,False,False,False,False,False,False,False,Night,Night,Day,Day
C-5151671,2,2020-10-03 16:53:30,2020-10-03 17:19:30,39.090868,-104.862173,39.103488,-104.864283,0.879268759993,Slow traffic on I-25 from CO-105/Exit 161 (I-25) to County Line Rd/Exit 163 (I-25) due to roadwork.,,I-25 N,R,Monument,El Paso,CO,80132,US,US/Mountain,KAFF,2020-10-03 16:56:00,64.0,64.0,26.0,23.71,10.0,SSE,6.0,0.0,Fair,False,False,False,False,False,False,False,False,False,False,False,False,False,Day,Day,Day,Day
C-5151672,2,2017-10-04 08:48:15,2017-10-04 15:01:52,39.9843,-75.852175,39.984309,-75.851336,0.0444216791314,At Old Wilmington Rd - Roadwork. Traffic problem.,1093.0,W Lincoln Hwy,R,Coatesville,Chester,PA,19320-1856,US,US/Eastern,KMQS,2017-10-04 08:55:00,57.2,,100.0,30.48,4.0,Variable,4.6,,Clear,False,False,False,False,False,False,False,False,False,False,False,False,False,Day,Day,Day,Day
C-5151673,2,2021-06-18 16:39:33,2021-06-18 16:59:33,40.179011,-80.260367,40.180397,-80.262126,0.133389944045,Stationary traffic on PA-18 from W Chestnut St (US-40/W Maiden St/PA-18) to I-70/E Wylie Ave (Jefferson Ave/PA-18) due to roadwork.,,Jefferson Ave,R,Washington,Washington,PA,15301,US,US/Eastern,KAFJ,2021-06-18 16:53:00,77.0,77.0,62.0,28.58,10.0,S,14.0,0.0,Fair,False,False,True,False,False,False,False,False,False,True,False,False,False,Day,Day,Day,Day
C-5151674,2,2021-06-17 06:28:00,2021-06-18 07:47:33,39.967972,-79.807337,39.960512,-79.798037,0.712899351213,Construction on PA-43 SB near MP 20 Construction. Left lane closed.,,Mon-Fayette Expy S,R,Smock,Fayette,PA,15480,US,US/Eastern,KAGC,2021-06-17 06:53:00,51.0,51.0,77.0,28.73,10.0,CALM,0.0,0.0,Fair,False,False,False,False,True,False,False,False,False,False,False,False,False,Day,Day,Day,Day
C-5151675,2,2021-12-06 07:51:00,2021-12-06 10:04:53,39.76211,-86.336722,39.763699,-86.33254000000002,0.2477669181239999,Slow traffic on US-36 E - US-36 W from Conrail Railroad to Washington due to roadwork.,,N Ronald Reagan Pkwy,R,Avon,Hendricks,IN,46123,US,US/Eastern,KIND,2021-12-06 07:54:00,33.0,22.0,70.0,29.04,10.0,WNW,17.0,0.0,Partly Cloudy,False,False,False,False,False,False,False,False,False,False,False,False,False,Night,Day,Day,Day
C-5151676,3,2019-09-14 16:05:54,2019-11-15 15:35:22,38.86126,-77.09198,38.85638,-77.1098,1.01632402081,Between S Walter Reed Dr and S Four Mile Run Dr - Construction work. Lane blocked.,,S Glebe Rd,R,Arlington,Arlington,VA,22204,US,US/Eastern,KDCA,2019-09-14 15:52:00,80.0,80.0,67.0,30.17,10.0,S,12.0,0.0,Cloudy,False,False,True,False,False,False,False,False,False,False,False,True,False,Day,Day,Day,Day
C-5151677,2,2017-06-26 19:01:19,2017-06-27 01:01:19,38.695001,-90.450437,38.70311,-90.449944,0.560908870368,Between MO-D/Page Ave/Exit 16 and 16b - Maintenance work.,,I-270 N,R,Saint Louis,St. Louis County,MO,63146,US,US/Central,KSTL,2017-06-26 18:51:00,72.0,,49.0,30.09,10.0,WSW,10.4,,Scattered Clouds,False,False,False,False,False,False,False,False,False,False,False,False,False,Day,Day,Day,Day
C-5151678,2,2021-06-11 16:37:43,2021-06-14 17:04:49,47.744463,-116.792274,47.698528,-116.791757,3.17389720277,Construction on US-95 SB near LANCASTER RD Allow extra time.,7999.0,N Highway 95,L,Coeur D Alene,Kootenai,ID,83815,US,US/Pacific,KCOE,2021-06-11 16:56:00,66.0,66.0,38.0,27.52,10.0,WSW,13.0,0.0,Mostly Cloudy,False,False,True,False,False,False,False,False,False,False,False,True,False,Day,Day,Day,Day
C-5151679,2,2020-12-30 04:44:00,2020-12-30 08:30:00,30.689375,-88.03782,30.690507,-88.033798,0.251446273914,Construction on I-10 EB near MM 27 Construction. Left lane closed.,,George C Wallace Tunl E,R,Mobile,Mobile,AL,36603,US,US/Central,KBFM,2020-12-30 04:53:00,55.0,55.0,93.0,30.15,10.0,E,7.0,0.0,Mostly Cloudy,False,False,False,False,False,False,False,False,False,False,False,False,False,Night,Night,Night,Night
C-5151682,2,2021-02-04 04:30:00,2021-02-04 13:45:00,29.531799,-95.813293,29.53209600000001,-95.803943,0.562467201514,Construction on I-69 NB near TX-36 Right lane closed. Expect delays.,,I-69 N,R,Rosenberg,Fort Bend,TX,77471,US,US/Central,KSGR,2021-02-04 04:53:00,63.0,63.0,90.0,29.75,10.0,S,8.0,0.0,Cloudy,False,False,False,False,False,False,False,False,False,False,False,False,False,Night,Night,Night,Night
C-5151683,2,2021-04-30 10:11:00,2021-04-30 18:37:07,44.941353,-93.275346,44.937738,-93.27532,0.249775948559,Slow traffic from CR-3/E Lake St (Stevens Ave) to E 36th St/W 35th St (Stevens Ave) due to roadwork.,3401.0,Stevens Ave,L,Minneapolis,Hennepin,MN,55408,US,US/Central,KMSP,2021-04-30 09:53:00,46.0,42.0,46.0,29.37,10.0,NNE,7.0,0.0,Fair,False,False,True,False,False,False,False,False,False,False,False,True,False,Day,Day,Day,Day
C-5151684,2,2021-11-10 16:49:40,2021-11-10 18:52:32,30.248439,-81.760194,30.248414,-81.76236800000002,0.129769523398,Stationary traffic on FL-134 from Wesconnett Blvd (FL-134) to I-295 (FL-134) due to roadwork.,5388.0,Daniell Ter,R,Jacksonville,Duval,FL,32210-6867,US,US/Eastern,KNIP,2021-11-10 16:53:00,70.0,70.0,71.0,30.11,10.0,ENE,6.0,0.0,Mostly Cloudy,False,False,True,False,False,False,False,False,False,False,False,True,False,Day,Day,Day,Day
C-5151685,1,2021-04-05 11:14:13,2021-08-31 23:59:00,40.471069,-80.20630600000001,,,0.0,Road closed due to construction work on Mcclaren Rd both ways between Sabre Rd and Resurrection Rd.,151.0,Resurrection Rd,R,Coraopolis,Allegheny,PA,15108,US,US/Eastern,KPIT,2021-04-05 10:51:00,55.0,55.0,40.0,28.86,10.0,SE,5.0,0.0,Mostly Cloudy,False,False,False,False,False,False,False,False,False,False,False,False,False,Day,Day,Day,Day
C-5151686,2,2020-09-25 20:27:00,2020-09-26 08:49:02,33.584058,-99.788734,33.584045,-99.790384,0.0949782763054,Roadwork on US-82 from FM-267 (TX-114/US-82) to TX-6/Hinton St (TX-114/US-82).,,E Hayes St,R,Seymour,Knox,TX,76380,US,US/Central,KF05,2020-09-25 20:35:00,78.0,78.0,54.0,28.54,10.0,SSE,10.0,0.0,Fair,False,False,False,False,False,False,False,False,False,False,False,False,False,Night,Night,Night,Day
C-5151687,3,2019-12-20 03:47:16,2019-12-20 05:01:00,34.032959000000005,-118.416298,,,1.34000003338,Exit ramp from I-10 Westbound at Exit 4 to Overland Ave closed due to construction work.,10598.0,Dunleer Dr,L,Los Angeles,Los Angeles,CA,90064-4318,US,US/Pacific,KSMO,2019-12-20 03:51:00,49.0,49.0,38.0,29.99,10.0,NE,3.0,0.0,Fair,False,False,False,False,False,False,False,False,False,False,False,False,False,Night,Night,Night,Night
C-5151688,2,2020-11-24 14:17:30,2020-11-24 22:22:30,40.177877,-74.912402,40.176161,-74.92027900000002,0.432408446658,Stationary traffic on PA-213 from US-1/N Flowers Mill Rd (Old Lincoln Hwy/E Maple Ave/PA-213) to Old Lincoln Hwy/Golf Club Dr (W Maple Ave/PA-213) due to roadwork.,404.0,E Maple Ave,R,Langhorne,Bucks,PA,19047-2838,US,US/Eastern,KTTN,2020-11-24 13:53:00,48.0,44.0,44.0,30.1,10.0,N,8.0,0.0,Fair,False,False,False,False,False,False,False,False,False,False,False,False,False,Day,Day,Day,Day
C-5151689,3,2017-07-06 20:00:59,2017-07-07 02:00:59,36.05355,-79.68556,36.003194,-79.853769,10.022412029,Between I-40/I-85-br and I-73/US-421/Exit 120B/Exit 121 - Construction work.,,I-85 S,R,Greensboro,Guilford,NC,27406,US,US/Eastern,KGSO,2017-07-06 19:54:00,84.9,,67.0,29.96,10.0,SW,12.7,,Mostly Cloudy,False,False,False,False,False,False,False,False,False,False,False,False,False,Day,Day,Day,Day
C-5151690,2,2021-05-21 07:04:00,2021-10-29 15:08:34,40.683751,-73.816889,40.684819,-73.813428,0.195776408509,Stationary traffic from 125th St to 131st St due to roadwork.,12504.0,109th Ave,R,South Ozone Park,Queens,NY,11420-1506,US,US/Eastern,KJFK,2021-09-23 07:51:00,75.0,75.0,87.0,29.94,10.0,SE,16.0,0.0,Mostly Cloudy,False,False,True,False,False,False,False,False,False,True,False,True,False,Day,Day,Day,Day
C-5151691,2,2021-12-01 16:47:58,2021-12-01 17:07:58,33.76435,-84.384123,33.757112,-84.384236,0.500140292869,Slow traffic from US-78/US-278/US-29/GA-8/North Ave (Courtland St) to Edgewood Ave (Courtland St) due to roadwork.,,Courtland St NE,R,Atlanta,Fulton,GA,30308,US,US/Eastern,KFTY,2021-12-01 16:53:00,66.0,66.0,37.0,29.19,10.0,S,5.0,0.0,Fair,False,False,True,False,False,False,False,False,False,False,False,True,False,Day,Day,Day,Day
C-5151692,2,2021-10-11 20:33:00,2021-10-12 02:59:13,39.24584,-86.484375,39.240806,-86.497919,0.803886694737,Roadwork from N Miller Rd to N Old State Road 37.,4004.0,E Robinson Rd,R,Bloomington,Monroe,IN,47408-9540,US,US/Eastern,KBMG,2021-10-11 20:53:00,70.0,70.0,81.0,28.86,10.0,S,10.0,0.0,Partly Cloudy,False,False,False,False,False,False,False,False,False,False,False,False,False,Night,Night,Night,Day
C-5151693,2,2019-05-08 07:08:35,2019-05-08 15:08:00,43.071663,-122.336438,42.92117,-122.42935,11.4090126377,Between Boundary Spring Trail and OR-62/Crater Lake Hwy - Maintenance work.,,W Diamond Lake Hwy,R,Idleyld Park,Douglas,OR,97447,US,US/Pacific,KRBG,2019-05-08 06:53:00,48.0,48.0,80.0,29.64,10.0,NNE,3.0,0.0,Fair,False,False,False,False,False,False,False,False,False,False,False,False,False,Day,Day,Day,Day
C-5151694,2,2021-05-14 06:00:00,2021-10-31 18:45:00,41.42881,-81.816676,41.43853,-81.796376,1.24771966607,Construction on I-71 NB near I-480 Allow extra time.,,Berea Fwy N,R,Cleveland,Cuyahoga,OH,44135,US,US/Eastern,KCLE,2021-05-14 05:51:00,38.0,38.0,83.0,29.43,10.0,CALM,0.0,0.0,Fair,False,False,False,False,False,False,False,False,False,False,False,False,False,Night,Day,Day,Day
C-5151695,4,2018-10-04 08:25:53,2018-10-04 13:25:36,40.95187,-90.40758,40.923409,-90.444047,2.73676384806,Closed between US-150/Henderson St and CR-15/140th St - Closed due to roadwork.,,Chicago-Kansas City Expressway W,R,Galesburg,Knox,IL,61401,US,US/Central,KGBG,2018-10-04 08:15:00,48.6,,76.0,30.17,10.0,NNW,15.0,,Clear,False,False,False,False,False,False,False,False,False,False,False,False,False,Day,Day,Day,Day
C-5151696,2,2018-04-26 02:50:44,2018-04-26 05:00:00,47.158882,-122.305244,,,7.860000133510001,Intermittent lane closures due to construction during the night on WA-512 both ways from Canyon Rd to 9th St.,,WA-512 E,R,Puyallup,Pierce,WA,98373,US,US/Pacific,KPLU,2018-04-26 02:55:00,46.4,,100.0,30.04,10.0,Calm,,,Clear,False,False,False,False,False,False,False,False,False,False,False,False,False,Night,Night,Night,Night
C-5151697,2,2021-06-23 15:40:30,2021-06-23 17:56:49,27.89044,-82.506289,27.894363,-82.50623900000002,0.271070681778,Slow traffic on US-92 E - FL-573 from W Ballast Point Blvd to Selmon Connector E due to roadwork.,5132.0,S Dale Mabry Hwy,L,Tampa,Hillsborough,FL,33611-3572,US,US/Eastern,KMCF,2021-06-23 15:56:00,85.0,85.0,72.0,30.05,10.0,NNW,8.0,0.0,Fair,False,False,False,False,False,False,False,False,True,False,False,False,False,Day,Day,Day,Day
C-5151698,2,2020-09-28 17:00:00,2020-10-03 06:59:59,40.91610900000001,-73.812009,40.904828,-73.813934,0.785897383858,Bridge replacement on Hutchinson River Parkway [Westchester] both directions ramps to/from Exit 12 - First Avenue; City of Mount Vernon; Town of Pelham Line (Pelham) D900049//20190883246 Monday September 28th 2020 thru Friday October 2nd 2020 Monday thru Friday 10:00 AM thru 03:30 PM various lane closures Monday October 5th 2020 thru Friday October 9th 2020 Monday thru Friday 10:00 AM thru 03:30 PM various lane closures,,Hutchinson River Pkwy S,R,Mount Vernon,Westchester,NY,10553,US,US/Eastern,KLGA,2020-09-28 16:51:00,78.0,78.0,60.0,29.86,10.0,S,17.0,0.0,Partly Cloudy,False,False,False,False,True,False,False,False,False,False,False,False,False,Day,Day,Day,Day
C-5151699,2,2020-05-27 02:10:50,2020-05-27 05:00:00,34.281582,-118.863487,,,1.1100000143100002,Entry ramp to Ca-23 Southbound from Los Angeles Ave Southbound closed due to construction.,,CA-23,R,Moorpark,Ventura,CA,93021,US,US/Pacific,KCMA,2020-05-27 01:55:00,61.0,61.0,87.0,29.81,0.5,SSW,3.0,0.0,Fog,False,False,False,False,False,False,False,False,False,False,False,False,False,Night,Night,Night,Night
C-5151700,2,2021-10-31 00:00:00,2021-12-23 00:45:00,43.07987,-86.216435,43.076904,-86.217943,0.218606157769,Construction on US-31 SB near MI-104 Expect delays.,,US-31 S,R,Spring Lake,Ottawa,MI,49456,US,US/Eastern,KMKG,2021-10-31 00:55:00,47.0,47.0,83.0,29.05,10.0,WNW,3.0,0.0,Fair,False,False,False,False,True,False,False,False,False,False,False,False,False,Night,Night,Night,Night
C-5151701,2,2020-10-05 11:07:00,2020-10-05 19:02:30,40.994514,-73.659524,40.988076,-73.671441,0.764283725316,Slow traffic on I-95 S - I-287 W from Delavan Ave exit [2] to exit [21] due to roadwork.,,I-95 S,R,Greenwich,Fairfield,CT,06830,US,US/Eastern,KHPN,2020-10-05 21:56:00,54.0,54.0,93.0,29.7,10.0,CALM,0.0,0.0,Fair,False,False,False,False,False,False,False,False,False,False,False,False,False,Day,Day,Day,Day
C-5151702,2,2021-08-13 10:51:10,2021-08-13 11:31:30,45.788138,-120.094538,45.799826,-120.058593,1.91069043226,Stationary traffic on WA-14 from Roosevelt Grade Rd/Railroad Ave (WA-14) to Alderdale Rd (WA-14) due to roadwork.,,Highway 14,R,Bickleton,Klickitat,WA,99322,US,US/Pacific,KYKM,2021-08-13 10:53:00,82.0,82.0,35.0,28.91,2.0,WNW,3.0,0.0,Fair,False,False,False,False,False,False,False,False,False,False,False,False,False,Day,Day,Day,Day
C-5151703,2,2020-11-04 14:17:00,2020-11-05 03:18:09,42.040932,-87.712047,42.039869,-87.71079499999998,0.0975795306409999,Slow traffic from Ewing Ave to Main St due to roadwork.,3333.0,Dempster St,R,Skokie,Cook,IL,60076-2411,US,US/Central,KORD,2020-11-04 13:51:00,73.0,73.0,31.0,29.29,10.0,SW,17.0,0.0,Fair,False,False,False,False,False,False,False,False,False,False,False,False,False,Day,Day,Day,Day
C-5151704,2,2021-05-20 19:00:00,2021-05-21 06:00:00,37.044082,-81.138423,37.035143,-81.125997,0.922560892613,On I-77 in the County of Bland from mile marker 50.1 to mile marker 47.7 motorists can expect potential delays in this area from 05/20/21 at 7:00 PM until 05/21/21 at 6:00 AM due to maintenance activities. The north left shoulder and left lane are closed.,,I-77 S,R,Bland,Bland,VA,24315,US,US/Eastern,KBLF,2021-05-20 18:52:00,74.0,,32.0,27.42,10.0,,,0.0,Fair,False,False,False,False,False,False,False,False,False,False,False,False,False,Day,Day,Day,Day
C-5151705,2,2021-06-02 09:30:00,2021-06-02 20:09:20,41.202238,-79.950975,41.196148,-79.88711500000002,3.34648475802,Roadwork on I-80 eastbound between .2 miles east of Exit : REST AREA and 2.2 miles west of Exit 35: PA 308 - CLINTONVILLE. There is a lane restriction.,,I-80 E,R,Harrisville,Venango,PA,16038,US,US/Eastern,KFKL,2021-06-02 09:56:00,62.0,62.0,72.0,28.53,10.0,SE,6.0,0.0,Fair,False,False,False,False,False,False,False,False,False,False,False,False,False,Day,Day,Day,Day
C-5151706,2,2021-06-21 22:54:30,2021-06-22 00:30:30,45.259556,-122.769339,45.275332,-122.769066,1.09009862482,Stationary traffic on OR-551 from Arndt Rd (Hubbard Cutoff Rd) to I-5/Exit 282A (Wilsonville Hubbard Hwy No 51) due to roadwork.,14250.0,NE Arndt Rd,R,Aurora,Marion,OR,97002-8761,US,US/Pacific,KUAO,2021-06-21 22:53:00,73.0,73.0,59.0,29.66,10.0,SW,3.0,0.0,Fair,False,False,True,False,False,False,False,False,False,False,False,True,False,Night,Night,Night,Day
C-5151707,1,2020-06-10 07:00:00,2020-06-10 09:00:00,35.971378,-83.91983,,,0.0,Road closed due to construction work on Ogden St both ways between Magnolia Ave and Depot Ave.,301.0,King St,L,Knoxville,Knox,TN,37917-7531,US,US/Eastern,KTYS,2020-06-10 07:00:00,74.0,74.0,87.0,28.9,10.0,SSW,7.0,0.0,Cloudy,False,False,False,False,False,False,False,False,False,False,False,False,False,Day,Day,Day,Day
C-5151708,2,2021-12-10 08:45:02,2021-12-10 10:47:35,28.564733,-81.286062,28.568198,-81.285504,0.241791376201,Slow traffic on FL-551 - FL-50 from Gatehouse Cir to Fabian Ave due to roadwork.,1522.0,N Goldenrod Rd,L,Orlando,Orange,FL,32807-8343,US,US/Eastern,KORL,2021-12-10 08:53:00,70.0,70.0,90.0,30.05,10.0,ENE,6.0,0.0,Fair,False,False,True,False,False,False,False,False,False,False,False,False,False,Day,Day,Day,Day
C-5151709,2,2017-08-30 09:00:55,2017-08-30 15:00:55,25.595781,-80.366899,25.594711,-80.375793,0.559122578861,Between 109th Ave and 113th Ave - Construction work.,10850.0,Quail Roost Dr,R,Cutler Bay,Miami-Dade,FL,33157-6741,US,US/Eastern,KTMB,2017-08-30 08:53:00,84.9,,77.0,30.01,10.0,South,3.5,,Clear,False,False,False,False,False,False,False,False,False,False,False,False,False,Day,Day,Day,Day
C-5151710,2,2016-06-13 07:36:49,2016-06-13 23:59:00,42.81289,-73.969327,42.81152,-73.95084,0.941799305322,Between West Ave and RT-5S/Erie Blvd/Exit 4 - Construction work.,,I-890 E,R,Schenectady,Schenectady,NY,12306,US,US/Eastern,KSCH,2016-06-13 07:48:00,55.4,,72.0,29.86,10.0,West,9.2,,Scattered Clouds,False,False,False,False,False,False,False,False,False,False,False,False,False,Day,Day,Day,Day
C-5151711,2,2020-02-28 02:12:39,2020-03-02 23:59:59,40.7346,-73.29057,40.7346,-73.29057,0.0,At Robert Moses Cswy/Exit 40 - Construction work.,,Southern State Pkwy E,R,Bay Shore,Suffolk,NY,11706,US,US/Eastern,KISP,2020-02-28 01:56:00,30.0,18.0,45.0,29.71,10.0,W,18.0,0.0,Fair,False,False,False,False,True,False,False,False,False,False,False,False,False,Night,Night,Night,Night
C-5151712,2,2021-10-07 11:53:00,2021-10-07 12:13:00,46.284197,-118.888431,46.284266,-118.898557,0.483531638368,Stationary traffic from Ice Harbor Rd to Jake Rd due to roadwork.,1699.0,Ice Harbor Rd,R,Pasco,Franklin,WA,99301-9764,US,US/Pacific,KPSC,2021-10-07 11:53:00,58.0,58.0,46.0,29.69,10.0,CALM,0.0,0.0,Fair,False,False,False,False,False,False,False,False,False,False,False,False,False,Day,Day,Day,Day
C-5151713,2,2020-11-03 17:42:53,2020-11-10 23:09:49,40.999955,-85.818773,41.000079,-85.802146,0.8670647624240001,Roadwork on IN-15 (E 1200 N/W IN-114) from IN-13/N Meridian St (IN-114/E 1200 N/W IN-114) to W IN-114.,1137.0,W State Road 114,R,North Manchester,Wabash,IN,46962,US,US/Eastern,KASW,2020-11-03 17:35:00,61.0,61.0,36.0,29.19,10.0,SSW,5.0,0.0,Fair,False,False,False,False,False,False,False,False,False,False,False,False,False,Night,Day,Day,Day
C-5151714,4,2019-09-12 00:36:57,2019-09-12 05:35:04,41.63878,-83.55556999999997,41.639264,-83.556134,0.0443448853663,Closed at Nebraska Ave - Closed due to roadwork.,,City Park Ave,R,Toledo,Lucas,OH,43604,US,US/Eastern,KTDZ,2019-09-12 00:53:00,71.0,71.0,84.0,29.42,10.0,E,5.0,0.0,Mostly Cloudy,False,False,False,False,False,False,False,False,False,False,False,True,False,Night,Night,Night,Night
C-5151715,2,2018-02-28 07:30:00,2018-02-28 17:30:00,26.941397,-80.093292,,,1.08000004292,Intermittent lane closures due to construction work on FL-A1A Southbound from Riverside Dr to Center St.,801.0,Old Dixie Hwy,L,Jupiter,Palm Beach,FL,33477,US,US/Eastern,KPBI,2018-02-28 07:53:00,73.9,,71.0,30.12,10.0,ESE,10.4,,Scattered Clouds,False,False,False,False,False,False,False,False,False,False,False,True,False,Day,Day,Day,Day
C-5151716,4,2019-03-27 21:02:26,2019-03-28 02:02:09,47.23034000000001,-122.44422,47.2307,-122.4429,0.0667399882596,Ramp closed to WA-16/Exit 132 - Closed due to roadwork.,,I-5 N,R,Tacoma,Pierce,WA,98418,US,US/Pacific,KTCM,2019-03-27 20:58:00,46.2,43.3,100.0,29.99,5.0,WNW,5.8,0.03,Light Rain,False,False,False,False,False,False,False,False,False,False,False,False,False,Night,Night,Night,Day
C-5151717,2,2021-10-25 15:12:30,2021-11-08 18:12:46,25.937268,-80.188622,25.941481,-80.190011,0.30361460864,Slow traffic on FL-915 - FL-860 from NE 175th St to I-95 S due to roadwork.,17611.0,NE 6th Ave,R,Miami,Miami-Dade,FL,33162-2003,US,US/Eastern,KHWO,2021-10-25 14:53:00,87.0,87.0,65.0,29.91,10.0,SW,10.0,0.0,Fair,False,False,False,False,False,False,False,False,False,False,False,False,False,Day,Day,Day,Day
C-5151718,2,2020-03-09 09:01:00,2020-03-09 15:01:00,34.22254,-117.40266,34.22254,-117.40266,0.0,At Route 215 - Maintenance work.,,I-215 N,R,San Bernardino,San Bernardino,CA,92407,US,US/Pacific,KSBD,2020-03-09 08:45:00,54.0,54.0,51.0,28.87,10.0,N,6.0,0.0,Mostly Cloudy,False,False,False,False,False,False,False,False,False,False,False,False,False,Day,Day,Day,Day
C-5151719,2,2021-05-20 21:00:00,2021-05-21 06:00:00,39.260362,-78.09891999999998,39.285072,-78.08722,1.81838029633,On I-81 North in the County of Frederick at mile marker 323 motorists can expect potential delays in this area from 05/20/21 at 9:00 PM until 05/21/21 at 6:00 AM due to signal repairs.,,I-81 N,R,Clear Brook,Frederick,VA,22624,US,US/Eastern,KOKV,2021-05-20 20:55:00,72.0,72.0,57.0,29.62,10.0,E,7.0,0.0,Partly Cloudy,False,False,False,False,False,False,False,False,False,False,False,False,False,Night,Night,Day,Day
C-5151720,2,2021-03-10 21:47:00,2021-03-10 22:52:00,32.813221,-96.628008,32.818199,-96.628648,0.345948933587,Stationary traffic on I-635 N - LBJ Fwy N from Town East Blvd exit [7] to exit [8A] due to roadwork.,,I-635 N,R,Mesquite,Dallas,TX,75150,US,US/Central,KHQZ,2021-03-10 21:55:00,70.0,70.0,74.0,29.53,10.0,S,14.0,0.0,Partly Cloudy,False,False,False,False,True,False,False,False,False,False,False,False,False,Night,Night,Night,Night
C-5151721,2,2020-05-20 20:30:44,2020-05-21 05:40:40,37.95662,-122.05283,38.02482,-122.11,5.6476452166,Between Monument Blvd and Waterfront Rd - Roadwork. Roadway reduced to 1 lane.,,I-680 N,R,Concord,Contra Costa,CA,94520,US,US/Pacific,KCCR,2020-05-20 20:53:00,65.0,65.0,56.0,30.02,10.0,WSW,9.0,0.0,Fair,False,False,False,False,False,False,False,False,False,False,False,False,False,Night,Day,Day,Day
C-5151722,2,2021-06-08 06:44:00,2021-06-08 07:04:00,40.29469,-87.29025,40.290422,-87.29144699999998,0.301562657089,Stationary traffic on IN-28 from US-41 (IN-28) to IN-263 (IN-28) due to roadwork.,415.0,State Road 28,R,Williamsport,Warren,IN,47993-1032,US,US/Central,KDNV,2021-06-08 06:35:00,70.0,70.0,100.0,29.3,7.0,S,3.0,0.0,Mostly Cloudy,False,False,False,False,False,False,False,False,False,False,False,False,False,Day,Day,Day,Day
C-5151723,2,2021-03-29 13:27:39,2021-05-09 00:44:59,40.738924,-73.987351,40.739864,-73.989571,0.133135941404,Construction on BROADWAY near E 21ST ST Allow extra time.,59.0,E 21st St,L,New York,New York,NY,10010,US,US/Eastern,KNYC,2021-03-29 13:51:00,51.0,51.0,32.0,29.95,10.0,SSW,10.0,0.0,Fair,True,False,True,False,False,False,False,False,False,False,False,True,False,Day,Day,Day,Day
C-5151724,2,2018-11-24 23:02:06,2018-12-02 21:02:20,25.810361,-80.14713,25.8104,-80.150276,0.195701807885,At Alton Rd/Exit 5 - Construction work.,,I-195 E,R,Miami Beach,Miami-Dade,FL,33140,US,US/Eastern,KMIA,2018-11-28 20:53:00,55.9,,44.0,30.13,10.0,NNW,5.8,,Clear,False,False,False,False,False,False,False,False,False,False,False,False,False,Night,Night,Night,Night
C-5151725,2,2018-08-21 19:00:00,2018-08-22 13:00:00,35.659386,-120.560913,,,5.03000020981,Intermittent lane closures due to construction work on CA-46 both ways from Union Rd to Geneseo Rd.,6590.0,E Highway 46,R,Paso Robles,San Luis Obispo,CA,93446,US,US/Pacific,KPRB,2018-08-21 18:53:00,73.0,,51.0,29.9,10.0,SSW,15.0,,Clear,False,False,False,False,False,False,False,False,False,False,False,False,False,Day,Day,Day,Day
C-5151726,2,2021-09-27 23:06:00,2021-09-27 23:26:00,36.287918,-93.177432,36.298696,-93.193757,1.17518914726,Stationary traffic on US-62 W - US-65 S - US-62 E - US-412 W - US-65 N - US-412 E from US-65/Main St/Industrial Park Rd (US-412) to US-65 (US-412) due to roadwork.,3933.0,Highway 65 N,R,Harrison,Boone,AR,72601,US,US/Central,KHRO,2021-09-27 22:53:00,63.0,63.0,81.0,28.51,10.0,SSE,6.0,0.0,Fair,False,False,False,False,False,False,False,False,False,False,False,False,False,Night,Night,Night,Night
C-5151727,2,2021-03-20 04:26:30,2021-10-13 20:17:24,25.684783,-80.43155,25.684889,-80.428203,0.2085343600939999,Slow traffic on FL-94 from FL-997/Krome Ave (N Kendall Dr) to 137th Ave (N Kendall Dr) due to roadwork.,14800.0,SW 88th St,R,Miami,Miami-Dade,FL,33196-1482,US,US/Eastern,KTMB,2021-06-29 14:53:00,83.0,83.0,77.0,30.08,10.0,WSW,8.0,0.0,Light Rain,False,False,False,False,False,False,False,False,False,False,False,False,False,Night,Night,Night,Night
C-5151728,2,2021-09-22 05:09:13,2021-09-22 06:00:00,40.812931,-74.48043100000002,,,21.920000076300006,Traffic shift due to construction on US-202 Speedwell Ave both ways between Maple Ave and Cory Rd.,318.0,Speedwell Ave,L,Morristown,Morris,NJ,07960-2938,US,US/Eastern,KMMU,2021-09-22 05:15:00,66.0,66.0,100.0,29.95,10.0,CALM,0.0,0.0,Cloudy,True,False,True,False,False,False,False,False,False,False,False,True,False,Night,Night,Night,Night
C-5151729,2,2021-04-09 10:21:00,2021-04-10 11:11:17,40.226386,-79.609605,40.308026,-79.675155,6.61524126416,Construction on I-76 WB near MP 79 Construction. Right lane closed.,,I-76 W,R,New Stanton,Westmoreland,PA,15672,US,US/Eastern,KLBE,2021-04-09 10:47:00,63.0,63.0,68.0,28.74,10.0,S,8.0,0.0,Fair,False,False,False,False,False,False,False,False,False,False,False,False,False,Day,Day,Day,Day
C-5151730,2,2021-04-26 09:01:13,2021-04-26 15:52:15,26.934411,-82.30560799999998,26.938087,-82.30436999999998,0.265188332743,Stationary traffic on FL-776 from Oriole Blvd to Belgrade Ter due to roadwork.,3085.0,S McCall Rd,L,Englewood,Charlotte,FL,34224-8640,US,US/Eastern,KVNC,2021-04-26 08:53:00,70.0,70.0,81.0,29.97,10.0,E,10.0,0.0,Fair,False,False,False,False,False,False,False,False,False,False,False,False,False,Day,Day,Day,Day
C-5151731,2,2021-08-10 11:26:00,2021-08-10 14:00:30,38.934417,-77.057839,38.936809,-77.058844,0.173873757972,Slow traffic from Macomb St NW to Klingle Rd NW due to roadwork.,3418.0,Connecticut Ave NW,L,Washington,District of Columbia,DC,20008-1306,US,US/Eastern,KDCA,2021-08-10 11:52:00,88.0,88.0,61.0,30.12,10.0,S,10.0,0.0,Fair,True,False,False,False,False,False,False,False,False,False,False,True,False,Day,Day,Day,Day
C-5151732,2,2020-07-14 07:20:00,2020-07-15 08:08:41,29.659727,-82.41680500000002,29.659727,-82.417375,0.0342232383523,Construction on FL-26 WB near I-75 Construction. Right lane closed.,,W Newberry Rd,R,Gainesville,Alachua,FL,32605,US,US/Eastern,KGNV,2020-07-14 06:53:00,77.0,77.0,100.0,29.83,7.0,W,3.0,0.0,Mostly Cloudy,False,False,True,False,False,False,False,False,False,False,False,True,False,Day,Day,Day,Day
C-5151733,2,2020-06-29 11:00:00,2020-08-14 20:33:11,26.158136,-80.77628,26.152726,-80.74125,2.20442573498,Construction on I-75 SB near MM 43 Construction. Left lane closed.,,Alligator Aly E,R,Conservation,Broward,FL,,US,,,,,,,,,,,,,False,False,False,False,False,False,False,False,False,False,False,False,False,Day,Day,Day,Day
C-5151734,2,2021-11-16 15:58:00,2021-11-16 18:39:05,33.480321999999994,-112.027877,33.480294,-112.030757,0.165983158451,Stationary traffic from N 32nd St (E Thomas Rd) to AZ-51 (E Thomas Rd) due to roadwork.,2505.0,E Thomas Rd,R,Phoenix,Maricopa,AZ,85016-7913,US,US/Mountain,KPHX,2021-11-16 15:51:00,80.0,80.0,13.0,28.67,10.0,CALM,0.0,0.0,Mostly Cloudy,False,False,False,False,False,False,False,False,True,True,False,False,False,Day,Day,Day,Day
C-5151735,2,2021-04-15 05:23:00,2021-04-15 19:09:08,26.934595,-82.308216,26.93463,-82.312955,0.29192504844,Stationary traffic on FL-776 from Pennell St (S McCall Rd/FL-776) to San Casa Dr (S McCall Rd/FL-776) due to roadwork.,3004.0,S McCall Rd,R,Englewood,Charlotte,FL,34224-8616,US,US/Eastern,KVNC,2021-04-15 05:53:00,67.0,67.0,93.0,29.93,10.0,ESE,5.0,0.0,Fair,False,False,False,False,False,False,False,False,False,False,False,True,False,Night,Night,Night,Night
C-5151736,4,2021-03-01 07:17:30,2021-12-12 11:25:30,41.351457,-85.28961,41.351736,-85.3285,2.01717332772,Closed road from IN-3 (Baseline Rd) to IN-9 (Baseline Rd) due to roadwork.,1.0,S 700 E,R,Avilla,Noble,IN,46710-9769,US,US/Eastern,KGWB,2021-10-18 14:35:00,66.0,66.0,40.0,29.18,10.0,W,7.0,0.0,Fair,False,False,False,False,False,False,False,False,False,False,False,False,False,Day,Day,Day,Day
C-5151737,2,2021-11-06 11:36:30,2021-11-06 11:56:30,30.40801,-97.679358,30.407986,-97.676085,0.195042296684,Stationary traffic on FM-734 from Metric Blvd (W Parmer Ln/FM-734) to I-35 (E Parmer Ln/FM-734) due to roadwork.,755.0,W Parmer Ln,L,Austin,Travis,TX,78758,US,US/Central,KATT,2021-11-06 11:51:00,62.0,62.0,46.0,29.57,10.0,CALM,0.0,0.0,Fair,False,False,False,False,False,False,False,False,False,False,False,True,False,Day,Day,Day,Day
C-5151738,2,2021-02-20 01:59:30,2021-02-20 15:26:53,25.773641,-80.26383100000002,25.771693,-80.263248,0.139396486315,Stationary traffic on FL-968 - FL-953 from NW 2nd Ter to NW 41st Ave due to roadwork.,212.0,NW 42nd Ave,L,Miami,Miami-Dade,FL,33126-5435,US,US/Eastern,KMIA,2021-02-20 01:53:00,67.0,67.0,84.0,30.08,10.0,NNW,5.0,0.0,Fair,True,False,False,False,False,False,False,False,True,False,False,False,False,Night,Night,Night,Night
C-5151739,2,2020-12-01 13:48:00,2020-12-01 21:22:30,27.83865,-82.786956,27.839503000000004,-82.786966,0.0589398535879999,Stationary traffic on US-19 Alt N - FL-595 from FL-666 (US-19 Alt) to Park Blvd (US-19 Alt) due to roadwork.,7313.0,Seminole Blvd,R,Seminole,Pinellas,FL,33772-5939,US,US/Eastern,KPIE,2020-12-01 13:53:00,54.0,54.0,51.0,30.18,10.0,N,12.0,0.0,Fair,False,False,True,False,False,False,False,False,False,False,False,True,False,Day,Day,Day,Day
C-5151740,2,2020-09-14 16:40:00,2020-09-14 22:45:00,38.308374,-77.635622,38.308123,-77.634658,0.0550670675578,On VA-3 (Plank Rd) in the County of Spotsylvania at Elys Ford Rd; Old Plank Rd; Rt. 610E/W (Spotsylvania County) motorists can expect potential delays in this area from 09/14/20 at 9:40 AM until 09/14/20 at 3:00 PM due to signal repairs. All east lanes are alternating closures. The west left lane right lane and right shoulder are alternating closures.,8724.0,Plank Rd,R,Spotsylvania,Spotsylvania,VA,22553,US,US/Eastern,KEZF,2020-09-14 16:35:00,76.0,76.0,59.0,30.06,10.0,NNW,8.0,0.0,Partly Cloudy,False,False,False,False,False,False,False,False,False,False,False,False,False,Day,Day,Day,Day
C-5151741,2,2021-09-17 11:45:30,2021-09-17 11:56:30,35.191394,-101.882575,35.194117,-101.871052,0.6772947756800001,Stationary traffic on I-40 E from Bell St/Exit 66 (I-40) to Julian Blvd/Paramount Blvd/Exit 68A (I-40) due to roadwork.,,I-40 E,R,Amarillo,Potter,TX,79109,US,US/Central,KAMA,2021-09-17 11:53:00,80.0,80.0,40.0,26.38,10.0,NW,12.0,0.0,Fair,False,False,False,False,False,False,False,False,False,False,False,False,False,Day,Day,Day,Day
C-5151742,2,2020-10-02 12:48:30,2020-10-02 21:05:04,26.165739,-80.168089,26.166257,-80.170877,0.176557159854,Stationary traffic on FL-816 from NW 17th Ter to NW 32nd St due to roadwork.,1855.0,W Oakland Park Blvd,L,Oakland Park,Broward,FL,33311-1517,US,US/Eastern,KFXE,2020-10-02 12:53:00,80.0,80.0,87.0,29.93,10.0,NNE,8.0,0.0,Light Rain,False,False,False,False,False,False,False,False,False,False,False,False,False,Day,Day,Day,Day
C-5151743,1,2019-01-28 06:30:00,2019-01-28 16:30:00,41.66713,-70.144707,,,0.0,Construction work on MA-28 Main St Eastbound at Shad Hole Rd.,51.0,Route 28,L,Dennis Port,Barnstable,MA,02639-1314,US,US/Eastern,KHYA,2019-01-28 06:56:00,34.0,26.0,64.0,30.0,10.0,North,10.4,,Clear,False,False,False,False,False,False,False,False,False,False,False,False,False,Night,Day,Day,Day
C-5151744,2,2017-06-26 11:02:58,2017-07-14 17:00:00,41.74704000000001,-85.686523,,,14.25,Intermittent lane closures due to construction work on IN-13 both ways from 14th Ave to I-80.,,I-90 E,R,Middlebury,Elkhart,IN,46540,US,US/Eastern,KGSH,2017-06-26 10:53:00,66.0,,54.0,30.09,,West,15.0,,Clear,False,False,False,False,False,False,False,False,False,False,False,False,False,Day,Day,Day,Day
C-5151745,2,2021-11-12 08:21:00,2021-11-12 10:43:27,41.959506,-87.688544,41.962509,-87.688636,0.207541372018,Stationary traffic from IL-19/W Irving Park Rd (N Western Ave) to W Leland Ave (N Western Ave) due to roadwork.,4301.0,N Western Ave,L,Chicago,Cook,IL,60618-1621,US,US/Central,KORD,2021-11-12 07:51:00,39.0,31.0,73.0,28.96,10.0,SW,15.0,0.0,Mostly Cloudy,True,False,False,False,False,False,False,False,False,False,False,False,False,Day,Day,Day,Day
C-5151746,2,2021-08-25 11:35:30,2021-08-25 12:13:30,43.142618,-111.031342,43.123835,-111.024381,1.3444068209,Slow traffic on US-89 N - US-89 S from US-26 (US-89) to WY-239/CR-116 (US-89) due to roadwork.,,US Highway 89,R,Etna,Lincoln,WY,83118,US,US/Mountain,KAFO,2021-08-25 11:35:00,77.0,77.0,19.0,24.01,10.0,SSE,9.0,,Fair,False,False,False,False,False,False,False,False,False,False,False,False,False,Day,Day,Day,Day
C-5151747,2,2021-10-26 17:32:55,2021-10-26 17:54:19,26.086988,-80.135823,26.09272,-80.136478,0.398123650454,Stationary traffic on US-1 N - FL-A1A - FL-5 from I-595 (US-1) to FL-84/24th St (US-1) due to roadwork.,,SE 30th St,R,Fort Lauderdale,Broward,FL,33316,US,US/Eastern,KFLL,2021-10-26 17:53:00,90.0,90.0,59.0,29.8,10.0,W,13.0,0.0,Partly Cloudy,False,False,True,False,False,False,False,False,False,False,False,True,False,Day,Day,Day,Day
C-5151748,4,2021-02-16 21:10:00,2021-02-18 01:32:41,34.904322,-87.983357,34.903584,-87.978515,0.279066943064,County Hwy-14 is closed from CR-8 (CR-14) to Natchez Trace Pkwy (CR-14) due to roadwork.,11817.0,County Road 14,R,Waterloo,Lauderdale,AL,35677-3503,US,US/Central,KMSL,2021-02-16 20:53:00,19.0,11.0,71.0,29.65,10.0,NE,6.0,0.0,Partly Cloudy,False,False,False,False,False,False,False,False,False,False,False,False,False,Night,Night,Night,Night
C-5151749,3,2020-03-25 05:49:02,2020-10-30 23:59:00,43.034782,-78.75970500000003,,,4.05999994278,Intermittent lane closures due to bridge maintenance work on I-990 Northbound from Exit 2 Sweet Home Rd to Exit 4 CR-299 French Rd.,1755.0,N French Rd,R,Getzville,Erie,NY,14068-1428,US,US/Eastern,KBUF,2020-03-25 05:54:00,35.0,29.0,78.0,29.17,10.0,ENE,8.0,0.0,Cloudy,False,False,False,False,False,False,False,False,False,False,False,False,False,Night,Night,Night,Day
C-5151750,2,2021-01-17 04:20:30,2021-01-17 05:07:00,40.681718,-73.88983499999998,40.680143,-73.889414,0.111035419441,Stationary traffic from Jamaica Ave to Arlington Ave due to roadwork.,63.0,Barbey St,L,Brooklyn,Kings,NY,11207-2701,US,US/Eastern,KJFK,2021-01-17 03:51:00,36.0,25.0,70.0,29.55,10.0,WSW,20.0,0.0,Fair,False,False,True,False,False,False,False,False,True,True,False,False,False,Night,Night,Night,Night
C-5151751,2,2021-12-04 09:59:30,2021-12-04 10:21:30,30.241984,-93.258057,30.238114000000003,-93.257613,0.268701768039,Stationary traffic on LA-378 from Sulphur Ave to I-10 W due to roadwork.,769.0,Sampson St,L,Westlake,Calcasieu,LA,70669-5538,US,US/Central,KCWF,2021-12-04 09:49:00,66.0,66.0,94.0,30.14,7.0,CALM,0.0,0.0,Cloudy,False,False,True,False,False,False,True,False,False,False,False,False,False,Day,Day,Day,Day
C-5151752,3,2017-07-15 07:46:00,2017-07-15 08:14:56,28.166431,-82.39489,,,0.0,Three lanes blocked due to construction work on I-75 Southbound at Exits 274 275 I-275.,,I-75 N,R,Tampa,Hillsborough,FL,33647,US,US/Eastern,KVDF,2017-07-15 07:55:00,78.8,,89.0,30.09,10.0,Calm,,,Clear,False,False,False,False,False,False,False,False,False,False,False,False,False,Day,Day,Day,Day
C-5151753,3,2019-08-20 01:02:18,2019-08-20 05:00:00,47.633961,-122.144066,,,2.55999994278,Road closed due to construction during the night on WA-520 Westbound from 40th St to 148th Ave.,,WA-520 W,R,Bellevue,King,WA,98007,US,US/Pacific,KRNT,2019-08-20 00:53:00,64.0,64.0,72.0,29.92,7.0,N,6.0,0.0,Fair,False,False,False,False,False,False,False,False,False,False,False,False,False,Night,Night,Night,Night
C-5151754,2,2017-10-17 13:26:39,2017-10-17 19:28:52,40.386951,-80.089787,40.3874,-80.0906,0.0528494563677,At PA-50/Washington Pike - Roadwork. Traffic problem.,3064.0,Greentree Rd,R,Carnegie,Allegheny,PA,15106-3748,US,US/Eastern,KAGC,2017-10-17 13:53:00,60.1,,41.0,30.32,10.0,WSW,6.9,,Clear,False,False,False,False,False,False,False,False,False,False,False,False,False,Day,Day,Day,Day
C-5151755,2,2021-11-29 17:47:17,2021-11-29 20:16:42,28.565889,-81.286078,28.568198,-81.285504,0.163294782711,Slow traffic on FL-551 - FL-50 from Gatehouse Cir to Fabian Ave due to roadwork.,1659.0,N Goldenrod Rd,R,Orlando,Orange,FL,32807,US,US/Eastern,KORL,2021-11-29 17:53:00,67.0,67.0,42.0,29.92,10.0,NNW,3.0,0.0,Fair,False,False,False,False,False,False,False,False,False,False,False,False,False,Night,Day,Day,Day
C-5151756,2,2021-07-30 07:58:00,2021-07-30 10:04:04,29.735582,-95.34746,29.696452,-95.288203,4.46694680529,Slow traffic on I-45 N - I-45 S from Scott St/Exit 45 (I-45 HOV) to Broadway St/Park Place Blvd/Exit 39 (I-45 HOV) due to roadwork.,,Scott St,R,Houston,Harris,TX,77003,US,US/Central,KMCJ,2021-07-30 07:53:00,84.0,84.0,79.0,30.02,10.0,CALM,0.0,0.0,Fair,False,False,False,False,False,False,False,False,False,False,False,False,False,Day,Day,Day,Day
C-5151757,2,2020-08-22 14:00:00,2020-08-23 00:49:00,38.393745,-82.539839,38.389093,-82.57768,2.07431406784,Construction on I-64 WB near MM 2 Drive with caution.,,I-64 W,R,Huntington,Wayne,WV,25704,US,US/Eastern,KHTS,2020-08-22 13:51:00,82.0,82.0,65.0,29.08,10.0,N,3.0,0.0,Mostly Cloudy,False,False,False,False,False,False,False,False,False,False,False,False,False,Day,Day,Day,Day
