ID,Severity,Start_Time,End_Time,Start_Lat,Start_Lng,End_Lat,End_Lng,Distance(mi),Description,Number,Street,Side,City,County,State,Zipcode,Country,Timezone,Airport_Code,Weather_Timestamp,Temperature(F),Wind_Chill(F),Humidity(%),Pressure(in),Visibility(mi),Wind_Direction,Wind_Speed(mph),Precipitation(in),Weather_Condition,Amenity,Bump,Crossing,Give_Way,Junction,No_Exit,Railway,Roundabout,Station,Stop,Traffic_Calming,Traffic_Signal,Turning_Loop,Sunrise_Sunset,Civil_Twilight,Nautical_Twilight,Astronomical_Twilight
C-4961842,2,2021-06-11 20:55:00.000000000,2021-06-11 21:16:30.000000000,40.052151,-85.65339399999998,40.05833,-85.652801,0.428078556954,Slow traffic on IN-109 - IN-9 from I-69/Pendleton Ave (IN-9) to IN-236/E 53rd St (IN-109/S Scatterfield Rd/IN-9) due to roadwork.,,IN-9,R,Anderson,Madison,IN,46013,US,US/Eastern,KAID,2021-06-11 20:55:00,82.0,82.0,53.0,28.82,10.0,NNE,3.0,0.0,Fair,False,False,False,False,False,False,False,False,False,False,False,False,False,Day,Day,Day,Day
C-4961843,2,2019-07-24 07:03:18.000000000,2019-07-28 07:02:50.000000000,37.876858,-122.306339,37.87166,-122.30489,0.3677395766669999,Between Buchanan St and I-80/I-580 - Construction work.,1357.0,Eastshore Hwy,L,Berkeley,Alameda,CA,94710-1321,US,US/Pacific,KOAK,2019-07-24 06:53:00,59.0,59.0,87.0,30.0,8.0,CALM,0.0,0.0,Fair,False,False,False,False,False,False,False,False,False,False,False,False,False,Day,Day,Day,Day
C-4961844,4,2019-01-28 08:01:30.000000000,2019-02-01 08:01:26.000000000,35.76965999999999,-91.64095,35.76971,-91.644581,0.203585167809,Closed between US-167/S St Louis St and St Louis St - Closed due to roadwork.,1002.0,S Saint Louis St,L,Batesville,Independence,AR,72501-7223,US,US/Central,KBVX,2019-01-28 07:56:00,46.0,40.2,54.0,29.81,10.0,SSW,12.7,,Mostly Cloudy,False,False,False,False,False,False,False,False,False,False,False,False,False,Day,Day,Day,Day
C-4961845,2,2017-11-16 23:18:09.000000000,2017-11-17 05:19:38.000000000,40.37051,-75.91284,40.37148,-75.91877,0.319268604003,At N 11th St - Roadwork. Lane blocked.,,Warren Street Byp W,R,Reading,Berks,PA,19604,US,US/Eastern,KRDG,2017-11-16 22:54:00,43.0,36.4,68.0,30.01,10.0,WNW,12.7,,Mostly Cloudy,False,False,False,False,True,False,False,False,False,False,False,False,False,Night,Night,Night,Night
C-4961846,2,2021-02-11 07:00:30.000000000,2021-02-11 10:34:00.000000000,36.08883,-96.024781,36.0888,-96.006774,1.00541812019,Slow traffic on I-44 E - OK-66 E from S 33rd West Ave/Exit 223 (I-44) to US-75/Exit 224 (I-44) due to roadwork.,,I-44 E,R,Tulsa,Tulsa,OK,74107,US,US/Central,KRVS,2021-02-11 06:53:00,17.0,5.0,84.0,29.62,10.0,N,10.0,0.0,Cloudy,False,False,False,False,False,False,False,False,False,False,False,False,False,Night,Day,Day,Day
C-4961847,2,2021-01-20 11:24:00.000000000,2021-01-20 18:18:18.000000000,31.631543,-95.5288,31.64615,-95.537109,1.1213727242799998,Roadwork on AN County Road 165 from AN County Road 163 to FM-2419.,8454.0,FM 2419,L,Elkhart,Anderson,TX,75839-4498,US,US/Central,KPSN,2021-01-20 11:15:00,52.0,52.0,88.0,29.88,10.0,E,5.0,0.0,Cloudy,False,False,False,False,False,False,False,False,False,False,False,False,False,Day,Day,Day,Day
C-4961848,2,2020-05-20 21:49:31.000000000,2020-05-21 06:00:00.000000000,30.32079,-81.45043000000003,30.32079,-81.45043000000003,0.0,At Pablo Creek - Construction work.,13500.0,Atlantic Blvd,R,Jacksonville,Duval,FL,32225-3233,US,US/Eastern,KCRG,2020-05-20 21:53:00,79.0,79.0,56.0,29.85,10.0,W,6.0,0.0,Fair,False,False,False,False,False,False,False,False,False,False,False,True,False,Night,Night,Night,Night
C-4961849,2,2021-09-29 15:23:30.000000000,2021-09-29 15:44:33.000000000,29.998729,-92.285338,29.994555,-92.286892,0.303016874373,Stationary traffic on LA-35 from W 2nd St / E 2nd St to LA Highway 35 / E LA Highway 708 due to roadwork.,162.0,N Cushing Ave,L,Kaplan,Vermilion,LA,70548-4908,US,US/Central,KIYA,2021-09-29 15:15:00,76.0,76.0,83.0,29.88,10.0,SSE,9.0,0.0,Cloudy,False,False,False,False,False,False,False,False,False,False,False,False,False,Day,Day,Day,Day
C-4961851,2,2021-05-07 06:19:00.000000000,2021-05-07 08:21:00.000000000,42.16611500000001,-89.005193,42.166005,-89.015589,0.5324563424000001,Slow traffic from S Mulford Rd to Harrisville Rd due to roadwork.,5458.0,Baxter Rd,L,Rockford,Winnebago,IL,61109-5453,US,US/Central,KRFD,2021-05-07 05:54:00,47.0,44.0,63.0,29.22,10.0,WNW,7.0,0.0,Mostly Cloudy,False,False,False,False,False,False,False,False,False,False,False,False,False,Day,Day,Day,Day
C-4961852,2,2017-08-30 05:05:31.000000000,2017-12-01 18:01:00.000000000,43.60406500000001,-116.701897,,,3.38000011444,Speed restriction of 45 mph and temporary width limit of 11' due to resurfacing work on ID-55 Karcher Rd both ways from Riverside Rd to Ashland Dr. Look out for flagman.,16029.0,Ashland Dr,L,Caldwell,Canyon,ID,83607-8345,US,US/Mountain,KEUL,2017-08-30 04:56:00,69.1,,47.0,29.84,10.0,East,4.6,,Clear,False,False,False,False,False,False,False,False,False,False,False,False,False,Night,Night,Night,Night
C-4961853,2,2021-03-17 17:40:00.000000000,2021-11-07 16:28:00.000000000,33.415546,-111.909094,33.414125,-111.909097,0.0981819016274,Slow traffic from E University Dr (S McClintock Dr) to E Broadway Rd (S McClintock Dr) due to roadwork.,1225.0,S McClintock Dr,L,Tempe,Maricopa,AZ,85281-4508,US,US/Mountain,KPHX,2021-08-25 18:51:00,107.0,107.0,17.0,28.55,10.0,VAR,6.0,0.0,Fair,False,False,False,False,False,False,False,False,False,False,False,False,False,Day,Day,Day,Day
C-4961854,2,2021-09-19 13:38:00.000000000,2021-09-19 14:04:30.000000000,37.65044,-84.949451,37.649637,-84.951824,0.141174641495,Slow traffic on US-68 E - KY-52 - US-150 W - US-150 E - US-68 W from US-127/Mooreland Ave/S College St (US-68) to Brumfield Rd (US-68) due to roadwork.,303.0,E 2nd St,R,Perryville,Boyle,KY,40468-1090,US,US/Eastern,KDVK,2021-09-19 13:35:00,79.0,79.0,78.0,29.03,10.0,CALM,0.0,0.0,Mostly Cloudy,False,False,False,False,False,False,False,False,False,False,False,False,False,Day,Day,Day,Day
C-4961855,2,2018-08-13 07:00:00.000000000,2018-08-13 19:00:00.000000000,31.209349,-82.9076,,,1.17999994755,Road closed due to construction work on US-221 Eastbound from GA-64 to County Road 26.,,GA-31,R,Pearson,Atkinson,GA,31642,US,US/Eastern,KDQH,2018-08-13 06:55:00,73.4,,100.0,30.05,10.0,West,3.5,,Clear,False,False,False,False,False,False,False,False,False,False,False,False,False,Day,Day,Day,Day
C-4961856,2,2021-10-30 11:30:30.000000000,2021-10-30 21:05:00.000000000,39.712529,-104.999707,39.751127,-105.01595,2.8030523687700004,Stationary traffic on US-85 N - US-87 N - I-25 N - US-6 E from Santa Fe Dr (US-85) exit [207B] to exit [211] due to roadwork.,,I-25 N,R,Denver,Denver,CO,80223,US,US/Mountain,KAPA,2021-10-30 11:53:00,67.0,67.0,17.0,24.18,10.0,CALM,0.0,0.0,Fair,False,True,True,False,False,True,False,False,False,False,True,False,False,Day,Day,Day,Day
C-4961857,2,2020-07-07 07:00:00.000000000,2020-09-30 06:48:10.000000000,42.875067,-84.12833499999998,42.80916,-84.312247,10.3705053943,Construction on I-69 WB near DUFFIELD RD Drive with caution.,,I-69 W,R,Bancroft,Shiawassee,MI,48414,US,US/Eastern,KRNP,2020-07-07 06:55:00,68.0,68.0,89.0,29.19,10.0,CALM,0.0,0.0,Fair,False,False,False,False,False,False,False,False,False,False,False,False,False,Day,Day,Day,Day
C-4961858,2,2021-11-03 14:10:00.000000000,2021-11-03 16:29:20.000000000,25.84044500000001,-80.30399799999998,25.843074,-80.307731,0.2947565942489999,Slow traffic on FL-25 - US-27 N from FL-823/4th Ave/Red Rd (US-27) to 29th St (US-27) due to roadwork.,2047.0,W Okeechobee Rd,R,Hialeah,Miami-Dade,FL,33010-2304,US,US/Eastern,KMIA,2021-11-03 13:53:00,82.0,82.0,62.0,30.01,10.0,ENE,10.0,0.0,Cloudy,False,False,False,False,False,False,False,False,False,False,False,False,False,Day,Day,Day,Day
C-4961859,2,2021-06-19 14:32:41.000000000,2021-06-19 16:35:45.000000000,28.330852,-82.551358,28.330243,-82.55322,0.120807423516,Stationary traffic on FL-52 from Deerbrook Blvd to Suncoast Pkwy S due to roadwork.,,State Road 52,R,Spring Hill,Pasco,FL,34610,US,US/Eastern,KBKV,2021-06-19 14:53:00,88.0,88.0,61.0,29.97,10.0,S,7.0,0.0,Partly Cloudy,False,False,False,False,False,False,False,False,False,False,False,True,False,Day,Day,Day,Day
C-4961860,2,2021-11-03 08:51:00.000000000,2021-11-03 11:16:42.000000000,27.894572,-82.788359,27.895501,-82.78704300000003,0.10284983848,Slow traffic on FL-688 - US-19 Alt N - FL-595 from 113th St / Ridge Rd S to Silvercrest Dr due to roadwork.,10766.0,Ulmerton Rd,L,Largo,Pinellas,FL,33778,US,US/Eastern,KPIE,2021-11-03 08:53:00,70.0,70.0,87.0,30.1,10.0,NE,7.0,0.0,Fair,False,False,False,False,False,False,False,False,True,False,False,False,False,Day,Day,Day,Day
C-4961861,2,2016-11-04 22:00:47.000000000,2016-11-05 04:00:47.000000000,38.926941,-94.757989,38.935251,-94.750849,0.6906075837469999,At I-435/KS-10/Exit 222 - Maintenance work.,,US-169 N,R,Lenexa,Johnson,KS,66219,US,US/Central,KOJC,2016-11-04 21:53:00,55.9,,60.0,30.35,10.0,Calm,,,Clear,False,False,False,False,False,False,False,False,False,False,False,False,False,Night,Night,Night,Night
C-4961862,2,2021-10-26 23:57:30.000000000,2021-10-27 00:18:00.000000000,40.67556,-73.732734,40.68333,-73.726614,0.625338440731,Stationary traffic from Merrick Blvd/Exit 24 (Belt Pkwy) to Southern State Pkwy/Exit 25 (Belt Pkwy) due to roadwork.,,Laurelton Pkwy E,R,Rosedale,Queens,NY,11422,US,US/Eastern,KJFK,2021-10-26 23:51:00,56.0,56.0,93.0,29.46,10.0,N,15.0,0.07,Light Rain,False,False,False,False,True,False,False,False,False,False,False,False,False,Night,Night,Night,Night
C-4961863,2,2021-03-19 05:22:30.000000000,2021-03-19 18:44:44.000000000,39.776228,-105.109634,39.77813,-105.10998700000002,0.132745784555,Stationary traffic on County Hwy-58 - CO-391 from W 41st Ave to Lee St due to roadwork.,4296.0,Kipling St,R,Wheat Ridge,Jefferson,CO,80033-2807,US,US/Mountain,KBJC,2021-03-19 05:15:00,30.0,25.0,93.0,24.53,5.0,NW,5.0,0.0,Fair,False,False,True,False,False,False,False,False,False,False,False,True,False,Night,Night,Night,Night
C-4961864,2,2021-07-02 15:03:49.000000000,2021-07-02 17:50:24.000000000,25.890599,-80.178838,25.889709,-80.18643,0.4758985501519999,Stationary traffic on FL-915 - FL-922 from NE 10th Ave to NE 123rd St due to roadwork.,992.0,NE 125th St,R,North Miami,Miami-Dade,FL,33161-5714,US,US/Eastern,KOPF,2021-07-02 14:53:00,91.0,91.0,52.0,29.96,10.0,SSW,7.0,0.0,Fair,False,False,False,False,False,False,False,False,True,False,False,False,False,Day,Day,Day,Day
C-4961865,3,2016-08-16 13:30:00.000000000,2016-08-17 05:00:00.000000000,41.57835,-87.636452,,,0.0,Intermittent ramp closures due to maintenance work on I-80 I-294 both ways at IL-1 Halsted St.,,Halsted St,R,Hazel Crest,Cook,IL,60429,US,US/Central,KIGQ,2016-08-16 13:35:00,79.3,,71.0,30.06,10.0,East,5.8,,Overcast,False,False,False,False,True,False,False,False,False,False,False,False,False,Day,Day,Day,Day
C-4961866,2,2020-08-08 16:35:00.000000000,2020-08-08 22:45:00.000000000,37.701483,-77.464454,37.701773,-77.464526,0.0204200246383,Construction on US-1 NB near SLIDING HILL RD Drive with caution.,11030.0,Washington Hwy,L,Glen Allen,Hanover,VA,23059-1904,US,US/Eastern,KOFP,2020-08-08 16:54:00,86.0,86.0,65.0,29.9,10.0,VAR,5.0,0.0,Fair,False,False,False,False,False,False,False,False,False,False,False,False,False,Day,Day,Day,Day
C-4961867,4,2019-06-30 12:15:21.000000000,2019-06-30 17:14:50.000000000,41.52412,-76.4008,41.47661,-76.42007,3.43074482095,Closed between PA-87/Main St/Mill St and PA-1006/PA-564 - Closed due to roadwork.,199.0,W Main St,L,Dushore,Sullivan,PA,18629,US,US/Eastern,KAVP,2019-06-30 11:54:00,78.0,78.0,54.0,28.81,10.0,WNW,9.0,0.0,Mostly Cloudy,False,False,False,False,False,False,False,False,False,False,False,True,False,Day,Day,Day,Day
C-4961868,2,2019-04-27 20:01:55.000000000,2019-05-01 20:01:29.000000000,33.6557,-84.49683,33.65639,-84.49668,0.0484486907116999,Ramp to Camp Creek Pky/Exit 2 - Construction work. Left lane blocked.,,I-285 N,R,Atlanta,Fulton,GA,30344,US,US/Eastern,KATL,2019-04-27 19:52:00,73.0,73.0,30.0,28.85,10.0,SW,9.0,0.0,Partly Cloudy,False,False,True,False,True,False,False,False,False,False,False,True,False,Day,Day,Day,Day
C-4961869,2,2020-10-09 03:52:27.000000000,2020-10-10 04:40:31.000000000,44.948641,-92.947221,44.948811,-92.953591,0.311715191966,Construction on I-94 WB near E JCT I-494 Expect delays.,,I-94 W,R,Saint Paul,Washington,MN,55125,US,US/Central,KSTP,2020-10-09 03:53:00,57.0,57.0,55.0,29.01,10.0,SSE,12.0,0.0,Fair,False,False,False,False,True,False,False,False,False,False,False,False,False,Night,Night,Night,Night
C-4961870,2,2021-04-06 20:26:00.000000000,2021-04-06 21:51:00.000000000,41.035641,-75.31156800000002,41.000161,-75.274688,3.1154342681700005,Slow traffic on I-80 E from PA-715/Exit 299 (I-80) to PA-33/Exit 302 (I-80) due to roadwork.,,I-80 E,R,Tannersville,Monroe,PA,18372,US,US/Eastern,KMPO,2021-04-06 20:53:00,52.0,52.0,15.0,27.95,10.0,NNW,9.0,0.0,Fair,False,False,False,False,True,False,False,False,False,False,False,False,False,Night,Night,Day,Day
C-4961871,2,2021-04-16 09:00:00.000000000,2021-04-16 14:00:00.000000000,33.056999999999995,-84.986522,33.049367,-85.026852,2.39438128289,Lane closed on GA-14 - US-29 N - US-29 S from GA-100/GA-54/W Main St (US-29) to US-27/GA-1/New Franklin Rd (US-29) due to roadwork.,,Hogansville Rd,R,LaGrange,Troup,GA,30241,US,US/Eastern,KLGC,2021-04-16 08:55:00,52.0,52.0,56.0,29.22,10.0,CALM,0.0,,Fair,False,False,False,False,False,False,False,False,False,False,False,True,False,Day,Day,Day,Day
C-4961872,2,2021-03-22 21:29:00.000000000,2021-03-22 21:49:00.000000000,34.558899,-92.614986,34.547637,-92.627433,1.05222407064,Slow traffic on US-67 S - AR-88 W - US-70 W - I-30 W from Sevier St/Exit 116 (I-30) to US-67/Exit 114 (I-30) due to roadwork.,,AR-88 W,R,Benton,Saline,AR,72015,US,US/Central,KLIT,2021-03-22 21:53:00,61.0,61.0,60.0,29.55,10.0,ESE,8.0,0.0,Cloudy,False,False,False,False,False,False,False,False,False,False,False,False,False,Night,Night,Night,Night
C-4961873,2,2019-08-14 12:27:33.000000000,2019-08-14 16:00:00.000000000,34.08417,-80.96205,34.090090000000004,-80.95713,0.4965571888109999,At Parklane Rd - Construction work. Left lane blocked.,,SC-277 N,R,Columbia,Richland,SC,29223,US,US/Eastern,KCUB,2019-08-14 12:53:00,95.0,95.0,40.0,29.66,10.0,VAR,5.0,0.0,Fair,False,False,False,False,False,False,False,False,False,False,False,False,False,Day,Day,Day,Day
C-4961874,2,2021-09-10 11:30:14.000000000,2021-09-30 11:59:00.000000000,39.46349,-95.330429,,,11.9799995422,Road closed due to construction work on KS-116 both ways from US-59 to US-159.,10315.0,Highway 116,L,Nortonville,Atchison,KS,66060-5042,US,US/Central,KTOP,2021-09-10 11:53:00,83.0,83.0,47.0,29.01,10.0,SSW,7.0,0.0,Fair,False,False,False,False,False,False,False,False,False,False,False,False,False,Day,Day,Day,Day
C-4961875,2,2021-02-17 05:31:00.000000000,2021-02-17 14:41:27.000000000,25.799495,-80.240002,25.794255,-80.23989499999998,0.362110700171,Stationary traffic on FL-9 from US-27 (FL-9) to 20th St (FL-9) due to roadwork.,2462.0,NW 27th Ave,L,Miami,Miami-Dade,FL,33142-7234,US,US/Eastern,KMIA,2021-02-17 05:53:00,73.0,73.0,93.0,30.04,8.0,CALM,0.0,0.0,Mostly Cloudy,False,False,False,False,False,False,False,False,True,False,False,True,False,Night,Night,Night,Night
C-4961876,2,2020-03-27 16:45:10.000000000,2020-03-31 16:42:53.000000000,28.18743,-82.37464,28.19083,-82.39711,1.3884067246899998,Between CR-581/Bruce B Downs Blvd and SR-54 - Construction work.,,State Road 56,R,Wesley Chapel,Pasco,FL,33544,US,US/Eastern,KVDF,2020-03-27 16:35:00,91.0,91.0,46.0,29.96,10.0,ENE,3.0,0.0,Mostly Cloudy,False,False,False,False,False,False,False,False,False,False,False,True,False,Day,Day,Day,Day
C-4961877,2,2021-07-06 04:00:00.000000000,2021-11-19 18:24:54.000000000,34.133488,-117.438351,34.13443400000001,-117.43596399999998,0.151354779165,Slow traffic from Auto Center Dr to Sierra Lakes Pkwy due to roadwork.,16786.0,S Highland Ave,L,Fontana,San Bernardino,CA,92336,US,US/Pacific,KONT,2021-11-19 15:53:00,67.0,67.0,51.0,28.99,4.0,WSW,9.0,0.0,Haze,False,False,False,False,False,False,False,False,False,False,False,False,False,Night,Night,Night,Night
C-4961878,2,2020-10-22 13:04:00.000000000,2020-10-23 02:23:40.000000000,33.398359,-111.719279,33.392887,-111.719421,0.3781679165199999,Queuing traffic from E Broadway Rd (S Higley Rd) to US-60/Superstition Fwy (S Higley Rd) due to roadwork.,925.0,S Higley Rd,R,Mesa,Maricopa,AZ,85206-2800,US,US/Mountain,KFFZ,2020-10-22 12:51:00,88.0,88.0,20.0,28.63,10.0,VAR,3.0,0.0,Fair,False,False,False,False,False,False,False,False,False,False,False,False,False,Day,Day,Day,Day
C-4961879,2,2018-12-07 09:03:14.000000000,2018-12-11 09:03:13.000000000,26.245029,-80.171545,26.24517,-80.16481999999998,0.416866259686,At Florida's Tpke/Ronald Reagan Tpke - Construction work.,3479.0,Coconut Creek Pkwy,R,Pompano Beach,Broward,FL,33066,US,US/Eastern,KFXE,2018-12-07 08:53:00,70.0,,68.0,30.33,10.0,North,5.8,,Clear,False,False,False,False,False,False,False,False,False,False,False,True,False,Day,Day,Day,Day
C-4961880,2,2021-06-07 07:00:00.000000000,2021-09-13 19:00:00.000000000,39.058366,-96.167185,39.064453,-96.186038,1.09540042821,Lane closed on I-70 W - US-40 W from Snokomo Rd/Exit 335 (I-70) to KS-138/Exit 333 (I-70) due to roadwork.,,I-70 W,R,Paxico,Wabaunsee,KS,66526,US,US/Central,KMHK,2021-06-07 06:52:00,68.0,68.0,93.0,28.71,10.0,CALM,0.0,0.0,Fair,False,False,False,False,False,False,False,False,False,False,False,False,False,Day,Day,Day,Day
C-4961881,3,2018-05-09 04:35:46.000000000,2018-05-09 05:00:00.000000000,40.861794,-73.912689,,,3.03999996185,Two lanes closed due to construction work on I-87 Major Deegan Expy Southbound from Exit 11 Van Cortlandt Extension Park to Exit 9 Fordham Rd.,,W Fordham Rd,R,Bronx,Bronx,NY,10468,US,US/Eastern,KLGA,2018-05-09 04:51:00,54.0,,80.0,30.18,10.0,NE,3.5,,Clear,False,False,True,False,False,False,False,False,False,False,False,True,False,Night,Night,Night,Day
C-4961882,3,2020-04-07 05:01:02.000000000,2020-04-07 12:00:00.000000000,33.141621,-86.750214,,,1.7200000286099997,Exit ramp from I-65 Southbound to Montgomery Hwy closed due to construction work.,,Highway 31,R,Calera,Shelby,AL,35040,US,US/Central,KEET,2020-04-07 04:53:00,66.0,66.0,84.0,29.43,10.0,CALM,0.0,0.0,Partly Cloudy,False,False,False,False,False,False,False,False,False,False,False,False,False,Night,Night,Night,Day
C-4961883,2,2021-10-14 10:04:59.000000000,2021-11-05 23:59:00.000000000,42.497872,-76.509775,42.498025,-76.509751,0.0106417597316,Roadwork on NY 34 northbound between Burdick Hill Rd (Lansing) and WATERWAGON RD (Lansing) ; Alternating one-way traffic with flaggers Not currently Scheduled,,E Shore Dr,R,Ithaca,Tompkins,NY,14850,US,US/Eastern,KITH,2021-10-14 09:56:00,62.0,62.0,84.0,28.87,10.0,CALM,0.0,0.0,Fair,False,False,False,False,False,False,False,False,False,False,False,False,False,Day,Day,Day,Day
C-4961884,2,2021-08-26 06:00:00.000000000,2021-08-26 21:00:00.000000000,42.267049,-94.397641,42.26707800000001,-94.379025,0.951844964752,Lane closed on IA-175 from Adams Ave to Baxter Ave due to roadwork.,3698.0,360th St,R,Farnhamville,Calhoun,IA,50538-7525,US,US/Central,KFOD,2021-08-26 05:56:00,68.0,68.0,96.0,28.86,6.0,E,10.0,0.0,Fair,False,False,False,False,False,False,False,False,False,False,False,False,False,Night,Night,Day,Day
C-4961885,2,2020-02-27 12:58:32.000000000,2020-03-13 08:57:09.000000000,39.3396,-74.76321999999998,39.3396,-74.76321999999998,0.0,At CR-557/Tuckahoe Rd - Roadwork.,251.0,State Highway 50,R,Woodbine,Atlantic,NJ,08270,US,US/Eastern,KMIV,2020-02-27 12:54:00,42.0,33.0,38.0,29.62,10.0,W,23.0,0.0,Partly Cloudy / Windy,False,False,False,False,False,False,False,False,False,False,False,False,False,Day,Day,Day,Day
C-4961886,4,2020-05-29 21:02:44.000000000,2020-06-02 21:02:08.000000000,29.72175,-95.46038,29.71311,-95.26609,11.6738970975,Closed between Long Dr/Wayside Dr/Exit 34 and Broadway Blvd/Exit 31 - Closed due to roadwork.,,I-610 S,R,Bellaire,Harris,TX,77401,US,US/Central,KMCJ,2020-05-29 20:53:00,82.0,82.0,54.0,29.97,10.0,N,7.0,0.0,Mostly Cloudy,False,False,False,False,True,False,False,False,False,False,False,False,False,Night,Night,Day,Day
C-4961887,2,2021-04-01 05:53:30.000000000,2021-04-01 15:52:48.000000000,33.512764000000004,-112.16874,33.508285,-112.168788,0.309481780144,Stationary traffic from Bethany Home Rd (N 51st Ave) to Indian School Rd (N 51st Ave) due to roadwork.,5169.0,N 51st Ave,R,Glendale,Maricopa,AZ,85301-7604,US,US/Mountain,KGEU,2021-04-01 05:58:00,62.0,62.0,16.0,28.81,10.0,N,5.0,0.0,Fair,False,False,False,False,False,False,True,False,True,False,False,False,False,Night,Day,Day,Day
C-4961888,2,2021-10-16 01:40:30.000000000,2021-10-16 02:15:30.000000000,39.859183,-75.355683,39.854283,-75.367827,0.727668525492,Slow traffic on Vietnam Veterans Memorial Hwy - I-95 S from Chestnut St/Exit 6 (I-95) to Kerlin St/5th St/Exit 5 (I-95) due to roadwork.,,I-95 S,R,Chester,Delaware,PA,19013,US,US/Eastern,KPHL,2021-10-16 01:54:00,67.0,67.0,81.0,29.85,10.0,SSW,3.0,0.0,Mostly Cloudy,False,False,False,False,False,False,False,False,False,False,False,False,False,Night,Night,Night,Night
C-4961889,3,2020-06-21 07:00:00.000000000,2020-06-26 17:00:00.000000000,38.68902,-90.45006,38.76183,-90.42429,5.2189495972,Between MO-D/Page Ave/Exit 16 and I-70 - Construction work. Two lanes closed.,,I-270 N,R,Saint Louis,St. Louis County,MO,63146,US,US/Central,KSTL,2020-06-21 07:02:00,69.0,69.0,87.0,29.29,10.0,S,9.0,0.0,Cloudy,False,False,False,False,False,False,False,False,False,False,False,False,False,Day,Day,Day,Day
C-4961890,3,2019-09-17 15:31:13.000000000,2019-09-22 00:25:36.000000000,46.41529,-117.00183,46.42361,-117.00025,0.579762464685,Between Levee Byp/18th St and ID-128 - Construction work. Traffic problem.,,21st St,R,Lewiston,Nez Perce,ID,83501,US,US/Pacific,KLWS,2019-09-17 15:56:00,72.0,72.0,29.0,28.33,10.0,SSW,6.0,0.0,Cloudy,False,False,True,False,False,False,False,False,False,False,False,True,False,Day,Day,Day,Day
C-4961891,2,2021-08-21 14:50:07.000000000,2021-08-21 16:23:22.000000000,40.314301,-76.82816700000002,40.325582,-76.793001,2.00983291574,Slow traffic on I-81 N from US-322/Exit 70 (I-81) to Mountain Rd/Exit 72 (I-81) due to roadwork.,,I-81 N,R,Harrisburg,Dauphin,PA,17112,US,US/Eastern,KCXY,2021-08-21 14:56:00,87.0,87.0,51.0,29.52,10.0,ESE,6.0,0.0,Fair,False,False,False,False,False,False,False,False,False,False,False,False,False,Day,Day,Day,Day
C-4961892,2,2021-10-20 10:17:30.000000000,2021-10-20 12:31:33.000000000,29.698827,-98.452083,29.695463,-98.452732,0.2356715563349999,Stationary traffic on US-281 S from E Borgfeld Dr to W.R. Larson Rd / Trinity Park due to roadwork.,26975.0,US Highway 281 N,L,San Antonio,Bexar,TX,78260-2136,US,US/Central,KSAT,2021-10-20 09:51:00,72.0,72.0,87.0,29.25,10.0,E,6.0,0.0,Mostly Cloudy,False,False,False,False,False,False,False,False,False,False,False,False,False,Day,Day,Day,Day
C-4961893,4,2021-09-23 21:01:00.000000000,2021-09-24 03:01:00.000000000,32.964554,-117.095817,32.958984,-117.099605,0.443094309552,Full closure due to Electrical Work between Sabre Srings DAR and Route 15,,Escondido Fwy S,R,San Diego,San Diego,CA,92129,US,US/Pacific,KNKX,2021-09-23 21:05:00,64.0,64.0,93.0,29.41,10.0,WNW,3.0,0.0,Mostly Cloudy,False,False,False,False,False,False,False,False,False,False,False,False,False,Night,Night,Night,Night
C-4961894,2,2020-10-30 09:37:00.000000000,2020-10-30 22:05:53.000000000,40.747431,-73.976203,40.748306,-73.978313,0.1259106949599999,Slow traffic from 2nd Ave (E 37th St) to Park Ave (E 37th St) due to roadwork.,209.0,E 37th St,L,New York,New York,NY,10016-3103,US,US/Eastern,KNYC,2020-10-30 09:44:00,38.0,30.0,93.0,29.73,5.0,NNE,12.0,0.03,Light Rain,True,False,False,False,False,False,False,False,False,False,False,True,False,Day,Day,Day,Day
C-4961895,2,2020-10-26 14:00:00.000000000,2020-10-27 02:45:00.000000000,42.900313,-78.217259,42.901553,-78.192149,1.27378022921,Construction on US-20 EB near BROWNS MILL RD Right shoulder closed.,4098.0,Broadway Rd,R,Alexander,Genesee,NY,14005-9781,US,US/Eastern,KBUF,2020-10-26 13:54:00,47.0,44.0,86.0,29.29,10.0,NNW,6.0,0.0,Cloudy,False,False,False,False,False,False,False,False,False,False,False,False,False,Day,Day,Day,Day
C-4961896,2,2019-02-08 06:00:00.000000000,2019-02-11 18:00:00.000000000,41.534328,-81.59899899999998,,,1.62000000477,Restrictions due to maintenance work on Eddy Rd both ways between St Clair Ave and Arlington Ave.,12397.0,Arlington Ave,L,Cleveland,Cuyahoga,OH,44108-2359,US,US/Eastern,KBKL,2019-02-08 06:00:00,25.0,8.1,63.0,30.06,10.0,SW,29.9,,Overcast,False,False,False,False,False,False,False,False,False,False,False,True,False,Night,Night,Night,Day
C-4961897,2,2021-10-08 06:00:00.000000000,2021-10-08 20:45:00.000000000,42.223528,-93.309715,42.203743,-93.309632,1.36701990429,Construction on US-65 SB near COUNTY HWY-D65 Drive with caution.,20163.0,330th St,R,Hubbard,Hardin,IA,50122,US,US/Central,KIFA,2021-10-08 05:55:00,62.0,62.0,100.0,28.79,2.0,CALM,0.0,0.0,Fog,False,False,False,False,False,False,False,False,False,False,False,False,False,Night,Night,Night,Day
C-4961898,2,2018-08-29 04:11:28.000000000,2018-08-29 06:00:00.000000000,41.126312,-73.426262,,,1.7599999904599997,Left lane closed due to construction work on US-7 Southbound between Exit 3 CT-15 and Exit 2 CT-123 New Canaan Ave.,,US-7 N,R,Norwalk,Fairfield,CT,06851,US,US/Eastern,KBDR,2018-08-29 03:52:00,80.1,,81.0,29.99,9.0,WSW,4.6,,Clear,False,False,False,False,False,False,False,False,False,False,False,False,False,Night,Night,Night,Night
C-4961899,2,2020-09-16 12:36:00.000000000,2020-09-16 23:54:30.000000000,41.861912,-88.27889,41.868902,-88.27928,0.483379729194,Slow traffic from E Wilson St (Kirk Rd) to Fabyan Pkwy (Kirk Rd) due to resurfacing work.,1398.0,Douglas Rd,R,Batavia,Kane,IL,60510,US,US/Central,KDPA,2020-09-16 12:52:00,79.0,79.0,60.0,29.19,10.0,SW,8.0,0.0,Fair,False,False,True,False,False,False,False,False,False,False,False,True,False,Day,Day,Day,Day
C-4961900,4,2020-09-22 14:00:00.000000000,2020-09-23 02:00:00.000000000,27.92510200000001,-80.658852,27.925098,-80.657761,0.0666041816158,Closed road from Gainesville Rd SE to Foster Rd due to roadwork.,2798.0,Gainesville Rd SE,L,Palm Bay,Brevard,FL,32909-8920,US,US/Eastern,KMLB,2020-09-22 13:53:00,81.0,81.0,72.0,30.02,10.0,E,7.0,0.0,Cloudy,False,False,False,False,False,False,False,False,False,False,False,False,False,Day,Day,Day,Day
C-4961901,4,2019-04-26 04:53:20.000000000,2019-04-26 09:28:37.000000000,38.55904,-122.82026,38.60417,-122.86852,4.0641709316000005,Between Old Redwood Hwy (Windsor) and Healdsburg Ave/Exit 503 - Roadwork.,,US-101 N,R,Windsor,Sonoma,CA,95492,US,US/Pacific,KSTS,2019-04-26 04:53:00,49.0,49.0,100.0,29.79,1.0,CALM,0.0,0.0,Fog,False,False,False,False,True,False,False,False,False,False,False,False,False,Night,Night,Night,Day
C-4961902,3,2020-06-12 12:42:42.000000000,2020-06-12 13:27:42.000000000,38.9746,-77.17871,38.97162,-77.17923,0.207784416473,Between Cabin John Pky/Exit 40 and American Legion Bridge - Roadwork. Right lane closed.,,Capital Beltway S,R,Bethesda,Montgomery,MD,20817,US,US/Eastern,KDCA,2020-06-12 12:52:00,84.0,84.0,33.0,30.13,10.0,NNW,12.0,0.0,Fair,False,False,False,False,False,False,False,False,False,False,False,False,False,Day,Day,Day,Day
C-4961903,2,2021-12-01 14:26:30.000000000,2021-12-01 14:48:06.000000000,40.852884,-73.934353,40.848914,-73.937095,0.309479452391,Slow traffic on US-9 N - US-9 S from Dyckman St/Riverside Dr (Broadway/US-9) to I-95 (Broadway/US-9) due to roadwork.,4328.0,Broadway,R,New York,New York,NY,10033-2412,US,US/Eastern,KNYC,2021-12-01 14:51:00,48.0,46.0,39.0,30.03,10.0,VAR,5.0,0.0,Fair,False,False,True,False,False,False,False,False,True,False,False,True,False,Day,Day,Day,Day
C-4961904,2,2018-10-29 08:30:00.000000000,2018-10-29 16:30:00.000000000,38.894294,-104.969181,38.893695,-104.9683,0.0629081089796999,At US-24-BL/Manitou Ave (West) - Construction work.,7734.0,W US Highway 24,R,Cascade,El Paso,CO,80809,US,US/Mountain,KAFF,2018-10-29 08:58:00,52.7,,23.0,29.97,10.0,North,12.7,,Clear,False,False,False,False,False,False,False,False,False,False,False,False,False,Day,Day,Day,Day
C-4961905,4,2020-10-15 03:07:11.000000000,2020-10-22 07:59:00.000000000,33.580734,-112.133823,33.580737,-112.134041,0.0125502778530999,Closed road from N 33rd Ave to N 35th Ave due to roadwork.,10447.0,N 35th Ave,R,Phoenix,Maricopa,AZ,85051-1306,US,US/Mountain,KDVT,2020-10-15 02:53:00,70.0,70.0,23.0,28.34,10.0,E,3.0,0.0,Fair,False,False,False,False,False,False,False,False,False,False,False,False,False,Night,Night,Night,Night
C-4961906,2,2021-08-30 15:19:00.000000000,2021-08-30 15:48:05.000000000,26.033743,-80.139041,26.033626,-80.144283,0.325539140894,Slow traffic on FL-822 - FL-A1A from FL-A1A/N Ocean Dr (SE 16th St/Sheridan St) to N Dixie Hwy (Sheridan St) due to roadwork.,,SE 3rd Ave,R,Hollywood,Broward,FL,33020,US,US/Eastern,KFLL,2021-08-30 14:53:00,89.0,89.0,70.0,29.94,10.0,ESE,14.0,0.0,Mostly Cloudy,False,False,True,False,False,False,False,False,False,False,False,False,False,Day,Day,Day,Day
C-4961907,2,2021-07-09 13:08:08.000000000,2021-10-07 18:43:20.000000000,39.762957,-86.38277,39.763767,-86.381135,0.103309745416,Stationary traffic on US-36 E from Merchant Dr to Avon Crossing Dr due to roadwork.,7927.0,E US Highway 36,R,Avon,Hendricks,IN,46123-7975,US,US/Eastern,KIND,2021-10-07 16:54:00,68.0,68.0,84.0,29.22,10.0,SSW,7.0,0.01,Mostly Cloudy,False,False,False,False,False,False,False,False,False,False,False,False,False,Day,Day,Day,Day
C-4961908,3,2021-10-13 04:04:32.000000000,2021-10-13 17:00:00.000000000,41.869747,-75.71614100000002,,,0.0,Lane closed due to construction work on I-81 Northbound after Exit 223 PA-492.,,I-81 N,R,New Milford,Susquehanna,PA,18834,US,US/Eastern,KBGM,2021-10-13 03:53:00,58.0,58.0,93.0,28.3,10.0,SW,6.0,0.0,Cloudy,False,False,False,False,False,False,False,False,False,False,False,False,False,Night,Night,Night,Night
C-4961909,2,2021-06-07 13:50:17.000000000,2021-06-07 14:42:00.000000000,40.810996,-73.953127,40.813787,-73.956693,0.268256570464,Slow traffic from 7th Ave (W 125th St) to Broadway (W 125th St) due to roadwork.,366.0,W 125th St,L,New York,New York,NY,10027-4820,US,US/Eastern,KNYC,2021-06-07 13:51:00,89.0,89.0,55.0,29.96,10.0,VAR,7.0,0.0,Fair,False,False,False,False,False,False,False,False,True,False,False,False,False,Day,Day,Day,Day
C-4961910,2,2021-04-10 07:13:00.000000000,2021-04-10 11:40:50.000000000,26.271029,-81.789674,26.27235300000001,-81.791035,0.124414032211,Stationary traffic on County Hwy-846 - County Hwy-851 from Creekside Blvd E to Remington Way due to roadwork.,,N Goodlette Frank Rd,R,Naples,Collier,FL,34108,US,US/Eastern,KAPF,2021-04-10 06:53:00,,,,29.9,,,,0.0,,False,False,False,False,False,False,False,False,False,False,False,False,False,Day,Day,Day,Day
C-4961911,2,2021-03-31 07:18:30.000000000,2021-09-11 02:59:59.000000000,39.382499,-77.410106,39.384425,-77.41183199999998,0.161878921052,Roadwork on MD-80/Exit 26 (I-270) from MD-85/Exit 31 (I-270) to I-270 N - Dwight D Eisenhower Hwy N.,,Dwight D Eisenhower Hwy N,R,Frederick,Frederick,MD,21703,US,US/Eastern,KFDK,2021-04-09 07:25:00,52.0,52.0,100.0,29.78,4.0,CALM,0.0,0.0,Cloudy,False,False,False,False,True,False,False,False,False,False,False,False,False,Day,Day,Day,Day
C-4961912,2,2021-11-08 12:14:30.000000000,2021-11-08 14:17:53.000000000,40.235694,-79.580835,40.241531,-79.57674499999997,0.4573669393,Slow traffic on US-119 N from Burton Ave (US-119) to Fairview St (US-119) due to roadwork.,229.0,S 3rd St,R,Youngwood,Westmoreland,PA,15697-1626,US,US/Eastern,KLBE,2021-11-08 11:47:00,57.0,57.0,48.0,29.04,20.0,SSW,10.0,0.0,Fair,False,False,False,False,False,False,False,False,False,False,False,False,False,Day,Day,Day,Day
C-4961913,4,2021-04-05 00:00:00.000000000,2021-05-07 00:45:00.000000000,39.778343,-104.983585,39.779419,-104.983575,0.0743464156978999,Construction on N GRANT ST NB near E 45TH AVE Expect delays.,4501.0,N Grant St,L,Denver,Denver,CO,80216-3514,US,US/Mountain,KBJC,2021-04-05 00:15:00,52.0,52.0,38.0,24.34,10.0,WSW,7.0,0.0,Fair,False,False,True,False,False,False,False,False,False,True,False,False,False,Night,Night,Night,Night
C-4961914,4,2021-09-08 01:00:00.000000000,2021-09-24 01:45:00.000000000,40.660818,-89.649327,40.655518,-89.645397,0.4201560422779999,Construction on I-474 EB near US-24 Use alternate exit ramp.,,I-474 E,R,Peoria,Peoria,IL,61607,US,US/Central,KPIA,2021-09-08 00:54:00,65.0,65.0,65.0,29.15,10.0,CALM,0.0,0.0,Fair,False,False,False,False,False,False,False,False,False,False,False,False,False,Night,Night,Night,Night
C-4961915,4,2018-10-21 19:00:00.000000000,2018-10-22 05:00:00.000000000,39.97263,-82.99941,39.97567,-82.99475,0.32403624083,Ramp closed to I-670 - Closed due to roadwork.,,Ohio Center Way,R,Columbus,Franklin,OH,43215,US,US/Eastern,KCMH,2018-10-21 18:51:00,46.0,41.9,46.0,30.26,10.0,SSW,8.1,,Clear,False,False,False,False,False,False,False,False,False,False,False,False,False,Night,Day,Day,Day
C-4961916,2,2021-03-23 09:01:00.000000000,2021-03-23 18:01:00.000000000,33.937615,-117.123581,33.935245,-117.036681,4.98413513078,Lane closure due to Emergency Work between Summit / Badlands and Jackrabbit Tr,,CA-60 E,R,Moreno Valley,Riverside,CA,92555,US,US/Pacific,KRIV,2021-03-23 08:58:00,50.0,50.0,71.0,28.25,10.0,CALM,0.0,0.0,Mostly Cloudy,False,False,False,False,True,False,False,False,False,False,False,False,False,Day,Day,Day,Day
C-4961917,3,2019-09-03 00:01:00.000000000,2019-09-10 23:59:00.000000000,40.439331,-84.380493,,,0.2800000011919999,Road closed due to construction work on OH-66 Washington St both ways between 1st St and 2nd St. Detour in operation - SR 705 to SR 364 to SR 119.,196.0,N Washington St,R,New Bremen,Auglaize,OH,45869-1160,US,US/Eastern,KVES,2019-09-03 00:15:00,61.0,61.0,100.0,29.02,5.0,CALM,0.0,0.0,Fair,False,False,False,False,False,False,False,False,False,False,False,False,False,Night,Night,Night,Night
C-4961918,2,2021-05-26 15:42:30.000000000,2021-05-26 16:05:00.000000000,41.674928,-85.58058299999998,41.676472,-85.581695,0.121136181557,Slow traffic on IN-5 from Davis St to Summey St due to roadwork.,258.0,S Van Buren St,L,Shipshewana,LaGrange,IN,46565-9188,US,US/Eastern,KIRS,2021-05-26 15:35:00,74.0,74.0,71.0,29.01,10.0,NW,10.0,0.0,Mostly Cloudy,False,False,False,False,False,False,False,False,False,False,False,False,False,Day,Day,Day,Day
C-4961919,2,2021-11-04 12:44:00.000000000,2021-11-04 13:04:00.000000000,35.652744,-97.464738,35.652715,-97.458318,0.360442812898,Slow traffic on US-77 S - US-77 N from S Boulevard St (E 2nd St/US-77) to Coltrane Rd (E 2nd St/US-77) due to roadwork.,1133.0,E 2nd St,R,Edmond,Oklahoma,OK,73034-5318,US,US/Central,KGOK,2021-11-04 12:53:00,52.0,52.0,74.0,29.16,10.0,VAR,3.0,0.0,Mostly Cloudy,False,False,False,False,False,False,False,False,False,False,False,False,False,Day,Day,Day,Day
C-4961920,2,2020-10-23 12:27:30.000000000,2020-10-23 22:17:00.000000000,39.872737,-75.503003,39.885354,-75.5291,1.63543203738,Stationary traffic on US-322 W - US-322 - US-1 S from Smithbridge Rd to Regency Plz due to roadwork.,326.0,Conchester Hwy,R,Glen Mills,Delaware,PA,19342-1501,US,US/Eastern,KOQN,2020-10-23 12:35:00,64.0,64.0,100.0,29.49,9.0,SE,6.0,0.0,Mostly Cloudy,False,False,False,False,False,False,False,False,False,False,False,False,False,Day,Day,Day,Day
C-4961921,2,2021-12-19 11:01:30.000000000,2021-12-19 14:02:30.000000000,40.716968,-73.821062,40.717214,-73.8305,0.494547502185,Slow traffic on Grand Central Pkwy W from Homelawn St/Exit 17/Exit 18 (Grand Central Pkwy) to Jackie Robinson Pkwy/Union Tpke/Exit 13/Exit 14 (Grand Central Pkwy) due to roadwork.,,Grand Central Pkwy W,R,Flushing,Queens,NY,11367,US,US/Eastern,KLGA,2021-12-19 10:51:00,40.0,30.0,53.0,30.05,10.0,NNW,21.0,0.0,Mostly Cloudy / Windy,False,False,False,False,True,False,False,False,False,False,False,False,False,Day,Day,Day,Day
C-4961922,2,2021-08-27 23:50:00.000000000,2021-08-28 00:17:00.000000000,32.09837,-106.625028,32.0282,-106.590298,5.25750200557,Stationary traffic on US-180 E - US-85 S - I-10 E from NM-227/Exit 155 (I-10) to NM-404/Exit 162 (I-10) due to roadwork.,,I-10 E,R,Vado,Do√±a Ana,NM,88072,US,US/Mountain,K5T6,2021-08-27 23:58:00,74.0,74.0,57.0,25.98,10.0,NNW,7.0,0.0,Fair,False,False,False,False,False,False,False,False,False,False,False,False,False,Night,Night,Night,Night
C-4961923,2,2020-03-19 12:40:29.000000000,2020-03-20 13:40:29.000000000,39.57678,-76.18670999999998,39.60656,-76.19759,2.13759348905,Between MD-155/Level Rd and Shuresville Rd/Kirk Rd - Roadwork. Single alternate lane traffic.,3756.0,Level Rd,L,Havre de Grace,Harford,MD,21078,US,US/Eastern,KAPG,2020-03-19 12:58:00,53.0,53.0,94.0,30.17,3.0,CALM,0.0,0.0,Cloudy,False,False,False,False,False,False,False,False,False,False,False,True,False,Day,Day,Day,Day
C-4961924,2,2021-12-29 17:41:31.000000000,2021-12-29 18:13:26.000000000,29.899487,-81.315391,29.899642,-81.319735,0.2604134068629999,Stationary traffic on US-1 N - FL-5 from San Marco Ave to Grove Ave due to roadwork.,6.0,W Castillo Dr,L,Saint Augustine,St. Johns,FL,32084-3299,US,US/Eastern,KSGJ,2021-12-29 17:56:00,75.0,75.0,71.0,30.02,10.0,CALM,0.0,0.0,Fair,False,False,False,False,False,False,False,False,False,False,False,False,False,Night,Day,Day,Day
C-4961925,2,2021-11-08 23:44:00.000000000,2021-11-09 00:19:30.000000000,35.448235,-94.810498,35.454125,-94.880568,3.96477456239,Slow traffic on I-40 W from I-40/US-59/Exit 308 (I-40) to Dwight Mission Rd/Exit 303 (I-40) due to roadwork.,,I-40 W,R,Sallisaw,Sequoyah,OK,74955,US,US/Central,KJSV,2021-11-08 23:35:00,50.0,50.0,82.0,29.63,10.0,ENE,3.0,0.0,Fair,False,False,False,False,True,False,False,False,False,False,False,False,False,Night,Night,Night,Night
C-4961926,2,2020-12-17 03:01:00.000000000,2020-12-17 14:46:00.000000000,34.03549,-118.170155,34.033176,-118.115859,3.11298220943,Lane closure due to Pavement Rehabilitation between Long Beach Freeway Route 710 and Findlay Ave,,I-710 S,R,Los Angeles,Los Angeles,CA,90022,US,US/Pacific,KCQT,2020-12-17 02:52:00,51.0,51.0,56.0,29.83,10.0,CALM,0.0,0.0,Fair,False,False,False,False,False,False,False,False,False,False,False,False,False,Night,Night,Night,Night
C-4961927,2,2020-09-08 16:00:00.000000000,2020-12-20 00:12:06.000000000,40.511112,-80.135486,40.513176,-80.134725,0.148105616896,Roadwork on I-79 northbound between Exit 65: NEVILLE ISLAND and Exit 66: PA 65 - EMSWORTH/SEWICKLEY/GLENFIELD. There is a shoulder closed.,,I-79 N,R,Pittsburgh,Allegheny,PA,15225,US,US/Eastern,KPIT,2020-09-08 15:51:00,84.0,84.0,49.0,28.81,10.0,CALM,0.0,0.0,Fair,False,False,False,False,False,False,False,False,False,False,False,False,False,Day,Day,Day,Day
C-4961928,4,2021-07-19 07:00:00.000000000,2021-07-24 12:00:00.000000000,40.072175,-79.522944,40.064861,-79.523566,0.506418346769,Closed road from Shenandoah Rd to Spruce Hollow Rd due to roadwork.,2.0,Shenandoah Rd,L,Connellsville,Fayette,PA,15425,US,US/Eastern,KLBE,2021-07-19 06:47:00,63.0,63.0,100.0,28.9,8.0,CALM,0.0,0.0,Fair,False,False,False,False,False,False,False,False,False,False,False,False,False,Day,Day,Day,Day
C-4961929,2,2021-07-12 09:00:00.000000000,2021-07-16 15:00:00.000000000,38.044991,-84.495537,,,0.0,Lane blocked due to construction work on Martin Luther King Blvd at US-25 Main St.,2.0,N Martin Luther King Blvd,L,Lexington,Fayette,KY,40507,US,US/Eastern,KLEX,2021-07-12 08:54:00,73.0,73.0,87.0,29.03,10.0,S,12.0,0.0,Cloudy,True,False,False,False,False,False,False,False,False,False,False,False,False,Day,Day,Day,Day
C-4961930,4,2020-03-11 07:00:00.000000000,2020-12-16 07:59:00.000000000,37.172184,-93.658304,37.177734,-93.659274,0.387168965926,Closed road from County Road 1222 to State Highway 96 due to roadwork.,6999.0,Lawrence 1222,L,Ash Grove,Lawrence,MO,65604-7173,US,US/Central,KSGF,2020-03-11 06:52:00,48.0,44.0,96.0,28.71,4.0,NE,8.0,0.25,Heavy Rain,False,False,False,False,False,False,False,False,False,False,False,False,False,Night,Night,Day,Day
C-4961931,2,2021-07-09 14:29:30.000000000,2021-07-09 17:39:18.000000000,33.490495,-112.203258,33.494822,-112.203833,0.300797495627,Stationary traffic from W Columbus Ave to N 69th Dr due to roadwork.,3634.0,N 67th Ave,L,Phoenix,Maricopa,AZ,85033-4536,US,US/Mountain,KGEU,2021-07-09 14:58:00,108.0,108.0,21.0,28.64,10.0,SSW,15.0,0.0,Fair,False,False,False,False,False,False,False,False,True,False,False,False,False,Day,Day,Day,Day
C-4961932,2,2021-08-26 08:17:00.000000000,2021-08-26 10:48:12.000000000,33.523974,-112.136084,33.523617,-112.134261,0.107863366442,Stationary traffic from N 36th Ave to W Rancho Dr due to roadwork.,3598.0,W Bethany Home Rd,R,Phoenix,Maricopa,AZ,85019-1940,US,US/Mountain,KGEU,2021-08-26 07:58:00,84.0,84.0,39.0,28.67,10.0,N,5.0,0.0,Fair,True,False,True,False,False,False,False,False,True,True,False,True,False,Day,Day,Day,Day
C-4961933,2,2020-09-05 15:46:30.000000000,2020-09-05 23:25:36.000000000,33.636558,-112.065405,33.637671000000005,-112.066406,0.0960700827355,Queuing traffic from E Aire Libre Ave to N 3rd St due to roadwork.,16671.0,N 7th St,L,Phoenix,Maricopa,AZ,85022,US,US/Mountain,KDVT,2020-09-05 15:53:00,110.0,110.0,11.0,28.3,10.0,SSE,9.0,0.0,Fair,True,False,False,False,False,False,False,False,True,False,False,False,False,Day,Day,Day,Day
C-4961934,2,2021-09-13 14:45:00.000000000,2021-09-13 15:04:30.000000000,35.085711,-81.700524,35.074104,-81.749076,2.86000134746,Slow traffic on I-85 S from SC-11/Exit 92 (I-85) to Green River Rd/Exit 86 (I-85) due to roadwork.,,I-85 S,R,Gaffney,Cherokee,SC,29341,US,US/Eastern,KEHO,2021-09-13 14:55:00,84.0,84.0,58.0,29.25,10.0,WSW,6.0,0.0,Fair,False,False,False,False,False,False,False,False,False,False,False,False,False,Day,Day,Day,Day
C-4961935,2,2019-10-21 08:57:50.000000000,2019-10-25 08:57:33.000000000,34.16346,-118.29778,34.16578,-118.29529,0.214381341949,At I-5/Flower St - Roadwork.,1698.0,Lake St,L,Glendale,Los Angeles,CA,91201-2621,US,US/Pacific,KBUR,2019-10-21 08:53:00,73.0,73.0,27.0,29.2,10.0,CALM,0.0,0.0,Fair,False,False,False,False,False,False,False,False,False,False,False,True,False,Day,Day,Day,Day
C-4961936,2,2021-12-23 17:20:30.000000000,2021-12-23 19:53:19.000000000,33.466366,-112.012921,33.465268,-112.01292,0.0758645965606,Slow traffic from E Thomas Rd (N 32nd St) to AZ-202/Red Mountain Fwy (N 32nd St) due to roadwork.,1611.0,N 32nd St,R,Phoenix,Maricopa,AZ,85008-3802,US,US/Mountain,KPHX,2021-12-23 16:51:00,72.0,72.0,22.0,28.72,10.0,NW,6.0,0.0,Mostly Cloudy,True,False,False,False,False,False,False,False,True,False,False,False,False,Day,Day,Day,Day
C-4961937,2,2021-04-28 19:01:00.000000000,2021-04-29 12:01:00.000000000,38.672422,-121.728483,38.674072,-121.728453,0.114015627402,Lane closure due to Bridge Work between Co Rd 102 and East Main St,,County Road 102,R,Woodland,Yolo,CA,95776,US,US/Pacific,KSMF,2021-04-28 18:53:00,85.0,85.0,11.0,30.04,10.0,NNE,3.0,0.0,Fair,False,False,True,False,False,False,False,False,False,False,False,False,False,Day,Day,Day,Day
C-4961938,4,2018-10-03 13:17:29.000000000,2018-10-03 18:16:43.000000000,42.859164,-78.869973,42.883462,-78.879099,1.7412722104799998,Closed between Fuhrmann Blvd/Tifft St and Edward St/Goodell St - Closed due to roadwork.,,Buffalo Skwy N,R,Buffalo,Erie,NY,14203,US,US/Eastern,KBUF,2018-10-03 12:54:00,59.0,,83.0,30.12,10.0,SSW,5.8,,Overcast,False,False,True,False,False,False,False,False,False,False,False,True,False,Day,Day,Day,Day
C-4961939,4,2018-06-25 23:08:29.000000000,2018-06-27 15:00:59.000000000,44.95804,-93.26928,44.97112,-93.26793,0.906148479736,Closed between I-35w and MN-55/10th St - Closed. Construction work.,,I-35W N,R,Minneapolis,Hennepin,MN,55404,US,US/Central,KMSP,2018-06-25 22:53:00,73.9,,68.0,29.97,10.0,East,10.4,0.0,Light Rain,False,False,False,False,False,False,False,False,False,False,False,True,False,Night,Night,Night,Day
C-4961940,4,2019-01-21 21:01:28.000000000,2019-01-25 21:00:43.000000000,30.196,-93.26618,30.205018,-93.283267,1.19555948004,Closed at I-10/Pete Manena Rd/Exit 1 - Closed due to roadwork.,,I-210 W,R,Lake Charles,Calcasieu,LA,70601,US,US/Central,KCWF,2019-01-21 20:50:00,51.8,,82.0,30.18,10.0,SE,15.0,,Mostly Cloudy,False,False,False,False,False,False,False,False,False,False,False,False,False,Night,Night,Night,Night
C-4961941,2,2021-06-30 09:00:00.000000000,2021-06-30 15:00:00.000000000,30.26881,-97.669456,,,1.20000004768,Right lane closed due to construction work on US-183 Northbound between Smith Rd and Hudson St.,3399.0,Ed Bluestein Blvd,R,Austin,Travis,TX,78725,US,US/Central,KAUS,2021-06-30 08:53:00,75.0,75.0,96.0,29.52,1.0,E,6.0,0.0,Fog,False,False,False,False,False,False,False,False,False,False,False,False,False,Day,Day,Day,Day
C-4961942,2,2020-10-05 12:48:30.000000000,2020-10-05 22:26:48.000000000,39.606107,-86.368238,39.608689,-86.3614,0.405365421898,Queuing traffic on IN-67 from S Indiana St (IN-67) to IN-67 (Mooresville) (East) (IN-67) due to roadwork.,693.0,S State Road 67,L,Mooresville,Morgan,IN,46158,US,US/Eastern,KIND,2020-10-05 12:54:00,58.0,58.0,47.0,29.42,10.0,VAR,5.0,0.0,Fair,False,False,False,False,False,False,False,False,False,False,False,False,False,Day,Day,Day,Day
C-4961943,2,2021-09-13 09:47:00.000000000,2021-09-13 10:44:00.000000000,40.67641500000001,-73.971909,40.68412,-73.97748399999998,0.6072432972990001,Slow traffic from Grand Army Plz (Grand Army Plz/Flatbush Ave) to Atlantic Ave (Flatbush Ave) due to roadwork.,100.0,Sterling Pl,R,Brooklyn,Kings,NY,11238-4401,US,US/Eastern,KJRB,2021-09-13 09:51:00,78.0,78.0,64.0,29.94,10.0,VAR,6.0,0.0,Fair,True,False,False,False,False,False,False,False,False,False,False,True,False,Day,Day,Day,Day
C-4961944,2,2020-10-24 04:25:30.000000000,2020-10-24 07:24:09.000000000,30.002213,-94.19344,29.989963,-94.20586,1.12637939561,Roadwork on I-10 from Exit 845 (I-10) to Smith Rd/Exit 843 (I-10).,,I-10 W,R,Beaumont,Jefferson,TX,77713,US,US/Central,KBMT,2020-10-24 04:30:00,60.0,60.0,88.0,30.02,10.0,NNW,12.0,0.0,Cloudy,False,False,False,False,True,False,False,False,False,False,False,False,False,Night,Night,Night,Night
C-4961945,2,2021-03-19 04:52:30.000000000,2021-03-19 15:10:58.000000000,32.149662,-90.115158,32.154451,-90.123876,0.607918576835,Slow traffic on US-49 N from Star Rd/Main St (US-49) to MS-469/E Main St (US-49) due to roadwork.,3250.0,Highway 49 S,L,Florence,Rankin,MS,39073-8035,US,US/Central,KJAN,2021-03-19 04:54:00,49.0,45.0,64.0,29.79,10.0,NW,8.0,0.0,Cloudy,False,False,False,False,False,False,False,False,False,False,False,False,False,Night,Night,Night,Night
C-4961946,2,2019-12-20 06:01:00.000000000,2019-12-20 13:59:00.000000000,37.2951,-120.42946,37.29514,-120.41556,0.764026127605,At N Plainsburg Rd - Construction work. Hard shoulder blocked.,,E State Highway 140,R,Merced,Merced,CA,95340,US,US/Pacific,KMCE,2019-12-20 05:53:00,38.0,38.0,93.0,30.09,10.0,ESE,3.0,0.0,Fair,False,False,True,False,False,False,True,False,False,True,False,False,False,Night,Night,Night,Day
C-4961947,4,2019-09-06 23:51:06.000000000,2019-09-07 04:50:06.000000000,40.95351,-85.16753,40.889924,-85.16649,4.3937096697000015,Closed between I-469 and US-224/E County Road 600 N - Closed due to roadwork.,,Bluffton Rd,R,Yoder,Allen,IN,46798,US,US/Eastern,KFWA,2019-09-06 23:54:00,64.0,64.0,90.0,29.12,10.0,WNW,6.0,0.0,Cloudy,False,False,False,False,False,False,False,False,False,True,False,False,False,Night,Night,Night,Night
C-4961948,3,2019-06-13 22:00:00.000000000,2019-06-14 05:00:00.000000000,39.945358,-82.480621,,,4.71999979019,Intermittent lane closures due to paving repairs on I-70 Eastbound between Exit 126 OH-37 Lancaster Rd and Exit 129 OH-79 Hebron Rd.,,I-70 W,R,Hebron,Licking,OH,43025,US,US/Eastern,KVTA,2019-06-13 21:54:00,54.0,54.0,86.0,28.96,10.0,W,18.0,0.02,Light Rain,False,False,False,False,False,False,False,False,False,False,False,False,False,Night,Night,Day,Day
C-4961949,2,2020-06-16 13:21:52.000000000,2020-06-21 04:14:02.000000000,40.07389000000001,-77.90974,40.08904,-77.82654000000002,4.52124665959,Between Tuscarora Tunl (West) and Tuscarora Tunl (East) - Roadwork. Roadway reduced to 1 lane.,,I-76 W,R,Burnt Cabins,Fulton,PA,17215,US,US/Eastern,KAOO,2020-06-16 12:53:00,74.0,74.0,41.0,28.77,,NE,8.0,0.0,Partly Cloudy,False,False,False,False,False,False,False,False,False,False,False,False,False,Day,Day,Day,Day
C-4961950,2,2021-02-11 05:14:30.000000000,2021-02-11 18:42:06.000000000,33.478879,-112.13439,33.480448,-112.135674,0.131254188447,Slow traffic from W Virginia Ave to N 36th Ave due to roadwork.,2804.0,N 35th Ave,L,Phoenix,Maricopa,AZ,85009-1309,US,US/Mountain,KPHX,2021-02-11 04:51:00,50.0,50.0,52.0,28.75,10.0,CALM,0.0,0.0,Fair,False,False,False,False,False,False,False,False,False,False,False,False,False,Night,Night,Night,Night
C-4961951,4,2018-09-19 06:40:40.000000000,2018-09-19 11:40:17.000000000,40.905691,-73.812588,40.90613,-73.81357,0.0595789952661999,Closed at Wolfs Ln - Closed. Construction work.,240.0,Carol Ave,L,Pelham,Westchester,NY,10803-1804,US,US/Eastern,KLGA,2018-09-19 06:51:00,72.0,,81.0,29.83,10.0,North,6.9,,Partly Cloudy,False,False,False,False,False,False,False,False,False,False,False,False,False,Day,Day,Day,Day
C-4961952,2,2021-09-11 09:23:30.000000000,2021-09-11 14:10:00.000000000,47.595861,-122.320257,47.605152,-122.328072,0.7380121625339999,Slow traffic on I-5 N from Seattle Fwy/Exit 163 (I-5) to James St/Exit 164 (I-5) due to roadwork.,,S Dearborn St,R,Seattle,King,WA,98134,US,US/Pacific,KBFI,2021-09-11 09:53:00,61.0,61.0,72.0,30.19,10.0,SSE,7.0,0.0,Mostly Cloudy,False,False,False,False,True,False,False,False,False,False,False,False,False,Day,Day,Day,Day
C-4961953,2,2020-11-28 06:08:00.000000000,2020-11-28 14:45:00.000000000,38.802691,-77.608977,38.797961,-77.586207,1.26890152582,Construction on I-66 EB near MM 44 Expect delays.,,I-66 E,R,Gainesville,Prince William,VA,20155,US,US/Eastern,KHEF,2020-11-28 06:02:00,39.0,39.0,93.0,29.82,6.0,CALM,0.0,0.0,Fair,False,False,False,False,False,False,False,False,False,False,False,False,False,Night,Night,Day,Day
C-4961954,2,2016-04-12 09:00:54.000000000,2016-04-12 15:00:54.000000000,39.62264,-75.64752,39.61498,-75.64645,0.532310641945,At US-13/Dupont Hwy - Construction work.,,DE-1 S,R,New Castle,New Castle,DE,19720,US,US/Eastern,KILG,2016-04-12 08:51:00,57.9,,90.0,29.99,10.0,SW,11.5,0.06,Light Rain,False,False,False,False,True,False,False,False,False,False,False,False,False,Day,Day,Day,Day
C-4961955,2,2020-09-25 18:38:00.000000000,2020-09-26 01:45:47.000000000,41.966347,-71.18715300000002,41.96602100000001,-71.189032,0.0991242568987,Stationary traffic on MA-123 - MA-140 from Howard St to Fernandes Cir due to roadwork.,12.0,Taunton Ave,R,Norton,Bristol,MA,02766-2738,US,US/Eastern,KTAN,2020-09-25 18:52:00,68.0,68.0,65.0,30.04,10.0,CALM,0.0,0.0,Fair,False,False,False,False,False,False,False,False,True,False,False,False,False,Night,Day,Day,Day
C-4961956,2,2021-12-03 17:20:40.000000000,2021-12-03 20:15:22.000000000,26.25418,-80.18628100000002,26.260823,-80.18628100000002,0.458987586066,Slow traffic from Coconut Creek Pkwy (46th Ave/Lyons Rd) to FL-834/W Sample Rd/NW 36th St (Lyons Rd) due to roadwork.,1922.0,Lyons Rd,L,Pompano Beach,Broward,FL,33066,US,US/Eastern,KFXE,2021-12-03 16:53:00,76.0,76.0,56.0,30.07,10.0,ENE,6.0,0.0,Fair,False,False,False,False,False,False,False,False,False,False,False,False,False,Day,Day,Day,Day
C-4961957,2,2021-07-26 03:40:45.000000000,2021-07-30 03:00:20.000000000,34.781202,-83.746494,34.764972,-83.749854,1.1374847978799998,Roadwork on Chattahoochee River Rd (GA-75) from GA-356 (GA-75) to GA-75 - GA-17.,,Highway 75 N,R,Helen,White,GA,30545,US,US/Eastern,KDZJ,2021-07-26 03:35:00,67.0,67.0,100.0,28.25,3.0,CALM,0.0,0.0,Partly Cloudy,False,False,False,False,False,False,False,False,False,False,False,False,False,Night,Night,Night,Night
C-4961958,2,2021-10-09 10:30:00.000000000,2021-10-09 12:45:11.000000000,41.927413,-87.835688,41.92873400000001,-87.836323,0.0969336868944999,Slow traffic on IL-171 from 1st Ave to Tarpey Ln due to roadwork.,2623.0,Thatcher Ave,R,River Grove,Cook,IL,60171-1612,US,US/Central,KORD,2021-10-09 10:51:00,73.0,73.0,71.0,29.21,10.0,SE,5.0,0.0,Fair,True,False,False,False,False,False,False,False,True,False,False,False,False,Day,Day,Day,Day
C-4961959,2,2020-07-23 17:48:53.000000000,2020-07-25 00:09:44.000000000,40.258463,-74.040754,40.257482,-74.040547,0.0686538196339,Construction utility work on NJ 35 northbound North of Deal Rd (Ocean Twp) right shoulder closed until 3:00 P.M.,1704.0,State Highway 35,L,Oakhurst,Monmouth,NJ,07755-2955,US,US/Eastern,KBLM,2020-07-23 17:56:00,86.0,86.0,82.0,29.82,10.0,CALM,0.0,0.0,Mostly Cloudy,False,False,False,False,False,False,False,False,False,False,False,False,False,Day,Day,Day,Day
C-4961960,2,2021-12-10 15:23:00.000000000,2021-12-10 15:51:30.000000000,39.825888,-84.890374,39.829037,-84.890354,0.217577766299,Stationary traffic on US-27 N - IN-227 from S E St (IN-227/S 8th St/S 9th St/US-27) to US-40/E Main St (IN-227/S 8th St/S 9th St/US-27) due to roadwork.,181.0,S 9th St,R,Richmond,Wayne,IN,47374-5507,US,US/Eastern,KVES,2021-12-10 15:30:00,54.0,54.0,94.0,28.77,5.0,S,8.0,0.0,Cloudy,False,False,True,False,False,False,False,False,False,False,False,False,False,Day,Day,Day,Day
C-4961961,2,2021-12-10 16:16:07.000000000,2021-12-10 18:42:12.000000000,27.81906,-82.679462,27.821140000000003,-82.6802,0.150623928047,Slow traffic on US-19 N from 50th Ave N to 35th Way N due to roadwork.,5177.0,34th St N,R,Saint Petersburg,Pinellas,FL,33714-2432,US,US/Eastern,KSPG,2021-12-10 15:53:00,77.0,77.0,82.0,30.05,10.0,ENE,3.0,0.0,Fair,False,False,True,False,False,False,False,False,True,False,False,False,False,Day,Day,Day,Day
C-4961962,2,2018-10-12 08:20:43.000000000,2018-10-16 08:21:42.000000000,40.131186,-75.51147900000002,40.129974,-75.511081,0.0863403384293999,At PA-23/Nutt Rd - Roadwork. Traffic problem.,200.0,Starr St,R,Phoenixville,Chester,PA,19460-3631,US,US/Eastern,KPTW,2018-10-12 07:54:00,57.0,,64.0,29.66,10.0,NW,20.7,,Overcast,False,False,False,False,False,False,False,False,False,False,False,False,False,Day,Day,Day,Day
C-4961963,2,2021-06-27 12:52:24.000000000,2021-12-24 12:36:30.000000000,39.001616,-77.347734,39.000843,-77.34491700000002,0.160410569034,Stationary traffic on VA-193 - VA-7 from Sugarland Rd to Seneca Rd due to roadwork.,11615.0,Leesburg Pike,L,Herndon,Fairfax County,VA,20170-2102,US,US/Eastern,KIAD,2021-06-27 12:52:00,87.0,87.0,59.0,29.84,10.0,SSW,14.0,0.0,Mostly Cloudy,False,False,True,False,False,False,False,False,False,False,False,True,False,Day,Day,Day,Day
C-4961964,2,2021-03-22 00:00:00.000000000,2021-03-26 00:45:00.000000000,33.909567,-81.14009899999998,33.909672,-81.13969,0.0245493000809,Construction on RAMBLIN RD near FROM TEST TO Allow extra time.,828.0,Ramblin Rd,R,West Columbia,Lexington,SC,29170-4041,US,US/Eastern,KCAE,2021-03-22 00:56:00,58.0,58.0,58.0,29.95,10.0,NE,13.0,0.0,Fair,False,False,False,False,False,False,False,False,False,False,False,False,False,Night,Night,Night,Night
C-4961965,2,2021-04-20 05:04:30.000000000,2021-04-20 11:57:30.000000000,32.881884,-96.693244,32.885316,-96.699344,0.426032263514,Slow traffic on I-635 W - LBJ Fwy W from Kingsley Rd/Exit 13 (I-635) to New Church Rd/Plano Rd/Exit 14 (I-635) due to roadwork.,,I-635 W,R,Dallas,Dallas,TX,75238,US,US/Central,KDAL,2021-04-20 04:53:00,53.0,53.0,69.0,29.43,10.0,CALM,0.0,0.0,Fair,False,False,False,False,False,False,False,False,False,False,False,False,False,Night,Night,Night,Night
C-4961966,2,2021-10-10 14:55:00.000000000,2021-10-10 17:21:20.000000000,39.68221,-105.083075,39.681,-105.08154,0.116840862331,Slow traffic on CO-121 from S Allison St to W Evans Ave due to roadwork.,7814.0,W Jewell Ave,L,Lakewood,Jefferson,CO,80232-6808,US,US/Mountain,KAPA,2021-10-10 14:53:00,60.0,,28.0,24.05,10.0,,,0.0,Fair,False,False,True,False,False,False,False,False,False,False,False,True,False,Day,Day,Day,Day
C-4961967,2,2021-10-15 18:04:30.000000000,2021-10-15 20:08:45.000000000,33.478628,-112.186407,33.480518,-112.185528,0.140067571197,Slow traffic from W Roanoke Ave to N 57th Ave due to roadwork.,2819.0,N 59th Ave,R,Phoenix,Maricopa,AZ,85035-1600,US,US/Mountain,KGEU,2021-10-15 17:58:00,83.0,83.0,9.0,28.85,10.0,ENE,9.0,0.0,Fair,False,False,False,False,False,False,False,False,False,True,False,False,False,Night,Day,Day,Day
C-4961968,2,2021-01-30 20:39:24.000000000,2021-01-30 21:09:45.000000000,33.466428,-82.16172900000002,33.465562,-82.168367,0.387255801384,Stationary traffic on GA-874 from GA-383/Jimmie Dyess Pkwy (Wrightsboro Rd) to GA-388/Katherine St/Horizon South Pkwy (Wrightsboro Rd) due to roadwork.,698.0,Hagin Rd,R,Grovetown,Columbia,GA,30813-4701,US,US/Eastern,KDNL,2021-01-30 20:53:00,46.0,43.0,44.0,29.75,10.0,ESE,6.0,0.0,Mostly Cloudy,False,False,False,False,False,False,False,False,False,False,False,False,False,Night,Night,Night,Night
C-4961969,2,2021-03-29 20:00:00.000000000,2021-12-14 18:44:33.000000000,25.684871,-80.400574,25.685901,-80.40190799999998,0.1093805134369999,Slow traffic on FL-94 from SW 89th Ter to SW 132nd Ave due to roadwork.,,SW 127th Ave,R,Miami,Miami-Dade,FL,33186,US,US/Eastern,KTMB,2021-12-14 15:53:00,80.0,80.0,62.0,30.16,10.0,E,14.0,0.0,Cloudy,False,False,False,False,False,False,False,False,False,False,False,False,False,Night,Night,Day,Day
C-4961970,2,2021-07-09 07:00:00.000000000,2021-09-12 00:16:11.000000000,40.71346,-74.014059,40.70917,-74.015126,0.301632499336,Stationary traffic on NY-9A from Canal St (I-78) exit [3] to I-278 exit [2] due to roadwork.,135.0,West St,R,New York,New York,NY,10007,US,US/Eastern,KJRB,2021-09-11 21:51:00,71.0,71.0,51.0,30.05,10.0,VAR,3.0,0.0,Fair,False,False,False,False,False,False,False,False,False,False,False,False,False,Day,Day,Day,Day
C-4961971,3,2019-07-08 21:01:50.000000000,2019-07-12 21:01:29.000000000,47.531678,-122.022305,47.46441,-121.71508,15.0757538271,Between Sunset Way/Exit 18 and 468th Ave/Exit 34 - Construction work.,,I-90 E,R,Issaquah,King,WA,98027,US,US/Pacific,KRNT,2019-07-08 20:53:00,71.0,71.0,57.0,29.93,9.0,CALM,0.0,0.0,Fair,False,False,False,False,False,False,False,False,False,False,False,False,False,Day,Day,Day,Day
C-4961972,2,2021-10-26 19:00:00.000000000,2021-10-27 06:00:00.000000000,33.901701,-84.35817,33.902887,-84.35904000000002,0.0959381919541,Roadwork at Glenridge Connector NE.,5192.0,Falcon Chase Ln NE,L,Atlanta,Fulton,GA,30342,US,US/Eastern,KPDK,2021-10-26 18:53:00,57.0,57.0,64.0,28.84,10.0,NW,14.0,0.0,Fair,False,False,False,False,False,False,False,False,False,False,False,False,False,Night,Day,Day,Day
C-4961973,2,2021-02-02 18:42:00.000000000,2021-02-02 19:34:30.000000000,29.713116,-81.725148,29.716867,-81.725189,0.259181094476,Stationary traffic from FL-100 (Bardin Rd/CR-309) to Hercules Rd/Cemetery Rd (Bardin Rd/CR-309) due to roadwork.,336.0,Bardin Rd,R,Palatka,Putnam,FL,32177-8703,US,US/Eastern,K42J,2021-02-02 18:53:00,46.0,42.0,51.0,29.79,10.0,WNW,8.0,0.0,Fair,False,False,False,False,False,False,False,False,False,False,False,False,False,Night,Night,Day,Day
C-4961974,2,2021-07-28 04:08:00.000000000,2021-07-28 05:00:30.000000000,35.174349,-92.723182,35.176839,-92.749212,1.48011076664,Slow traffic on I-40 W from AR-9/Exit 108 (I-40) to AR-95/Exit 107 (I-40) due to roadwork.,,I-40 W,R,Morrilton,Conway,AR,72110,US,US/Central,KRUE,2021-07-28 03:53:00,76.0,76.0,94.0,29.6,10.0,CALM,0.0,0.0,Fair,False,False,False,False,False,False,False,False,False,False,False,False,False,Night,Night,Night,Night
C-4961975,2,2021-12-29 02:12:00.000000000,2021-12-29 04:19:04.000000000,39.46091,-121.284006,39.462724,-121.283519,0.1279994081729999,Roadwork from Willow Glen Rd to Allen Way.,,La Porte Rd,R,Brownsville,Yuba,CA,95919,US,US/Pacific,KOVE,2021-12-29 02:02:00,42.0,42.0,89.0,29.6,4.0,NE,3.0,0.01,Light Rain,False,False,False,False,False,False,False,False,False,False,False,False,False,Night,Night,Night,Night
C-4961976,4,2021-11-16 07:36:00.000000000,2021-11-16 09:49:12.000000000,41.625078,-75.114929,41.617923,-75.095699,1.1094715515200002,Roadwork on LASSLYS RD both directions between SR 1004 SH and BEACH LAKE HW. All lanes closed.,630.0,Milanville Rd,R,Beach Lake,Wayne,PA,18405-4018,US,US/Eastern,KMSV,2021-11-16 07:29:00,32.0,27.0,93.0,28.56,10.0,W,5.0,0.0,Mostly Cloudy,False,False,False,False,False,False,False,False,False,False,False,False,False,Day,Day,Day,Day
C-4961977,3,2020-02-23 22:00:00.000000000,2020-02-24 05:00:00.000000000,42.322479,-71.05393199999997,,,0.579999983311,Entry ramp to I-93 Northbound from Columbia Rd closed due to maintenance work.,129.0,Von Hillern St,L,Dorchester,Suffolk,MA,02125-1122,US,US/Eastern,KBOS,2020-02-23 21:54:00,44.0,38.0,40.0,30.06,10.0,SW,12.0,0.0,Partly Cloudy,False,False,False,False,False,False,False,False,False,False,False,False,False,Night,Night,Night,Night
C-4961978,3,2019-03-24 19:02:26.000000000,2019-03-28 19:02:03.000000000,39.48436,-119.85221,39.47656,-119.80795,2.42109291001,Between Cashill Blvd and Lakeside Dr - Construction work. Lane blocked.,,S McCarran Blvd,R,Reno,Washoe,NV,89509,US,US/Pacific,KRNO,2019-03-24 18:55:00,55.0,,27.0,30.15,10.0,East,10.4,,Mostly Cloudy,False,False,True,False,False,False,False,False,False,False,False,True,False,Day,Day,Day,Day
C-4961980,2,2020-12-09 23:22:47.000000000,2020-12-12 07:59:00.000000000,40.277096,-74.780488,40.276724,-74.780568,0.0260464035673,Milling and paving operations on NJ 31 northbound from CR 636/Ewingville Rd/Upper Ferry Rd (Ewing Twp) to North of CR 636/Ewingville Rd/Upper Ferry Rd (Ewing Twp) Not currently Scheduled,2091.0,Pennington Rd,L,Ewing,Mercer,NJ,08618-1108,US,US/Eastern,KTTN,2020-12-09 22:53:00,34.0,28.0,79.0,29.63,8.0,W,7.0,0.0,Fair,True,False,False,False,False,False,False,False,False,False,False,True,False,Night,Night,Night,Night
C-4961981,2,2021-07-01 08:00:00.000000000,2021-07-01 15:45:00.000000000,38.862725,-77.290885,38.853106,-77.321466,1.7745181630400002,Construction on US-29 SB near UNIVERSITY DR Construction. Right lane closed.,,Stafford Dr,R,Fairfax,Fairfax City,VA,22030,US,US/Eastern,KIAD,2021-07-01 07:52:00,76.0,76.0,91.0,29.59,10.0,S,6.0,0.0,Mostly Cloudy,False,False,False,False,False,False,False,False,True,False,False,True,False,Day,Day,Day,Day
C-4961982,2,2021-10-19 16:13:00.000000000,2021-10-19 16:38:00.000000000,38.956227,-84.626775,38.957542,-84.619986,0.375907475987,Stationary traffic on KY-2953 - KY-536 from I-71/I-75 (Mt Zion Rd/KY-536) to US-25 (Mt Zion Rd/KY-536) due to roadwork.,10001.0,Demia Way,R,Florence,Boone,KY,41042-4746,US,US/Eastern,KCVG,2021-10-19 15:52:00,69.0,69.0,39.0,29.21,10.0,SW,7.0,0.0,Mostly Cloudy,False,False,False,False,False,False,False,False,False,False,False,True,False,Day,Day,Day,Day
C-4961983,2,2020-10-27 01:51:00.000000000,2020-10-28 02:41:33.000000000,41.36978,-75.689524,41.35721,-75.717124,1.6741483676499995,Roadwork on I-81 southbound between 1.4 miles north of Exit 182B: DAVIS ST and 1 miles south of Exit 180: US 11 SOUTH/PA 502 - MOOSIC. There is a lane restriction.,,I-81 S,R,Moosic,Lackawanna,PA,18507,US,US/Eastern,KAVP,2020-10-27 01:54:00,51.0,51.0,86.0,29.11,10.0,NNW,9.0,0.0,Cloudy,False,False,False,False,True,False,False,False,False,False,False,False,False,Night,Night,Night,Night
C-4961984,3,2017-09-12 21:53:45.000000000,2017-09-28 02:01:39.000000000,36.00287,-79.85406,36.05347,-79.6852,10.0624018032,Between I-85-BR/US-29/US-70/Exit 120A and I-840/Exit 131 - Construction work.,,I-85 N,R,Greensboro,Guilford,NC,27407,US,US/Eastern,KGSO,2017-09-12 21:54:00,69.1,,100.0,29.87,0.2,NNE,4.6,,Fog,False,False,False,False,True,False,False,False,False,False,False,False,False,Night,Night,Night,Night
C-4961985,4,2021-08-10 14:28:00.000000000,2021-08-17 00:05:05.000000000,44.03722,-123.067988,44.037497,-123.062225,0.286889281126,Closed road from E 21st Ave to Summit Ave due to roadwork.,2391.0,Fairmount Blvd,L,Eugene,Lane,OR,97403-1785,US,US/Pacific,KEUG,2021-08-10 14:54:00,92.0,92.0,30.0,29.6,10.0,N,15.0,0.0,Partly Cloudy,False,False,False,False,False,False,False,False,False,False,False,False,False,Day,Day,Day,Day
C-4961986,2,2020-06-29 08:04:37.000000000,2020-06-29 17:00:00.000000000,42.24647,-75.491,42.24647,-75.491,0.0,At RT-41/Maple St - Roadwork. Lane blocked.,1556.0,State Highway 7,R,Afton,Chenango,NY,13730-2211,US,US/Eastern,KBGM,2020-06-29 07:53:00,65.0,65.0,84.0,28.19,10.0,N,9.0,0.0,Fair,False,False,False,False,False,False,False,False,False,False,False,False,False,Day,Day,Day,Day
C-4961987,4,2019-04-18 21:00:35.000000000,2019-04-19 02:00:31.000000000,47.59723,-122.31998,47.59813,-122.32044,0.0657738727956999,Ramp closed to I-5 Northbound and James St and Madison St - Closed due to roadwork.,543.0,10th Ave S,R,Seattle,King,WA,98104-3045,US,US/Pacific,KBFI,2019-04-18 20:53:00,57.0,57.0,87.0,30.06,10.0,SSE,9.0,0.03,Light Rain,False,False,False,False,False,True,False,False,False,False,False,False,False,Night,Night,Day,Day
C-4961988,2,2020-12-23 15:00:00.000000000,2020-12-23 23:45:00.000000000,40.743345,-73.775188,40.747479,-73.761342,0.779039854163,Construction on I-495 SB near 2ND ST Expect delays.,,Long Island Expy E,R,Oakland Gardens,Queens,NY,11364,US,US/Eastern,KLGA,2020-12-23 14:51:00,43.0,38.0,45.0,30.33,10.0,S,9.0,0.0,Mostly Cloudy,False,False,True,False,False,False,False,False,False,False,False,True,False,Day,Day,Day,Day
C-4961989,2,2021-08-14 18:31:30.000000000,2021-08-14 18:51:30.000000000,39.353303,-94.765396,39.353316,-94.763708,0.0901884477861,Slow traffic on MO-92 from 4th St (Branch St/MO-92) to I-29/US-71 (MO-92) due to roadwork.,,Branch St,R,Platte City,Platte,MO,64079,US,US/Central,KMCI,2021-08-14 18:53:00,84.0,84.0,46.0,29.1,10.0,NE,7.0,0.0,Fair,False,False,False,False,False,False,False,False,False,False,False,False,False,Day,Day,Day,Day
C-4961990,2,2020-05-25 10:41:53.000000000,2020-05-26 10:41:53.000000000,40.25876,-76.70008,40.26671,-76.68395,1.01241241222,At US-422/PA-39/Hershey Park Dr - Long-term roadwork.,9974.0,Paxton St,L,Hummelstown,Dauphin,PA,17036,US,US/Eastern,KMDT,2020-05-25 10:56:00,64.0,64.0,72.0,29.89,10.0,CALM,0.0,0.0,Cloudy,False,False,False,False,False,False,False,False,False,False,False,False,False,Day,Day,Day,Day
C-4961991,4,2018-10-26 14:05:25.000000000,2018-10-31 12:00:00.000000000,40.90097,-80.83877,40.90096,-80.84796800000002,0.480354447401,Closed at OH-173/OH-14/State St - Closed due to roadwork.,1560.0,E State St,L,Salem,Columbiana,OH,44460-2319,US,US/Eastern,KUCP,2018-10-26 13:56:00,48.0,,61.0,29.96,10.0,East,8.1,,Overcast,False,False,False,False,False,False,False,False,False,False,False,False,False,Day,Day,Day,Day
C-4961992,2,2021-12-14 09:07:00.000000000,2021-12-14 09:20:00.000000000,39.969759,-75.126245,39.96714,-75.133802,0.4391789044560001,Slow traffic on I-95 S from Allegheny Ave/Exit 25 (I-95) to Girard Ave/Exit 23 (I-95) due to roadwork.,993.0,E Montgomery Ave,R,Philadelphia,Philadelphia,PA,19125,US,US/Eastern,KPNE,2021-12-14 08:54:00,46.0,41.0,44.0,30.35,10.0,NNW,9.0,0.0,Fair,False,False,False,False,False,False,False,False,False,False,False,False,False,Day,Day,Day,Day
C-4961993,4,2021-10-07 16:09:30.000000000,2021-12-17 00:45:00.000000000,39.702574,-105.008606,39.702568,-105.010992,0.126836776825,Construction on W OHIO AVE WB near S TEJON ST Expect delays.,1753.0,W Ohio Ave,R,Denver,Denver,CO,80223,US,US/Mountain,KAPA,2021-12-01 00:53:00,42.0,36.0,32.0,24.24,10.0,S,10.0,0.0,Partly Cloudy,False,False,False,False,False,False,False,False,False,False,False,False,False,Day,Day,Day,Day
C-4961994,2,2019-12-03 09:13:19.000000000,2019-12-03 09:57:35.000000000,30.394291,-88.897163,,,0.0,Left lane blocked due to maintenance work on US-90 Beach Blvd Eastbound at Seal Ave.,,Seal Ave,R,Biloxi,Harrison,MS,39530,US,US/Central,KBIX,2019-12-03 08:56:00,42.0,39.0,63.0,30.11,10.0,NNE,5.0,0.0,Fair,False,False,False,False,False,False,False,False,False,False,False,False,False,Day,Day,Day,Day
C-4961995,2,2020-01-07 07:21:42.000000000,2020-01-07 18:00:00.000000000,44.58265,-120.27437,44.59913,-120.24399,1.8791028188,At OR-207/Old Hwy - Maintenance work.,14892.0,W Highway 26,R,Mitchell,Wheeler,OR,97750-9505,US,US/Pacific,KRDM,2020-01-07 06:56:00,39.0,33.0,60.0,26.87,10.0,S,8.0,0.0,Fair,False,False,False,False,False,False,False,False,False,False,False,False,False,Night,Day,Day,Day
C-4961996,2,2020-11-03 11:15:00.000000000,2020-11-04 02:17:52.000000000,40.68216500000001,-111.979712,40.683755,-111.981481,0.143735499438,Slow traffic on UT-154 from S 3600 W to W 3500 S due to roadwork.,3696.0,W 4100 S,R,West Valley City,Salt Lake,UT,84120-5551,US,US/Mountain,KU42,2020-11-03 10:54:00,63.0,63.0,27.0,25.88,10.0,CALM,0.0,0.0,Fair,False,False,False,False,False,False,False,False,False,False,False,True,False,Day,Day,Day,Day
C-4961997,2,2021-12-09 08:04:30.000000000,2021-12-09 10:25:23.000000000,25.84072,-80.304446,25.842461,-80.30617099999998,0.1611721746319999,Slow traffic on FL-25 - US-27 N from Hialeah Expy to W 23rd St due to roadwork.,2101.0,W Okeechobee Rd,R,Hialeah,Miami-Dade,FL,33010-1931,US,US/Eastern,KMIA,2021-12-09 07:53:00,72.0,72.0,100.0,30.09,5.0,CALM,0.0,0.0,Fair,False,False,False,False,False,False,False,False,True,False,False,False,False,Day,Day,Day,Day
C-4961998,2,2017-08-28 08:50:30.000000000,2017-08-28 14:53:29.000000000,40.1433,-75.54836999999998,40.141148,-75.547449,0.156444313055,At Township Line Rd - Roadwork. Traffic problem.,455.0,Schuylkill Rd,L,Phoenixville,Chester,PA,19460-5200,US,US/Eastern,KPTW,2017-08-28 08:54:00,62.1,,84.0,30.3,8.0,ENE,5.8,,Clear,False,False,False,False,False,False,False,False,False,True,False,False,False,Day,Day,Day,Day
C-4961999,2,2021-02-03 00:47:52.000000000,2021-02-03 01:26:09.000000000,34.006664,-81.160353,33.992147,-81.183358,1.65606695671,Slow traffic on I-20 W from US-378/Exit 61 (I-20) to US-1/Exit 58 (I-20) due to roadwork.,,I-20 W,R,Lexington,Lexington,SC,29073,US,US/Eastern,KCAE,2021-02-03 00:56:00,37.0,28.0,42.0,29.62,10.0,NW,14.0,0.0,Fair,False,False,False,False,False,False,False,False,False,False,False,False,False,Night,Night,Night,Night
C-4962000,2,2021-10-28 16:02:23.000000000,2021-10-28 16:23:37.000000000,30.059476,-81.870535,30.062695,-81.874104,0.308248919305,Slow traffic on County Hwy-218 from Thunder Rd (FL-218) to FL-21/Blanding Blvd (FL-218) due to roadwork.,3976.0,County Road 218,R,Middleburg,Clay,FL,32068-5101,US,US/Eastern,KVQQ,2021-10-28 15:50:00,77.0,77.0,94.0,29.53,10.0,S,12.0,0.0,Mostly Cloudy,False,False,False,False,False,False,False,False,False,False,False,True,False,Day,Day,Day,Day
C-4962001,2,2021-12-02 21:00:00.000000000,2021-12-03 05:45:00.000000000,40.776604,-74.042497,40.778014,-74.046287,0.220936436756,NJ DOT - STMC: Construction drainage improvements on NJ 495 westbound East of Kennedy Boulevard (Union City) to NJ 3 (North Bergen Twp) 1 Left lane of 3 lanes closed Until 5:00 AM,,NJ-495 W,R,North Bergen,Hudson,NJ,07047,US,US/Eastern,KNYC,2021-12-02 20:51:00,57.0,57.0,57.0,29.46,10.0,VAR,6.0,0.0,Fair,False,False,False,False,False,False,False,False,False,False,False,False,False,Night,Night,Night,Night
C-4962002,2,2019-06-19 04:54:45.000000000,2019-06-24 23:59:00.000000000,41.205341,-95.98333,,,0.270000010729,Restrictions due to utility work on Q St Westbound from 44th St to 46th St.,4598.0,Q St,R,Omaha,Douglas,NE,68117-2138,US,US/Central,KMLE,2019-06-19 04:55:00,64.0,64.0,94.0,28.71,7.0,CALM,0.0,0.0,Cloudy,False,False,False,False,False,False,False,False,False,False,False,False,False,Night,Night,Day,Day
C-4962003,2,2021-11-16 07:00:00.000000000,2021-11-16 09:06:56.000000000,25.846986,-80.211189,25.846322,-80.20918499999998,0.1327890196599999,Slow traffic on FL-934 - US-441 S from NW 8th Ave to NW 78th St due to roadwork.,7899.0,NW 8th Ave,R,Miami,Miami-Dade,FL,33150-3220,US,US/Eastern,KOPF,2021-11-16 06:53:00,63.0,63.0,87.0,30.14,10.0,N,5.0,0.0,Fair,False,False,True,False,False,False,False,False,True,True,False,False,False,Day,Day,Day,Day
C-4962004,2,2020-07-31 04:00:20.000000000,2020-07-31 13:00:00.000000000,45.515488,-122.693263,45.514448,-122.700983,0.38061109124,Roadwork has the Clay on ramp and the right two lanes of Highway 26 Westbound through. the Vista Ridge Tunnel closed expect delays. Ramps Affected.,,Sunset Hwy W,R,Portland,Multnomah,OR,97201,US,US/Pacific,KPDX,2020-07-31 03:53:00,70.0,70.0,46.0,29.9,10.0,CALM,0.0,0.0,Partly Cloudy,False,False,False,False,False,False,False,False,False,False,False,False,False,Night,Night,Night,Day
C-4962005,2,2021-07-06 17:32:13.000000000,2021-07-06 17:53:34.000000000,30.1596,-92.052118,30.156953,-92.047913,0.3107342323979999,Slow traffic on LA-3073 from Settlers Trace Blvd to Meadow Farm Rd due to roadwork.,,Ambassador Caffery Pkwy,R,Lafayette,Lafayette,LA,70508,US,US/Central,KLFT,2021-07-06 17:53:00,83.0,83.0,69.0,29.88,10.0,CALM,0.0,0.0,Fair,False,False,False,False,False,False,False,False,False,False,False,True,False,Day,Day,Day,Day
C-4962006,2,2019-09-27 19:44:39.000000000,2019-09-27 23:44:39.000000000,45.6128,-122.67823,45.61811,-122.67503,0.398149073719,At Interstate Bridge - Maintenance work.,,I-5 N,R,Portland,Multnomah,OR,97217,US,US/Pacific,KVUO,2019-09-27 19:53:00,57.0,57.0,59.0,29.84,10.0,NW,8.0,0.0,Cloudy,False,False,False,False,False,False,False,False,False,False,False,False,False,Night,Night,Day,Day
C-4962007,2,2021-10-12 08:48:30.000000000,2021-10-12 11:17:48.000000000,33.464226000000004,-112.012919,33.466093,-112.012919,0.128997414298,Slow traffic from AZ-202/Red Mountain Fwy (N 32nd St) to E Thomas Rd (N 32nd St) due to roadwork.,1422.0,N 32nd St,L,Phoenix,Maricopa,AZ,85008-4805,US,US/Mountain,KPHX,2021-10-12 08:51:00,60.0,60.0,30.0,28.6,7.0,SW,5.0,0.0,Fair,True,False,True,False,False,False,False,False,True,False,False,True,False,Day,Day,Day,Day
C-4962008,4,2020-03-20 19:02:14.000000000,2020-03-21 00:00:54.000000000,38.86914,-76.99103000000002,38.86923,-77.00026,0.496565012745,Closed at S Capitol St SW - Closed due to roadwork.,1867.0,Anacostia Dr SE,R,Washington,District of Columbia,DC,20020,US,US/Eastern,KWBC,2020-03-20 18:56:00,77.0,77.0,44.0,29.61,10.0,WSW,20.0,0.0,Fair,False,False,False,False,False,False,False,False,False,False,False,False,False,Day,Day,Day,Day
C-4962009,2,2021-12-20 08:14:30.000000000,2021-12-20 10:21:56.000000000,26.256124,-80.282106,26.259838,-80.282156,0.256631662331,Stationary traffic from FL-814/W Atlantic Blvd (Coral Ridge Dr) to FL-834/W Sample Rd (Coral Ridge Dr) due to roadwork.,1959.0,Coral Ridge Dr,L,Coral Springs,Broward,FL,33071-7801,US,US/Eastern,KFXE,2021-12-20 08:06:00,72.0,72.0,97.0,30.01,9.0,WNW,3.0,0.0,Partly Cloudy,False,False,False,False,False,False,False,False,False,False,False,False,False,Day,Day,Day,Day
C-4962010,2,2021-02-08 07:35:33.000000000,2021-02-12 23:59:59.000000000,40.847287,-73.933402,40.848386,-73.93603399999998,0.157129133087,Construction on George Washington Bridge Lower Level westbound Lower Trans Manhattan Expressway (Manhattan) to Lower Trans Manhattan Expressway (Manhattan) Friday February 12th 2021 thru Saturday February 13th 2021 Friday 11:59 AM thru 08:00 AM 2 Right lanes of 3 lanes closed,,I-95 S,R,New York,New York,NY,10033,US,US/Eastern,KNYC,2021-02-08 07:51:00,17.0,9.0,54.0,30.29,10.0,VAR,6.0,0.0,Fair,False,False,True,False,False,False,False,False,False,False,False,True,False,Day,Day,Day,Day
C-4962011,2,2021-12-11 12:55:54.000000000,2021-12-11 16:39:03.000000000,25.945115,-80.205365,25.942485,-80.20445500000002,0.190308216351,Stationary traffic on FL-7 - FL-860 - US-441 S from NW 187th St to NE 183rd St / N Miami Ave due to roadwork.,18536.0,NW 2nd Ave,L,Miami,Miami-Dade,FL,33169,US,US/Eastern,KHWO,2021-12-11 12:53:00,82.0,82.0,65.0,30.07,10.0,ESE,10.0,0.0,Mostly Cloudy,False,False,False,False,False,False,False,False,True,False,False,False,False,Day,Day,Day,Day
C-4962012,2,2021-12-09 17:21:00.000000000,2021-12-09 17:41:00.000000000,33.484783,-112.069412,33.480227,-112.069453,0.314798486396,Slow traffic from E Indian School Rd (N 3rd St) to E Thomas Rd (N 3rd St) due to roadwork.,3200.0,N 3rd St,L,Phoenix,Maricopa,AZ,85012-2603,US,US/Mountain,KPHX,2021-12-09 16:51:00,68.0,68.0,37.0,28.6,10.0,WNW,6.0,0.0,Mostly Cloudy,False,False,True,False,False,False,False,False,False,True,False,True,False,Night,Day,Day,Day
C-4962013,2,2021-01-22 12:32:00.000000000,2021-01-22 23:07:00.000000000,33.510937,-112.116975,33.508649,-112.11699,0.158088105738,Slow traffic from W Bethany Home Rd (N 27th Ave) to W Indian School Rd (N 27th Ave) due to roadwork.,5029.0,N 27th Ave,R,Phoenix,Maricopa,AZ,85017,US,US/Mountain,KPHX,2021-01-22 12:51:00,67.0,67.0,49.0,28.75,10.0,S,10.0,0.0,Mostly Cloudy,True,False,False,False,False,False,False,False,True,True,False,False,False,Day,Day,Day,Day
C-4962014,2,2021-11-06 19:56:00.000000000,2021-11-07 02:00:03.000000000,40.344889,-80.08295799999998,40.345063,-80.08220899999998,0.041234070407,Roadwork from McLaughlin Run to McLaughlin Run Rd / McMillan Rd.,,McLaughlin Run,R,Pittsburgh,Allegheny,PA,15241,US,US/Eastern,KAGC,2021-11-06 19:53:00,50.0,50.0,35.0,28.88,10.0,CALM,0.0,0.0,Fair,False,False,False,False,False,False,False,False,False,False,False,True,False,Night,Night,Night,Night
C-4962015,3,2020-08-03 22:00:00.000000000,2020-08-04 07:00:00.000000000,47.779751,-122.316833,,,0.920000016689,Entry ramp to I-5 Northbound from WA-104 Westbound closed due to construction during the night.,,I-5 N,R,Mountlake Terrace,Snohomish,WA,98043,US,US/Pacific,KPAE,2020-08-03 21:53:00,64.0,64.0,80.0,29.51,10.0,VAR,6.0,0.0,Fair,False,False,False,False,False,False,False,False,False,False,False,False,False,Night,Night,Day,Day
C-4962016,2,2021-09-25 14:06:01.000000000,2021-09-25 14:16:40.000000000,34.007763,-81.15767,34.004528,-81.165607,0.50658387231,Slow traffic on I-20 W from US-378/Exit 61 (I-20) to US-1/Exit 58 (I-20) due to roadwork.,,I-20 W,R,Lexington,Lexington,SC,29073,US,US/Eastern,KCAE,2021-09-25 13:56:00,77.0,77.0,39.0,29.8,10.0,VAR,5.0,0.0,Fair,False,False,False,False,False,False,False,False,False,False,False,False,False,Day,Day,Day,Day
C-4962017,1,2021-11-17 07:00:00.000000000,2021-11-17 18:00:00.000000000,47.610149,-122.19883,,,0.209999993443,Road closed due to utility work on 106th Ave Southbound from 2nd St to Main St.,10600.0,Main St,L,Bellevue,King,WA,98004-5922,US,US/Pacific,KBFI,2021-11-17 06:53:00,35.0,35.0,85.0,30.4,10.0,WNW,3.0,0.0,Fair,True,False,True,False,False,False,False,False,True,False,False,True,False,Night,Day,Day,Day
C-4962018,2,2021-07-26 23:42:30.000000000,2021-07-27 00:23:30.000000000,44.047606,-122.926309,44.052419,-122.92629,0.332547966834,Stationary traffic from Main St / S 58th Pl to Thurston Rd due to roadwork.,224.0,58th St,L,Springfield,Lane,OR,97478-5400,US,US/Pacific,KEUG,2021-07-26 23:54:00,68.0,68.0,65.0,29.56,10.0,ENE,3.0,0.0,Fair,False,False,False,False,False,False,False,False,False,False,False,False,False,Night,Night,Night,Night
C-4962019,4,2019-05-07 01:10:14.000000000,2019-05-07 06:09:47.000000000,33.91048,-118.07056,33.943468,-118.098019,2.7700542673400004,Closed between Firestone Blvd/Exit 120B and I-605 - Closed due to roadwork.,,I-5 N,R,Norwalk,Los Angeles,CA,90650,US,US/Pacific,KFUL,2019-05-07 00:53:00,60.0,60.0,72.0,29.88,10.0,VAR,5.0,0.0,Cloudy,False,False,False,False,False,False,False,False,False,False,False,False,False,Night,Night,Night,Night
C-4962020,2,2021-10-13 08:26:00.000000000,2021-10-13 10:56:39.000000000,40.510532,-80.098091,40.51226,-80.104748,0.3695131959809999,Stationary traffic on PA-65 from Camp Horne Rd/Lowry St (Ohio River Blvd/PA-65) to I-79 (Ohio River Blvd/PA-65) due to roadwork.,8203.0,Ohio River Blvd,L,Pittsburgh,Allegheny,PA,15202-1559,US,US/Eastern,KPIT,2021-10-13 08:51:00,61.0,61.0,97.0,28.78,6.0,W,3.0,0.0,Cloudy,False,False,False,False,False,False,False,False,True,False,False,False,False,Day,Day,Day,Day
C-4962021,4,2021-06-07 07:00:00.000000000,2021-10-01 18:45:00.000000000,43.636413,-95.3199,43.636393,-95.310387,0.475701729197,Construction on I-90 EB near COUNTY HWY-9 Use alternate exit ramp.,,I-90 E,R,Lakefield,Jackson,MN,56150,US,US/Central,KMJQ,2021-06-07 06:55:00,70.0,70.0,73.0,28.19,10.0,SSW,7.0,0.0,Fair,False,False,False,False,True,False,False,False,False,False,False,False,False,Day,Day,Day,Day
C-4962022,4,2021-04-17 00:00:00.000000000,2021-04-18 00:45:00.000000000,41.57998900000001,-93.629049,41.579073,-93.628699,0.0658240101096,Construction on SW 11TH ST SB near TUTTLE ST Road closed. Take alternate route.,,SW 11th St,R,Des Moines,Polk,IA,50309,US,US/Central,KDSM,2021-04-17 00:54:00,47.0,43.0,71.0,28.98,10.0,W,8.0,0.0,Light Rain,False,False,True,False,False,False,False,False,False,False,False,False,False,Night,Night,Night,Night
C-4962024,2,2021-11-08 06:41:30.000000000,2021-11-08 13:46:30.000000000,33.42203,-111.922885,33.421606,-111.92631000000002,0.199673700422,Stationary traffic from S Athletes Pl to S Terrace Rd / E Krueger St due to roadwork.,1051.0,E University Dr,R,Tempe,Maricopa,AZ,85281,US,US/Mountain,KPHX,2021-11-08 06:51:00,61.0,61.0,38.0,28.78,10.0,E,7.0,0.0,Partly Cloudy,False,False,False,False,False,True,False,False,False,False,False,False,False,Night,Day,Day,Day
C-4962025,2,2021-02-11 03:34:30.000000000,2021-02-11 20:28:47.000000000,28.663201,-81.356696,28.663231,-81.359753,0.185346242564,Slow traffic on FL-436 from US-17/US-92 (FL-436) to I-4 (FL-436) due to roadwork.,2.0,Station St,R,Altamonte Springs,Seminole,FL,32701,US,US/Eastern,KORL,2021-02-11 03:53:00,67.0,67.0,97.0,29.95,9.0,SE,3.0,0.0,Fair,False,False,True,False,False,False,True,False,False,False,False,True,False,Night,Night,Night,Night
C-4962026,4,2019-03-08 15:40:43.000000000,2019-03-12 16:40:41.000000000,41.995265,-80.330337,41.99396,-80.33514100000002,0.262651042208,Closed at Old Ridge Rd - Closed due to roadwork.,9946.0,W Ridge Rd,L,Girard,Erie,PA,16417,US,US/Eastern,KERI,2019-03-08 15:51:00,28.9,21.1,61.0,30.2,10.0,NNE,8.1,,Clear,False,False,False,False,False,False,False,False,False,False,False,False,False,Day,Day,Day,Day
C-4962027,2,2021-07-30 16:54:04.000000000,2021-07-30 17:14:50.000000000,40.493956,-79.902829,40.49606,-79.911713,0.488904501925,Slow traffic on PA-28 S from Delafield Rd/Exit 7 (PA-28) to PA-8/Exit 5B &amp; 5 (PA-28) due to roadwork.,,PA-28 S,R,Pittsburgh,Allegheny,PA,15215,US,US/Eastern,KAGC,2021-07-30 16:53:00,78.0,78.0,45.0,28.67,10.0,VAR,6.0,0.0,Partly Cloudy,False,False,False,False,False,False,False,False,False,False,False,False,False,Day,Day,Day,Day
C-4962028,2,2020-08-14 07:00:00.000000000,2020-09-18 07:45:00.000000000,39.755463,-104.978879,39.754522,-104.980089,0.0914231813447,Construction on CALIFORNIA ST SB near 26TH ST Expect delays.,,California St,R,Denver,Denver,CO,80205,US,US/Mountain,KBKF,2020-08-14 06:58:00,63.0,63.0,31.0,24.48,10.0,S,8.0,0.0,Mostly Cloudy,False,False,True,False,False,False,False,False,False,True,False,True,False,Day,Day,Day,Day
C-4962029,2,2021-11-01 18:28:00.000000000,2021-11-01 20:39:21.000000000,39.04217,-94.585185,39.04226,-94.58803,0.152799585984,Slow traffic on US-56 W from Grand Ave to W 47th St / J.C. Nichols Pkwy due to roadwork.,,Grand Ave,R,Kansas City,Jackson,MO,64112,US,US/Central,KNKA,2021-11-01 18:24:00,39.0,36.0,89.0,29.59,10.0,NNE,5.0,0.0,Cloudy,True,False,True,False,False,False,False,False,True,False,False,True,False,Night,Day,Day,Day
C-4962030,4,2020-12-07 05:17:26.000000000,2020-12-15 07:59:00.000000000,40.918711,-73.788701,40.91835,-73.790485,0.096424305913,Closed road from Brook St to DeWitt Pl due to roadwork.,38.0,Brook St,L,New Rochelle,Westchester,NY,10801-3304,US,US/Eastern,KLGA,2020-12-07 04:51:00,35.0,29.0,54.0,29.8,10.0,WNW,8.0,0.0,Fair,False,False,False,False,False,False,False,False,False,False,False,False,False,Night,Night,Night,Night
C-4962031,2,2020-11-04 03:00:00.000000000,2020-11-04 14:00:00.000000000,32.039327,-81.207532,32.046934,-81.171178,2.1930573063,Lane closed on US-17 from GA-307/Dean Forest Rd (US-17) to Chatham Pkwy (US-17) due to roadwork.,5393.0,Ogeechee Rd,L,Savannah,Chatham,GA,31405-2525,US,US/Eastern,KSVN,2020-11-04 02:56:00,46.0,46.0,88.0,30.26,10.0,CALM,0.0,0.0,Fair,False,False,False,False,False,False,False,False,False,False,False,True,False,Night,Night,Night,Night
C-4962032,2,2021-12-14 17:17:41.000000000,2021-12-14 17:54:25.000000000,28.755329,-81.954091,28.755779,-81.995891,2.53213508558,Stationary traffic from Florida's Tpke (CR-470) to CR-501 (CR-470) due to roadwork.,8898.0,County Road 470,R,Sumterville,Sumter,FL,33585,US,US/Eastern,KLEE,2021-12-14 16:53:00,75.0,75.0,73.0,30.19,10.0,ENE,8.0,0.0,Cloudy,False,False,False,False,False,False,False,False,False,False,False,False,False,Day,Day,Day,Day
C-4962033,2,2020-11-04 19:09:00.000000000,2020-11-05 02:27:54.000000000,33.436803999999995,-112.164894,33.437694,-112.169218,0.256783849021,Slow traffic from S 49th Ave to W Hadley St due to roadwork.,4948.0,W Buckeye Rd,R,Phoenix,Maricopa,AZ,85043,US,US/Mountain,KGEU,2020-11-04 18:58:00,79.0,79.0,30.0,28.86,10.0,CALM,0.0,0.0,Fair,False,False,False,False,False,False,False,False,False,False,False,False,False,Night,Night,Night,Night
C-4962034,2,2020-08-13 18:44:01.000000000,2020-10-02 07:43:59.000000000,40.73884,-73.861778,40.737958,-73.86143,0.0636053773109,Construction on 98TH PL near 57TH AVE Allow extra time.,4766.0,98th Pl,R,Corona,Queens,NY,11368-2710,US,US/Eastern,KLGA,2020-08-13 18:51:00,78.0,78.0,81.0,30.03,10.0,E,7.0,0.0,Mostly Cloudy,False,False,False,False,False,False,False,False,False,True,False,False,False,Day,Day,Day,Day
C-4962035,2,2019-06-18 09:00:00.000000000,2019-06-18 16:00:00.000000000,35.860279,-80.07268499999998,,,0.0,One lane closed due to construction work on NC-109 Randolph St both ways at I-85.,,I-85 S,R,Thomasville,Davidson,NC,27360,US,US/Eastern,KEXX,2019-06-18 09:00:00,72.0,72.0,100.0,29.25,10.0,CALM,0.0,0.0,Fair,False,False,False,False,False,False,False,False,False,False,False,False,False,Day,Day,Day,Day
C-4962036,2,2021-09-17 08:06:49.000000000,2021-09-17 10:51:49.000000000,47.368393,-91.223941,47.361932,-91.215087,0.609076374428,Construction on MN-1 SB near E JAMES ST Allow extra time.,449.0,Highway 1,R,Silver Bay,Lake,MN,55614-9528,US,US/Central,KBFW,,,,,,,,,,,False,False,False,False,False,False,False,False,False,False,False,False,False,Day,Day,Day,Day
C-4962037,2,2020-09-12 13:42:30.000000000,2020-09-12 21:18:00.000000000,39.172774,-96.591871,39.169389,-96.602488,0.61492023608,Queuing traffic on KS-18 W - KS-18 from Westwood Rd to S Seth Child Rd due to roadwork.,2141.0,Fort Riley Blvd,R,Manhattan,Riley,KS,66502,US,US/Central,KMHK,2020-09-12 13:52:00,71.0,71.0,68.0,28.85,10.0,W,8.0,0.0,Cloudy,False,False,False,False,False,False,False,False,False,False,False,False,False,Day,Day,Day,Day
C-4962038,2,2021-06-22 06:00:00.000000000,2021-08-30 18:45:00.000000000,46.90342,-116.974787,46.903216,-116.975365,0.0307110861849,Construction on US-95 SB near E COVE RD Construction. Drive with caution.,,N Highway 95,R,Potlatch,Latah,ID,83855,US,US/Pacific,KPUW,2021-06-22 05:53:00,61.0,61.0,62.0,27.19,9.0,CALM,0.0,0.0,Fair,False,False,False,False,False,False,False,False,False,False,False,False,False,Day,Day,Day,Day
C-4962039,4,2021-12-15 22:00:00.000000000,2021-12-16 05:00:00.000000000,38.885496,-77.22196600000002,38.871636,-77.22029599999998,0.961838352232,On I-66W on the ramp to 495 Express Lanes South in the County of Fairfax motorists can expect potential delays in this area from 12/15/21 at 10:00 PM until 12/16/21 at 5:00 AM due to construction activities. All west lanes are closed.,,Capital Beltway S,R,Vienna,Fairfax County,VA,22180,US,US/Eastern,KIAD,2021-12-15 21:52:00,47.0,45.0,83.0,29.98,10.0,S,5.0,0.0,Mostly Cloudy,False,False,False,False,False,False,False,False,False,False,False,False,False,Night,Night,Night,Night
C-4962040,2,2021-02-15 19:10:00.000000000,2021-02-15 22:15:30.000000000,36.009577,-95.999741,36.022286,-96.073372,4.20762375481,Slow traffic on OK-364 W - Creek Tpke W from Toll Booth Plaza (Creek Tpke) to OK-66 (Creek Tpke) due to roadwork.,,Creek Tpke W,R,Jenks,Tulsa,OK,74037,US,US/Central,KRVS,2021-02-15 18:53:00,3.0,-8.0,66.0,29.55,10.0,N,6.0,0.0,Fair,False,False,False,False,False,False,False,False,False,False,False,False,False,Night,Night,Night,Day
C-4962041,2,2021-02-09 21:20:04.000000000,2021-02-10 01:50:48.000000000,29.875022,-95.796551,29.86761,-95.807158,0.8161732572220001,Stationary traffic on FM-529 from Katy Lakes Blvd to Millers Ln due to roadwork.,24359.0,FM 529 Rd,R,Katy,Harris,TX,77493,US,US/Central,KTME,2021-02-09 21:15:00,57.0,57.0,88.0,29.9,9.0,N,6.0,0.0,Cloudy,False,False,False,False,False,False,False,False,False,False,False,False,False,Night,Night,Night,Night
C-4962042,2,2021-04-09 05:44:30.000000000,2021-12-22 19:12:27.000000000,33.392869,-111.937876,33.392446,-111.93957,0.10199929798,Slow traffic from S College Ave to E Pebble Beach Dr due to roadwork.,109.0,E Southern Ave,L,Tempe,Maricopa,AZ,85282-5130,US,US/Mountain,KPHX,2021-04-09 06:51:00,67.0,67.0,26.0,28.62,10.0,ENE,7.0,0.0,Fair,False,False,True,False,False,False,False,False,True,False,False,True,False,Night,Day,Day,Day
C-4962043,2,2021-06-04 17:19:39.000000000,2021-06-04 18:20:10.000000000,42.157863,-87.960204,42.154165,-87.958538,0.269380400048,Stationary traffic on IL-83 from Bank Ln / Old Checker Rd to Weiland Rd due to roadwork.,,Bank Ln,R,Buffalo Grove,Lake,IL,60089,US,US/Central,KPWK,2021-06-04 16:52:00,93.0,93.0,20.0,29.2,10.0,SW,16.0,0.0,Fair,False,False,False,False,False,False,False,False,False,False,False,False,False,Day,Day,Day,Day
C-4962044,2,2019-05-12 23:05:06.000000000,2019-05-13 05:01:00.000000000,32.842319,-117.130188,,,0.3799999952319999,Entry ramp to Ca-52 Westbound from Kearny Villa Rd closed due to construction work.,,CA-52 W,R,San Diego,San Diego,CA,92123,US,US/Pacific,KMYF,2019-05-12 22:53:00,61.0,61.0,81.0,29.57,10.0,CALM,0.0,0.0,Cloudy,False,False,False,False,False,False,False,False,False,False,False,False,False,Night,Night,Night,Night
C-4962045,2,2020-12-01 14:00:00.000000000,2020-12-02 06:42:22.000000000,25.946648,-80.147074,25.947572,-80.14814,0.091989924088,Slow traffic on US-1 N - FL-860 - FL-5 from NE 183rd St to W Dixie Hwy due to roadwork.,18511.0,Biscayne Blvd,L,Miami,Miami-Dade,FL,33180-2916,US,US/Eastern,KHWO,2020-12-01 13:53:00,66.0,66.0,45.0,30.12,10.0,N,16.0,0.0,Fair,False,False,False,False,False,False,False,False,False,False,False,False,False,Day,Day,Day,Day
C-4962046,2,2021-12-26 14:04:30.000000000,2021-12-27 00:02:48.000000000,39.732983,-120.563086,39.766021,-120.61853,3.72634171217,Roadwork on CR-A15/Portola-McLears Rd (CA-89) from CA-70 (CA-89) to CA-89.,1.0,Valley Ranch Dr,R,Clio,Plumas,CA,96106,US,US/Pacific,KBLU,2021-12-26 13:59:00,24.0,12.0,96.0,24.6,0.25,S,13.0,0.02,Heavy Snow,False,False,False,False,False,False,False,False,False,False,False,False,False,Day,Day,Day,Day
C-4962047,2,2020-09-22 04:30:00.000000000,2020-09-22 12:45:00.000000000,38.89395,-77.16938,38.883446,-77.149855,1.2764558838200002,On I-66 in the County of Arlington from mile marker 67.9 to mile marker 69.2 motorists can expect potential delays in this area from 09/21/20 at 9:30 PM until 09/22/20 at 5:00 AM due to construction activities. The east center lane and right lane are alternating closures.,6949.0,Williamsburg Blvd,R,Arlington,Arlington,VA,22213-1812,US,US/Eastern,KDCA,2020-09-22 04:52:00,48.0,45.0,83.0,30.3,10.0,N,6.0,0.0,Fair,False,False,False,False,False,False,False,False,False,False,False,False,False,Night,Night,Night,Night
C-4962048,2,2021-05-11 20:55:33.000000000,2021-05-12 21:42:24.000000000,39.36373,-76.71250699999999,39.363987,-76.712864,0.0260574580244999,Construction on MD-140 NB near SEVEN MILE LN Expect delays.,4000.0,Colonial Rd,L,Pikesville,Baltimore County,MD,21208,US,US/Eastern,KDMH,,,,,,,,,,,False,False,True,False,False,False,False,False,True,False,False,True,False,Night,Night,Day,Day
C-4962049,2,2021-09-01 17:08:30.000000000,2021-09-01 17:31:00.000000000,39.75646,-84.176672,39.764835,-84.177024,0.578959337759,Stationary traffic from US-35 (S Keowee St) to OH-4/E 1st St (N Keowee St) due to roadwork.,382.0,S Keowee St,L,Dayton,Montgomery,OH,45403,US,US/Eastern,KFFO,2021-09-01 16:56:00,79.0,79.0,36.0,28.97,10.0,N,12.0,0.0,Partly Cloudy,False,False,False,False,False,False,False,False,False,False,False,True,False,Day,Day,Day,Day
C-4962050,2,2021-08-30 06:12:00.000000000,2021-09-24 18:42:52.000000000,33.491966999999995,-112.047633,33.494772999999995,-112.048697,0.203338742621,Slow traffic from E Indianola Ave to N 14th St due to roadwork.,1550.0,E Indianola Ave,L,Phoenix,Maricopa,AZ,85016-5960,US,US/Mountain,KPHX,2021-09-24 16:51:00,90.0,90.0,26.0,28.7,10.0,CALM,0.0,0.0,Mostly Cloudy,False,False,False,False,False,False,False,False,False,False,False,False,False,Day,Day,Day,Day
C-4962051,2,2017-02-27 13:26:39.000000000,2017-02-27 19:28:50.000000000,41.246851,-75.515117,41.234867,-75.506345,0.945152224532,At PA-507/Exit 13 - Roadwork. Lane blocked.,,I-380 S,R,Gouldsboro,Lackawanna,PA,18424,US,US/Eastern,KMPO,2017-02-27 13:53:00,42.1,34.9,38.0,30.34,10.0,SW,13.8,,Scattered Clouds,False,False,False,False,False,False,False,False,False,False,False,False,False,Day,Day,Day,Day
C-4962052,2,2021-11-05 07:44:30.000000000,2021-11-05 10:39:59.000000000,27.839822,-82.38162700000002,27.850676,-82.381822,0.750034593376,Slow traffic on FL-45 - US-41 N from Symmes Rd (US-41) to CR-676A/Pendola Point Rd/Madison Ave (US-41) due to roadwork.,11202.0,S US Highway 41,R,Gibsonton,Hillsborough,FL,33534-4746,US,US/Eastern,KTPF,2021-11-05 07:35:00,68.0,68.0,94.0,29.95,4.0,NNE,3.0,0.0,Heavy Rain,False,False,False,False,False,False,False,False,False,False,False,False,False,Day,Day,Day,Day
C-4962053,2,2021-10-23 13:48:30.000000000,2021-10-23 15:52:52.000000000,41.903523,-88.34,41.9013,-88.338734,0.166822885002,Slow traffic on IL-38 from Prairie St to W State St / S 14th St due to roadwork.,593.0,S Randall Rd,R,Saint Charles,Kane,IL,60174-1533,US,US/Central,KDPA,2021-10-23 13:52:00,54.0,54.0,43.0,29.21,10.0,VAR,5.0,0.0,Fair,False,False,False,False,False,False,False,False,True,False,False,True,False,Day,Day,Day,Day
C-4962054,2,2020-08-31 13:00:00.000000000,2020-08-31 23:45:00.000000000,45.382299,-90.132901,45.382813,-90.133176,0.0379387416278,Construction on WI-102 SB near TAYLOR-PRICE CO LINE Drive with caution.,,N9599 State Highway 102,L,Rib Lake,Taylor,WI,54470-9419,US,US/Central,KMDZ,2020-08-31 12:55:00,61.0,61.0,94.0,28.18,10.0,WSW,8.0,0.0,Cloudy,False,False,False,False,False,False,False,False,False,False,False,False,False,Day,Day,Day,Day
C-4962055,2,2021-02-19 06:37:30.000000000,2021-02-19 18:24:58.000000000,43.619401,-116.355803,43.620576,-116.35439,0.107639027151,Slow traffic on ID-55 from N Hickory Ave / N Hickory Way to E Longwing Ln due to roadwork.,3187.0,E Fairview Ave,R,Meridian,Ada,ID,83642-7689,US,US/Mountain,KMAN,2021-02-19 06:35:00,34.0,30.0,100.0,27.51,10.0,ESE,5.0,0.0,Mostly Cloudy,False,False,False,False,False,False,False,False,False,False,False,False,False,Night,Night,Day,Day
C-4962056,2,2020-03-13 05:57:33.000000000,2020-03-17 05:57:06.000000000,34.06219,-118.34405,34.06219,-118.34405,0.0,At La Brea Ave - Roadwork.,700.0,S La Brea Ave,L,Los Angeles,Los Angeles,CA,90036-4209,US,US/Pacific,KCQT,2020-03-13 05:52:00,55.0,55.0,83.0,29.64,5.0,CALM,0.0,0.08,Rain,True,False,False,False,False,False,True,False,True,False,False,True,False,Night,Night,Night,Day
C-4962057,2,2021-05-15 05:16:00.000000000,2021-08-26 20:53:21.000000000,26.031288,-80.143288,26.033633,-80.143839,0.1655958632069999,Slow traffic on US-1 N - FL-822 - US-1 S - FL-A1A - FL-5 from Liberty St to N 19th Ave due to roadwork.,2213.0,N Federal Hwy,R,Hollywood,Broward,FL,33020-2229,US,US/Eastern,KFLL,2021-05-15 04:53:00,73.0,73.0,96.0,30.02,10.0,NNW,5.0,0.0,Fair,False,False,False,False,False,False,False,False,False,False,False,False,False,Night,Night,Night,Day
C-4962058,2,2021-12-21 08:59:30.000000000,2021-12-21 11:01:08.000000000,29.916122,-81.32439699999998,29.916695,-81.325533,0.0787128461466,Slow traffic on FL-16 - US-1 N - FL-5 from Genovar St to State Road 16 due to roadwork.,98.0,Genovar St,L,Saint Augustine,St. Johns,FL,32084,US,US/Eastern,KSGJ,2021-12-21 08:56:00,64.0,64.0,96.0,29.86,3.0,N,15.0,0.05,Light Rain,False,False,False,False,False,False,False,False,False,False,False,False,False,Day,Day,Day,Day
C-4962059,4,2018-01-18 08:15:23.000000000,2018-01-18 14:15:23.000000000,30.32436,-81.65841999999998,30.32031,-81.6588,0.280744633107,Closed at John T Alsop Jr Brg/Main St Brg - Closed. Bridge maintenance work.,,S Ocean St,R,Jacksonville,Duval,FL,32202,US,US/Eastern,KNIP,2018-01-18 07:53:00,27.0,17.3,53.0,30.41,10.0,NW,10.4,,Partly Cloudy,False,False,True,False,True,False,False,False,False,False,False,True,False,Day,Day,Day,Day
C-4962060,2,2021-12-23 16:05:03.000000000,2021-12-23 18:07:42.000000000,27.760413,-82.73575100000002,27.758936,-82.735258,0.106409517018,Stationary traffic on FL-693 from Hibiscus Ave S to Oleander Way S due to roadwork.,6891.0,Hibiscus Ave S,R,Saint Petersburg,Pinellas,FL,33707,US,US/Eastern,KSPG,2021-12-23 15:53:00,67.0,67.0,34.0,30.12,10.0,N,8.0,0.0,Fair,False,False,False,False,False,False,False,False,True,False,False,False,False,Day,Day,Day,Day
C-4962061,2,2021-12-07 15:51:30.000000000,2021-12-07 16:35:16.000000000,35.154691,-101.883866,35.163826,-101.883902,0.631171663519,Slow traffic from Canyon Dr (N Western St) to SW 45th Ave (N Western St) due to roadwork.,5030.0,S Western St,R,Amarillo,Randall,TX,79109-6192,US,US/Central,KAMA,2021-12-07 15:53:00,54.0,54.0,22.0,26.17,10.0,NNE,8.0,0.0,Fair,False,False,False,False,False,False,False,False,False,False,False,True,False,Day,Day,Day,Day
C-4962062,2,2021-09-10 14:01:30.000000000,2021-09-10 17:03:23.000000000,29.734299,-95.409328,29.734277,-95.411428,0.126001240842,Slow traffic from Montrose Blvd (Richmond Ave) to Kirby Dr (Richmond Ave) due to roadwork.,2052.0,Richmond Ave,R,Houston,Harris,TX,77098-3424,US,US/Central,KMCJ,2021-09-10 13:53:00,91.0,91.0,30.0,29.99,10.0,E,9.0,0.0,Fair,False,False,False,False,False,False,False,False,False,True,False,False,False,Day,Day,Day,Day
C-4962063,3,2018-09-10 06:00:00.000000000,2018-09-12 23:58:00.000000000,41.313717,-81.990898,,,1.55999994278,Road closed due to railroad crossing repairs on OH-82 Royalton Rd both ways between County Hwy-59 Cowley Rd and Reed Rd.,34899.0,E Royalton Rd,R,Columbia Station,Lorain,OH,44028-9769,US,US/Eastern,KCLE,2018-09-10 05:51:00,60.1,,93.0,29.86,10.0,East,6.9,0.0,Overcast,False,False,False,False,False,False,False,False,False,False,False,False,False,Night,Night,Night,Day
C-4962064,2,2020-09-11 04:01:30.000000000,2020-09-11 04:44:30.000000000,40.253251,-76.815,40.255301,-76.81039,0.2813450598979999,Queuing traffic on I-83 from Paxton St/Exit 45 (I-83) to US-322/Exit 46 (I-83) due to roadwork.,,I-83 N,R,Harrisburg,Dauphin,PA,17111,US,US/Eastern,KCXY,2020-09-11 03:56:00,77.0,77.0,79.0,29.74,10.0,NNW,7.0,0.0,Cloudy,False,False,False,False,False,False,False,False,False,False,False,False,False,Night,Night,Night,Night
C-4962065,2,2020-04-15 07:07:47.000000000,2020-04-16 07:07:47.000000000,41.21225,-95.9658,41.21262,-95.97171,0.308246243292,Between S 36th St and S 42nd St - Construction work. Lane closed.,4698.0,S 36th St,R,Omaha,Douglas,NE,68107,US,US/Central,KOFF,2020-04-15 06:56:00,21.0,21.0,86.0,28.99,10.0,W,3.0,0.0,Fair,False,False,True,False,False,False,False,False,False,False,False,True,False,Day,Day,Day,Day
C-4962066,2,2021-12-15 12:31:00.000000000,2021-12-15 14:44:18.000000000,27.917866,-82.78777600000002,27.914917,-82.787864,0.203827315632,Slow traffic on US-19 Alt S - FL-595 from Golden Gate Dr to US-19 Alt due to roadwork.,125.0,Missouri Ave N,L,Largo,Pinellas,FL,33770-3763,US,US/Eastern,KPIE,2021-12-15 12:53:00,78.0,78.0,68.0,30.21,10.0,ENE,9.0,0.0,Fair,False,False,False,False,False,False,False,False,True,False,False,False,False,Day,Day,Day,Day
C-4962068,2,2021-11-30 20:41:30.000000000,2021-12-01 14:39:00.000000000,27.161467,-80.302288,27.161585,-80.318892,1.02074706094,Slow traffic on FL-714 - County Hwy-714 from FL-714/SW Martin Downs Blvd (SW Martin Hwy/FL-714) to CR-76A/SW 48th Ave (SW Martin Hwy/FL-714) due to roadwork.,,SW Martin Hwy,R,Palm City,Martin,FL,34990,US,US/Eastern,KSUA,2021-12-01 14:47:00,75.0,75.0,47.0,30.13,7.0,ESE,8.0,0.0,Fair,False,False,False,False,False,False,False,False,False,False,False,True,False,Night,Night,Night,Night
