ID,Severity,Start_Time,End_Time,Start_Lat,Start_Lng,End_Lat,End_Lng,Distance(mi),Description,Number,Street,Side,City,County,State,Zipcode,Country,Timezone,Airport_Code,Weather_Timestamp,Temperature(F),Wind_Chill(F),Humidity(%),Pressure(in),Visibility(mi),Wind_Direction,Wind_Speed(mph),Precipitation(in),Weather_Condition,Amenity,Bump,Crossing,Give_Way,Junction,No_Exit,Railway,Roundabout,Station,Stop,Traffic_Calming,Traffic_Signal,Turning_Loop,Sunrise_Sunset,Civil_Twilight,Nautical_Twilight,Astronomical_Twilight
C-5180067,3,2018-03-26 04:43:12,2018-06-30 18:00:00,41.282501,-83.631096,,,3.22000002861,Road closed due to bridge maintenance work on OH-281 Defiance Pike both ways from OH-25 Dixie Hwy to Solether Rd. Detour in operation - SR 25; US 6; SR 199.,8998.0,Solether Rd,R,Cygnet,Wood,OH,43413-9743,US,US/Eastern,KFDY,2018-03-26 04:53:00,28.9,20.4,64.0,30.34,10.0,East,9.2,,Clear,False,False,False,False,False,False,False,False,False,False,False,False,False,Night,Night,Night,Night
C-5180068,2,2021-11-28 14:13:30,2021-11-28 14:28:00,40.414174,-104.992642,40.429687,-104.992317,1.0719825346,Slow traffic on US-87 N - I-25 N from US-34/Eisenhower Blvd (I-25) to Crossroads Blvd/Exit 259 (I-25) due to roadwork.,,I-25 N,R,Loveland,Larimer,CO,80538,US,US/Mountain,KFNL,2021-11-28 13:56:00,58.0,58.0,28.0,25.07,10.0,S,5.0,0.0,Fair,False,False,False,False,False,False,False,False,False,False,False,False,False,Day,Day,Day,Day
C-5180069,2,2018-12-11 21:03:16,2018-12-15 21:02:53,25.781322,-80.28837,25.78557,-80.28848,0.293588620438,At Officer Carlos S Stuteville Rd - Construction work.,1013.0,NW 57th Ave,R,Miami,Miami-Dade,FL,33126,US,US/Eastern,KMIA,2018-12-11 20:53:00,55.9,,62.0,30.26,10.0,North,8.1,,Clear,False,False,True,False,False,True,True,False,True,False,False,True,False,Night,Night,Night,Night
C-5180070,2,2020-03-26 18:25:37,2020-03-30 18:25:32,37.82301,-121.99491,37.82304,-121.99774,0.15446820299,At El Pintado - Construction work.,382.0,Diablo Rd,L,Danville,Contra Costa,CA,94526-3417,US,US/Pacific,KCCR,2020-03-26 18:53:00,56.0,56.0,47.0,29.97,10.0,W,15.0,0.0,Fair,False,False,False,False,False,False,False,False,False,False,False,True,False,Day,Day,Day,Day
C-5180071,2,2019-10-14 21:03:34,2019-10-22 21:02:07,33.730909999999994,-84.74463,33.73464,-84.7333,0.70018374567,At Chapel Hill Rd/Exit 36 - Construction work. Right lane blocked.,,GA-402 E,R,Douglasville,Douglas,GA,30135,US,US/Eastern,KFTY,2019-10-18 08:53:00,45.0,45.0,90.0,29.12,10.0,NNE,3.0,0.0,Fair,False,False,False,False,True,False,False,False,False,False,False,False,False,Night,Night,Night,Night
C-5180072,2,2020-09-09 13:43:30,2020-09-10 02:26:22,26.512812,-80.059014,26.514554,-80.059752,0.128719196907,Slow traffic on FL-805 - US-1 N - FL-5 from SE 20th Ct to To Be Determined due to resurfacing work.,1838.0,S Federal Hwy,L,Boynton Beach,Palm Beach,FL,33435,US,US/Eastern,KPBI,2020-09-09 13:53:00,80.0,80.0,87.0,29.97,10.0,NNW,3.0,0.0,Thunder,False,False,False,False,False,False,False,False,False,False,False,False,False,Day,Day,Day,Day
C-5180073,4,2020-08-21 15:55:54,2020-08-29 06:59:00,40.918172,-73.105868,40.919139,-73.10025,0.300827867426,Closed road from Huckleberry Ln to Debbie Ct due to roadwork.,5.0,Huckleberry Ln,R,East Setauket,Suffolk,NY,11733-1878,US,US/Eastern,KISP,2020-08-21 15:56:00,80.0,80.0,64.0,29.8,10.0,SW,13.0,0.0,Cloudy,False,False,False,False,False,False,False,False,False,False,False,False,False,Day,Day,Day,Day
C-5180074,2,2021-12-03 18:57:00,2021-12-03 21:02:47,33.492638,-112.203242,33.495315999999995,-112.203226,0.185034474267,Slow traffic from W Thomas Rd (N 67th Ave) to W Camelback Rd (N 67th Ave) due to roadwork.,3923.0,N 67th Ave,R,Phoenix,Maricopa,AZ,85033-6226,US,US/Mountain,KGEU,2021-12-03 18:58:00,69.0,69.0,29.0,28.81,10.0,NNW,3.0,0.0,Fair,False,False,False,False,False,False,False,False,True,False,False,False,False,Night,Night,Night,Night
C-5180075,2,2021-09-21 05:51:30,2021-09-21 06:45:00,39.65108,-106.016493,39.673016,-105.97088,2.8606469325700004,Slow traffic on I-70 E from US-6/CO-9/Exit 205 (I-70) to US-6/Exit 216 (I-70) due to roadwork.,,I-70 E,R,Dillon,Summit,CO,80435,US,US/Mountain,KCCU,2021-09-21 05:53:00,25.0,19.0,72.0,21.08,10.0,NE,5.0,0.0,Fair,False,False,False,False,False,False,False,False,False,False,False,False,False,Night,Night,Night,Day
C-5180076,2,2020-03-06 03:14:25,2020-03-06 05:59:00,34.186069,-118.401588,,,0.52999997139,Exit ramp from CA-170 Southbound at Exit 8B to Victory Blvd East Eastbound closed due to construction work.,,CA-170 S,R,North Hollywood,Los Angeles,CA,91606,US,US/Pacific,KBUR,2020-03-06 02:53:00,57.0,57.0,77.0,29.18,10.0,CALM,0.0,0.0,Fair,False,False,False,False,False,False,False,False,False,False,False,False,False,Night,Night,Night,Night
C-5180077,4,2017-08-21 21:18:00,2017-08-22 03:18:00,30.33851,-81.668674,30.337339,-81.669166,0.0860635694146,At US-23/Kings Road/Exit 353 - Exit ramp closed. Construction work.,,I-95 S,R,Jacksonville,Duval,FL,32209,US,US/Eastern,KJAX,2017-08-21 20:56:00,79.0,,94.0,30.13,10.0,Calm,,,Mostly Cloudy,False,False,True,False,False,False,False,False,False,False,False,False,False,Night,Night,Night,Day
C-5180078,2,2021-09-30 07:00:00,2021-09-30 18:45:00,42.716739,-90.995151,42.715456,-90.992753,0.150589875455,Construction on WI-133 SB near OAK RD Allow extra time.,501.0,W Amelia St,R,Cassville,Grant,WI,53806-9725,US,US/Central,KPDC,2021-09-30 06:55:00,58.0,58.0,90.0,29.42,7.0,CALM,0.0,0.0,Fair,False,False,False,False,False,False,False,False,False,False,False,False,False,Day,Day,Day,Day
C-5180079,2,2020-01-29 21:01:00,2020-01-30 01:01:00,33.74617,-117.44803,33.73044,-117.39867,3.03719131714,At Alberhill Oh - Bridge maintenance work. Lane closed.,,Corona Fwy S,R,Corona,Riverside,CA,92883,US,US/Pacific,KAJO,2020-01-29 20:56:00,65.0,65.0,19.0,29.49,10.0,E,8.0,0.0,Fair,False,False,False,False,False,False,False,False,False,False,False,False,False,Night,Night,Night,Night
C-5180080,2,2021-03-25 05:14:00,2021-03-25 22:30:11,25.846602,-80.121271,25.84449,-80.121863,0.150496863928,Stationary traffic on FL-A1A - FL-907 from 65th St to Pine Tree Dr / Pinetree Dr due to roadwork.,6408.0,Indian Creek Dr,L,Miami Beach,Miami-Dade,FL,33141-5803,US,US/Eastern,KOPF,2021-03-25 04:53:00,74.0,74.0,87.0,30.01,10.0,SSE,12.0,0.0,Fair,False,False,True,False,False,False,False,False,False,False,False,True,False,Night,Night,Night,Night
C-5180081,2,2020-11-17 16:00:00,2020-11-17 23:15:00,42.490596,-90.679644,42.491554,-90.660897,0.957418286529,Construction on US-20 EB near GRANDVIEW AVE Drive with caution.,1892.0,Dodge St,L,Dubuque,Dubuque,IA,52003,US,US/Central,KDBQ,2020-11-17 15:53:00,38.0,34.0,48.0,29.33,10.0,WSW,5.0,0.0,Partly Cloudy,False,False,False,False,False,False,False,False,False,False,False,False,False,Day,Day,Day,Day
C-5180082,2,2020-09-09 19:05:00,2020-09-10 02:05:49,45.131453,-93.188479,45.143984,-93.184019,0.892680426176,Stationary traffic on I-35W from Lake Dr/Exit 31B (I-35W) to CR-52/95th Ave/Exit 32 (I-35W) due to roadwork.,,I-35W N,R,Minneapolis,Anoka,MN,55449,US,US/Central,KANE,2020-09-09 18:45:00,46.0,46.0,87.0,29.46,10.0,CALM,0.0,0.0,Mostly Cloudy,False,False,False,False,False,False,False,False,False,False,False,False,False,Day,Day,Day,Day
C-5180083,2,2021-06-20 17:01:30,2021-06-20 17:16:00,39.288901,-104.895583,39.361351,-104.86696299999998,5.23432400275,Slow traffic on US-85 N - US-87 N - I-25 N from Tomah Road/Exit 174 (I-25) to Plum Creek Pkwy/Exit 181 (I-25) due to roadwork.,,I-25 N,R,Castle Rock,Douglas,CO,80104,US,US/Mountain,KMNH,2021-06-20 16:55:00,73.0,73.0,41.0,23.15,10.0,E,10.0,0.0,Partly Cloudy,False,False,False,False,True,False,False,False,False,False,False,False,False,Day,Day,Day,Day
C-5180084,2,2016-08-19 09:02:21,2016-08-19 15:02:21,39.13974,-77.19641,39.13974,-77.19641,0.0,At MD-117/W Diamond Ave/Old Towne Ave - Construction work.,2.0,Cedar Ave,R,Gaithersburg,Montgomery,MD,20877-1913,US,US/Eastern,KGAI,2016-08-19 08:55:00,75.2,,73.0,30.04,10.0,Calm,,,Clear,False,False,True,False,False,False,True,False,False,False,False,False,False,Day,Day,Day,Day
C-5180085,2,2021-09-09 17:30:30,2021-09-09 18:30:30,41.990686,-87.681388,41.99055300000001,-87.68963199999996,0.423461978539,Slow traffic on US-14 W from Ravenswood Ave (US-14) to Western Ave (US-14) due to roadwork.,2050.0,W Peterson Ave,L,Chicago,Cook,IL,60659-4307,US,US/Central,KORD,2021-09-09 17:51:00,72.0,72.0,48.0,29.26,10.0,E,9.0,0.0,Partly Cloudy,False,False,False,False,False,False,False,False,True,False,False,True,False,Day,Day,Day,Day
C-5180086,4,2019-01-07 09:03:07,2019-01-07 14:02:29,38.76095,-90.42669,38.76095,-90.42669,0.0,At MO-180/St Charles Rock/Exit 20 - Ramps closed. Construction work.,,I-270 N,R,Bridgeton,St. Louis County,MO,63044,US,US/Central,KSTL,2019-01-07 08:51:00,54.0,,83.0,29.75,8.0,SSE,12.7,0.06,Light Rain,False,False,False,False,True,False,False,False,False,False,False,False,False,Day,Day,Day,Day
C-5180087,4,2021-07-12 23:09:07,2021-07-19 23:59:00,32.787065000000005,-96.776707,32.787215,-96.778645,0.113046790874,Closed road from Simpson Pl to Crutcher St due to roadwork.,400.0,Pauline St,R,Dallas,Dallas,TX,75246,US,US/Central,KDAL,2021-07-12 22:53:00,79.0,79.0,74.0,29.54,10.0,S,8.0,0.0,Fair,False,False,False,False,False,False,False,False,False,False,False,False,False,Night,Night,Night,Night
C-5180088,2,2021-12-19 11:33:30,2021-12-19 13:34:55,40.613108,-73.982189,40.614452,-73.9808,0.118028819016,Slow traffic from Bay Ridge Pkwy (Bay Pkwy) to McDonald Ave (Bay Pkwy) due to roadwork.,6607.0,Bay Pkwy,R,Brooklyn,Kings,NY,11204-3934,US,US/Eastern,KJRB,2021-12-19 11:51:00,37.0,31.0,54.0,29.97,10.0,WNW,8.0,0.0,Fair,True,False,False,False,False,False,True,False,True,False,False,True,False,Day,Day,Day,Day
C-5180089,2,2021-12-11 23:20:53,2021-12-13 01:05:55,43.89214000000001,-93.001826,43.89220200000001,-92.886744,5.73015099092,Construction on MN-30 EB near MM 193 Allow extra time.,12285.0,State Highway 30,R,Blooming Prairie,Dodge,MN,55917,US,US/Central,KTOB,2021-12-11 23:15:00,21.0,7.0,80.0,28.47,10.0,SW,16.0,0.0,,False,False,False,False,False,False,False,False,False,False,False,False,False,Night,Night,Night,Night
C-5180090,2,2021-08-28 06:00:00,2021-08-28 20:45:00,33.775333,-78.983266,33.77394,-78.982008,0.120347820111,Construction on US-501 SB near MYRTLE RIDGE DR Construction. Shoulder closed.,3000.0,E Highway 501,L,Conway,Horry,SC,29526-9533,US,US/Eastern,KHYW,2021-08-28 05:55:00,70.0,70.0,100.0,30.12,10.0,CALM,0.0,0.0,Fair,False,False,False,False,False,False,False,False,False,False,False,True,False,Night,Night,Day,Day
C-5180091,2,2020-11-28 21:33:45,2020-11-29 02:19:55,40.716592,-74.008367,40.716929,-74.009125,0.0460207622195,Stationary traffic at Duane St due to roadwork.,151.0,Duane St,R,New York,New York,NY,10013-3810,US,US/Eastern,KJRB,2020-11-28 21:51:00,45.0,41.0,56.0,29.99,10.0,WNW,7.0,0.0,Fair,True,False,True,False,False,False,True,False,False,False,False,True,False,Night,Night,Night,Night
C-5180092,2,2021-10-19 16:25:13,2021-12-15 19:30:00,30.277166,-91.916672,30.280846,-91.911675,0.3918535658609999,Stationary traffic on LA-94 from LA-354 (E Mills Ave/LA-94) to LA-328/Rees St (E Mills Ave/LA-94) due to roadwork.,999.0,Cannery Rd,R,Breaux Bridge,St. Martin,LA,70517,US,US/Central,KLFT,2021-10-19 16:53:00,79.0,79.0,58.0,30.01,10.0,VAR,3.0,0.0,Partly Cloudy,False,False,False,False,False,False,False,False,False,False,False,False,False,Day,Day,Day,Day
C-5180093,2,2021-03-02 05:21:30,2021-12-28 11:44:00,32.867348,-96.822029,32.865678,-96.820727,0.137925021564,Slow traffic on TX-12 Loop from Radbrook Pl to Meadowbrook Dr due to roadwork.,,Radbrook Pl,R,Dallas,Dallas,TX,75220,US,US/Central,KDAL,2021-07-09 14:13:00,76.0,76.0,87.0,29.56,8.0,S,10.0,0.0,Light Rain,False,False,False,False,False,False,False,False,False,False,False,False,False,Night,Night,Night,Night
C-5180094,2,2020-08-21 16:00:00,2020-08-22 06:59:59,42.015814,-73.734981,42.015991,-73.735919,0.0496796821404,Bridge work on Taconic State Parkway southbound between Jackson Corners Road (Columbia) and Ferris Lane DOT BM Friday August 21st 2020 09:00 AM thru 02:00 PM right lane closure Monday August 24th 2020 09:00 AM thru 02:00 PM various lane closures,1643.0,Jackson Corners Rd,L,Red Hook,Columbia,NY,12571-9117,US,US/Eastern,KPOU,2020-08-21 15:53:00,87.0,87.0,39.0,29.69,10.0,W,10.0,0.0,Fair,False,False,False,True,False,False,False,False,False,True,False,False,False,Day,Day,Day,Day
C-5180096,2,2017-01-31 09:00:53,2017-01-31 15:00:53,38.949693,-77.261852,38.954098,-77.26864599999998,0.475288316328,Between Trap Rd and Stokley Way - Roadwork.,9186.0,Leesburg Pike,R,Vienna,Fairfax,VA,22182-1655,US,US/Eastern,KIAD,2017-01-31 08:52:00,33.1,23.9,50.0,29.84,10.0,South,12.7,,Mostly Cloudy,False,False,False,False,False,False,False,False,False,False,False,False,False,Day,Day,Day,Day
C-5180097,2,2020-04-24 08:03:03,2020-04-24 17:00:00,42.13974,-88.33576,42.15394000000001,-88.33568000000002,0.981135116812,At N County Line Rd - Resurfacing work during the day time.,,Randall Rd,R,Dundee,Kane,IL,60118,US,US/Central,KDPA,2020-04-24 08:04:00,43.0,39.0,89.0,29.06,3.0,N,7.0,0.0,Cloudy,False,False,True,False,False,False,False,False,False,False,False,True,False,Day,Day,Day,Day
C-5180099,2,2021-06-07 12:30:17,2021-06-07 17:46:13,40.875884,-73.908222,40.875744,-73.90839100000002,0.0130966653891,Roadwork on 230th St/Exterior St (Broadway/US-9) from 225th St (Broadway/US-9) to US-9 S.,,Broadway,R,Bronx,New York,NY,10463,US,US/Eastern,KLGA,2021-06-07 12:51:00,91.0,91.0,48.0,30.04,10.0,SSE,13.0,0.0,Fair,True,False,False,False,False,False,False,False,False,False,False,True,False,Day,Day,Day,Day
C-5180100,2,2016-10-04 09:00:52,2016-10-04 15:00:52,39.365527,-76.790033,39.3639,-76.78546999999998,0.2684193925599999,At Brenbrook Dr - Construction work.,,Briarstone Rd,R,Randallstown,Baltimore County,MD,21133,US,US/Eastern,KDMH,2016-10-04 08:54:00,63.0,,75.0,30.25,,North,,,,False,False,False,False,False,False,False,False,False,False,False,False,False,Day,Day,Day,Day
C-5180101,3,2021-09-19 21:43:12,2021-09-20 05:00:00,41.64902100000001,-93.616409,,,0.389999985695,Entry ramp to I-35 Eastbound from Nw 2nd St closed due to construction work.,,I-35 N,R,Des Moines,Polk,IA,50313,US,US/Central,KIKV,2021-09-19 21:35:00,77.0,77.0,65.0,28.91,10.0,SSE,12.0,0.0,Fair,False,False,False,False,False,False,False,False,False,False,False,False,False,Night,Night,Night,Night
C-5180102,4,2020-06-11 13:22:21,2020-06-12 13:52:02,40.31057,-79.826669,40.29017,-79.83569,1.4875065578100002,Closed at Simpson Howell Rd - Closed due to roadwork. Single alternate lane traffic. Traffic problem.,,Boston Brg,R,McKeesport,Allegheny,PA,15135,US,US/Eastern,KAGC,2020-06-11 12:53:00,71.0,71.0,59.0,28.76,10.0,WNW,8.0,0.0,Mostly Cloudy,False,False,True,False,False,False,False,False,False,False,False,True,False,Day,Day,Day,Day
C-5180103,2,2021-11-29 21:00:00,2021-11-30 06:15:00,25.793181,-80.205464,25.791462,-80.205298,0.119219690719,Construction on I-95 SB near NW 29TH ST Drive with caution.,,I-95 S,R,Miami,Miami-Dade,FL,33136,US,US/Eastern,KMIA,2021-11-29 20:53:00,67.0,67.0,54.0,30.07,10.0,CALM,0.0,0.0,Fair,False,False,False,False,False,False,False,False,False,False,False,False,False,Night,Night,Night,Night
C-5180104,2,2020-11-09 11:42:00,2020-11-10 00:16:14,40.717187,-73.983642,40.718117,-73.98653900000002,0.164757654461,Slow traffic from exit [32A] to Norfolk St due to roadwork.,,Williamsburg Brg W,R,New York,New York,NY,10002,US,US/Eastern,KJRB,2020-11-09 11:51:00,72.0,72.0,34.0,30.21,9.0,VAR,3.0,0.0,Fair,True,False,True,False,False,False,True,False,True,False,False,True,False,Day,Day,Day,Day
C-5180105,2,2020-11-09 12:50:00,2020-11-10 02:24:30,44.858834,-93.328915,44.861748,-93.303946,1.2393308050299998,Slow traffic on I-494 from MN-100/CR-34/Exit 7 (I-494) to CR-32/Penn Ave/Exit 6 (I-494) due to roadwork.,,France Ave S,R,Minneapolis,Hennepin,MN,55431,US,US/Central,KMSP,2020-11-09 12:53:00,64.0,64.0,87.0,28.8,9.0,SW,14.0,0.01,Light Rain,False,False,False,False,False,False,False,False,False,False,False,False,False,Day,Day,Day,Day
C-5180106,2,2021-02-04 19:50:00,2021-02-04 21:16:00,34.613414,-92.522393,34.61577,-92.516081,0.394110530438,Stationary traffic on AR-5 from Alcoa Rd (Stagecoach Rd/AR-5) to Springhill Rd (Stagecoach Rd/AR-5) due to roadwork.,3003.0,Highway 5 N,L,Benton,Saline,AR,72019-9026,US,US/Central,KLIT,2021-02-04 19:53:00,47.0,42.0,61.0,29.63,10.0,WNW,10.0,0.0,Fair,False,False,False,False,False,False,False,False,False,False,False,True,False,Night,Night,Night,Night
C-5180107,2,2021-06-17 06:49:30,2021-12-30 08:59:00,41.90989,-87.864554,41.907895,-87.865569,0.147391185703,Slow traffic on IL-64 from Armitage Ave to Ihb Railroad due to roadwork.,1914.0,Rose St,R,Melrose Park,Cook,IL,60160,US,US/Central,KORD,2021-11-11 16:51:00,49.0,42.0,64.0,28.95,10.0,W,20.0,0.0,Mostly Cloudy,False,False,False,False,False,False,False,False,False,False,False,False,False,Day,Day,Day,Day
C-5180108,2,2021-11-04 08:57:00,2021-11-04 09:17:30,33.465934999999995,-112.18993600000002,33.465967,-112.181514,0.485437958307,Slow traffic from N 67th Ave (W McDowell Rd) to N 51st Ave (W McDowell Rd) due to roadwork.,1501.0,N 60th Ln,R,Phoenix,Maricopa,AZ,85035,US,US/Mountain,KGEU,2021-11-04 08:58:00,61.0,61.0,40.0,28.87,10.0,CALM,0.0,0.0,Fair,False,False,False,False,False,False,False,False,False,True,False,False,False,Day,Day,Day,Day
C-5180109,2,2021-05-21 08:01:00,2021-05-21 15:46:00,35.337127,-118.838778,35.330547,-118.811518,1.60238932011,Lane closure due to Pavement Repair between and Tejon Highway Over-Crossing,,CA-58 E,R,Bakersfield,Kern,CA,93307,US,US/Pacific,KBFL,2021-05-21 07:54:00,56.0,56.0,37.0,29.44,8.0,NW,3.0,0.0,Fair,False,False,False,False,True,False,False,False,False,False,False,False,False,Day,Day,Day,Day
C-5180110,3,2016-10-14 09:01:09,2016-10-14 15:01:09,26.04789,-80.168138,26.047361,-80.18695699999998,1.16877154193,Between Anglers Ave and N 56th Ave/SW 40th Ave - Construction work.,5998.0,Ravenswood Rd,L,Dania,Broward,FL,33004,US,US/Eastern,KFLL,2016-10-14 08:53:00,82.0,,67.0,30.06,10.0,ENE,16.1,,Scattered Clouds,False,False,False,False,False,False,False,False,False,False,False,True,False,Day,Day,Day,Day
C-5180111,2,2021-05-21 05:02:00,2021-05-21 17:53:27,28.325313,-82.48799,28.318811,-82.504137,1.07997498498,Stationary traffic on FL-45 - FL-52 - US-41 S - US-41 N from Pasco Trails Blvd to Shettle Rd due to roadwork.,19758.0,State Road 52,L,Land O Lakes,Pasco,FL,34637,US,US/Eastern,KBKV,2021-05-21 04:53:00,66.0,66.0,75.0,30.16,10.0,ENE,9.0,0.0,Fair,False,False,False,False,False,False,False,False,False,False,False,False,False,Night,Night,Night,Night
C-5180112,2,2021-08-18 15:31:00,2021-08-18 17:33:18,33.655036,-112.031901,33.655571,-112.03086100000002,0.0703135668021,Stationary traffic from Arizona Heights Cir to E Rosemonte Dr due to roadwork.,2322.0,E Union Hills Dr,R,Phoenix,Maricopa,AZ,85024-3024,US,US/Mountain,KDVT,2021-08-18 15:26:00,74.0,74.0,93.0,28.21,3.0,NNE,10.0,0.12,T-Storm,True,False,False,False,False,False,False,False,True,True,False,False,False,Day,Day,Day,Day
C-5180114,2,2020-09-04 20:09:30,2020-09-05 00:18:07,39.725347,-86.33694399999996,39.72711,-86.337911,0.132206934518,Slow traffic on US-40 W from Wamsley Way to Halliburton Dr due to roadwork.,2621.0,S Ronald Reagan Pkwy,L,Indianapolis,Hendricks,IN,46231-2377,US,US/Eastern,KIND,2020-09-04 19:54:00,70.0,70.0,39.0,29.31,10.0,NW,8.0,0.0,Partly Cloudy,False,False,False,False,False,False,False,False,False,False,False,False,False,Night,Day,Day,Day
C-5180115,2,2021-06-17 09:32:00,2021-06-17 10:27:00,40.246651,-79.574495,40.238511,-79.57994000000002,0.631492939012,Stationary traffic on US-119 S from Fairview St (US-119) to Burton Ave (US-119) due to roadwork.,,State Route 119,R,Youngwood,Westmoreland,PA,15697,US,US/Eastern,KLBE,2021-06-17 09:47:00,61.0,61.0,59.0,28.88,20.0,SSW,6.0,0.0,Fair,False,False,False,False,False,False,False,False,False,False,False,False,False,Day,Day,Day,Day
C-5180116,4,2020-12-24 04:01:00,2020-12-24 12:46:00,34.031426,-118.259758,34.032398,-118.262928,0.193538494315,Construction on I-10 WB near MAPLE ST Take alternate route.,,Maple Ave,R,Los Angeles,Los Angeles,CA,90015,US,US/Pacific,KCQT,2020-12-24 03:52:00,58.0,58.0,15.0,29.99,10.0,VAR,3.0,0.0,Fair,False,False,False,False,False,False,False,False,False,False,False,False,False,Night,Night,Night,Night
C-5180117,4,2021-04-07 06:00:00,2021-04-07 19:00:00,33.279594,-82.503622,33.266314,-82.49193199999998,1.13927062316,GA-80 is closed from CR-117/Bastonville Rd (GA-80) to Steephollow Rd/Phillips Rd (GA-80) due to roadwork.,,GA Highway 80,R,Stapleton,Glascock,GA,30823,US,US/Eastern,KHQU,2021-04-07 05:55:00,52.0,52.0,82.0,29.51,10.0,SW,3.0,0.0,Fair,False,False,False,False,False,False,False,False,False,False,False,False,False,Night,Night,Night,Day
C-5180118,2,2018-11-10 08:01:37,2018-11-14 08:00:55,34.014691,-84.49432900000002,34.021026,-84.489124,0.5295677419,Between Marietta and Ebenezer Rd NE - Construction work.,2666.0,Sandy Plains Rd,R,Marietta,Cobb,GA,30066-4240,US,US/Eastern,KRYY,2018-11-10 07:48:00,34.0,27.2,70.0,29.42,10.0,NW,8.1,,Clear,False,False,True,False,False,False,False,False,False,False,False,True,False,Day,Day,Day,Day
C-5180119,2,2017-06-07 06:58:20,2017-06-07 15:02:36,40.081625,-75.69725799999998,40.081501,-75.71094000000002,0.72335450654,At Milford Rd - Roadwork. Traffic problem.,304.0,Little Conestoga Rd,L,Downingtown,Chester,PA,19335-1520,US,US/Eastern,KOQN,2017-06-07 06:55:00,50.0,50.0,100.0,29.26,7.0,CALM,0.0,0.0,Cloudy,False,False,False,False,False,False,False,False,False,False,False,False,False,Day,Day,Day,Day
C-5180120,4,2020-08-23 11:15:56,2020-08-31 06:59:00,29.425166,-98.486517,29.425038,-98.485709,0.0494233817039,Closed road from Alamo Plz / Blum St to Bonham due to roadwork.,298.0,Alamo Plz,R,San Antonio,Bexar,TX,78205-2604,US,US/Central,KSSF,2020-08-23 10:53:00,82.0,82.0,67.0,29.36,10.0,SE,3.0,0.0,Fair,False,False,False,False,False,False,False,False,False,False,False,False,False,Day,Day,Day,Day
C-5180121,2,2020-10-10 12:35:30,2020-10-10 20:04:00,42.67008,-82.999684,42.669785,-83.01057800000002,0.553815947124,Stationary traffic from Schoenherr Rd (23 Mile Rd) to MI-53 (23 Mile Rd) due to construction work.,13126.0,23 Mile Rd,R,Shelby Township,Macomb,MI,48315-2712,US,US/Eastern,KMTC,2020-10-10 12:59:00,74.0,74.0,74.0,29.21,10.0,WSW,14.0,0.0,Mostly Cloudy,False,False,False,False,False,False,False,False,False,False,False,True,False,Day,Day,Day,Day
C-5180122,2,2018-08-22 22:47:19,2018-10-14 11:38:21,42.07909,-83.24507,42.30283,-83.11551999999998,16.8214678937,Between Huron River Dr/Exit 27 and Springwells St/Exit 45 - Roadwork.,,I-75 S,R,Rockwood,Wayne,MI,48173,US,US/Eastern,KONZ,2018-08-22 22:55:00,63.7,,67.0,30.06,10.0,WNW,8.1,,Overcast,False,False,False,False,False,False,False,False,False,False,False,False,False,Night,Night,Night,Night
C-5180123,2,2020-09-30 14:00:30,2020-10-01 06:31:10,28.356856,-80.70123199999998,28.357523,-80.70009300000002,0.0831863780418,Queuing traffic on FL-520 - FL-3 from S Tropical Trl to Palmetto Ave due to roadwork.,83.0,W Merritt Island Cswy,R,Merritt Island,Brevard,FL,32952-4801,US,US/Eastern,KCOF,2020-09-30 13:56:00,78.0,78.0,58.0,29.99,10.0,N,16.0,0.0,Mostly Cloudy,False,False,True,False,False,False,False,False,False,False,False,False,False,Day,Day,Day,Day
C-5180124,4,2019-05-03 22:00:00,2019-05-06 05:00:00,29.59802,-95.372578,29.59718,-95.395971,1.4065980375100002,Closed at TX-288 - Closed due to roadwork.,,S Sam Houston Tollway W,R,Houston,Harris,TX,77047,US,US/Central,KMCJ,2019-05-03 21:53:00,74.0,74.0,87.0,29.79,10.0,ESE,5.0,0.0,Mostly Cloudy,False,False,False,False,False,False,False,False,False,False,False,False,False,Night,Night,Night,Night
C-5180125,2,2020-09-26 17:27:30,2020-09-30 08:54:06,44.139567,-88.543839,44.143794,-88.543891,0.29206926494,Roadwork on WI-76 from US-41 (WI-76) to CR-II (WI-76).,6869.0,State Road 76,R,Neenah,Winnebago,WI,54956-9601,US,US/Central,KATW,2020-09-26 17:45:00,70.0,70.0,73.0,28.58,10.0,SSE,12.0,0.0,Mostly Cloudy,False,False,False,False,False,False,False,False,False,False,False,False,False,Day,Day,Day,Day
C-5180126,2,2021-12-11 06:55:00,2021-12-11 07:22:00,34.055433,-118.199626,34.054404,-118.208997,0.5411243264019999,Stationary traffic on I-10 W from exit [19C] to exit [135A] due to roadwork.,,I-10 W,R,Los Angeles,Los Angeles,CA,90033,US,US/Pacific,KCQT,2021-12-11 06:52:00,47.0,47.0,52.0,29.99,10.0,N,3.0,0.0,Fair,False,False,False,False,True,False,False,False,False,False,False,False,False,Day,Day,Day,Day
C-5180127,2,2021-09-07 12:07:30,2021-09-07 14:11:33,41.69266500000001,-87.739804,41.690881,-87.738523,0.139863825389,Stationary traffic on IL-50 from W 110th St to Kilpatrick Ave due to roadwork.,11004.0,S Cicero Ave,R,Oak Lawn,Cook,IL,60453-5504,US,US/Central,KMDW,2021-09-07 11:53:00,85.0,85.0,43.0,29.04,10.0,SSW,18.0,0.0,Mostly Cloudy,False,False,True,False,False,False,False,False,False,False,False,True,False,Day,Day,Day,Day
C-5180128,3,2020-06-24 18:56:05,2020-06-25 06:00:00,39.812,-75.457,39.82701,-75.43441,1.5851534149899995,Between I-495/SR-92/Naamans Rd/Exit 11 and US-322/Highland Ave/Exit 3 - Roadwork. Two lanes closed. Lane blocked.,,I-95 N,R,Claymont,New Castle,DE,19703,US,US/Eastern,KILG,2020-06-24 18:51:00,81.0,81.0,41.0,29.74,,W,14.0,0.0,Fair,False,False,False,False,True,False,False,False,False,False,False,False,False,Day,Day,Day,Day
C-5180129,2,2021-10-20 11:38:30,2021-12-10 07:45:00,39.924573,-75.311676,39.922354,-75.318652,0.400178627086,Stationary traffic from Bishop Ave (Baltimore Pike) to PA-420/E Woodland Ave (Baltimore Pike) due to roadwork.,15.0,Baltimore Pike,L,Springfield,Delaware,PA,19064-3732,US,US/Eastern,KPHL,2021-10-20 11:54:00,72.0,72.0,46.0,30.07,10.0,W,10.0,0.0,Fair,False,False,False,False,False,False,False,False,False,False,False,True,False,Day,Day,Day,Day
C-5180130,2,2021-11-15 15:54:30,2021-11-15 17:58:06,33.493161,-112.23776200000002,33.494264,-112.238616,0.0907158420069,Slow traffic from W Vale Dr to N 84th Ave due to roadwork.,4028.0,N 83rd Ave,L,Phoenix,Maricopa,AZ,85033,US,US/Mountain,KGEU,2021-11-15 15:56:00,84.0,84.0,11.0,28.86,10.0,VAR,3.0,0.0,Fair,True,False,False,False,False,False,False,False,True,True,False,False,False,Day,Day,Day,Day
C-5180131,2,2021-12-22 15:10:58,2021-12-22 15:36:39,40.748639,-73.89601800000001,40.746259,-73.89043199999998,0.335466517074,Slow traffic from I-278/Brooklyn Queens Expy (Broadway) to NY-25/Queens Blvd (Broadway) due to roadwork.,6788.0,Broadway,R,Jackson Heights,Queens,NY,11372,US,US/Eastern,KLGA,2021-12-22 14:51:00,47.0,39.0,41.0,29.57,10.0,NW,24.0,0.0,Fair / Windy,True,False,False,False,False,False,True,False,True,False,False,True,False,Day,Day,Day,Day
C-5180132,2,2021-10-20 18:46:30,2021-10-20 19:00:00,39.265168,-104.895359,39.251493,-104.88621,1.06410543146,Stationary traffic on US-85 S - I-25 S - US-87 S from Tomah Road/Exit 174 (I-25) to Spruce Mountain Rd/Exit 173 (I-25) due to roadwork.,,I-25 S,R,Castle Rock,Douglas,CO,80104,US,US/Mountain,KMNH,2021-10-20 18:55:00,41.0,35.0,39.0,23.3,10.0,SE,9.0,0.0,Fair,False,False,False,False,False,False,False,False,False,False,False,False,False,Night,Night,Day,Day
C-5180133,2,2020-06-30 16:08:00,2020-07-01 16:58:10,41.350682,-75.764197,41.351312,-75.762367,0.104421521401,Construction on MAIN ST near STEPHENSON ST Allow extra time.,300.0,Main St,R,Duryea,Luzerne,PA,18642-1027,US,US/Eastern,KAVP,2020-06-30 15:54:00,74.0,74.0,71.0,28.88,6.0,NNE,9.0,0.07,Light Rain,False,False,False,False,False,False,False,False,False,False,False,False,False,Day,Day,Day,Day
C-5180134,2,2021-11-15 14:44:30,2021-11-15 16:52:47,42.026247,-87.74918000000002,42.02624,-87.74616999999998,0.154489716504,Stationary traffic from Lincoln Ave/Niles Center Rd (Oakton St) to Crawford Ave (Oakton St) due to roadwork.,4873.0,Oakton St,L,Skokie,Cook,IL,60077-2955,US,US/Central,KORD,2021-11-15 14:51:00,33.0,33.0,75.0,29.33,10.0,CALM,0.0,0.01,Cloudy,False,False,False,False,False,False,False,False,True,False,False,True,False,Day,Day,Day,Day
C-5180135,2,2020-11-23 20:45:36,2020-11-23 23:49:49,35.516964,-97.544356,35.512844,-97.550676,0.455376282509,Roadwork on OK-3A/Northwest Expy/Exit 125 (I-44) from Pennsylvania Ave/Exit 125 (I-44) to OK-66 W - I-44 W.,,I-44 W,R,Oklahoma City,Oklahoma,OK,73118,US,US/Central,KPWA,2020-11-23 20:53:00,54.0,54.0,69.0,28.64,10.0,SSE,17.0,0.0,Cloudy,False,False,False,False,False,False,False,False,False,False,False,False,False,Night,Night,Night,Night
C-5180136,2,2020-03-26 11:15:44,2020-03-30 16:42:53,38.23709,-85.70911,38.23655,-85.70989,0.056426534334,Between Grinstead Dr and US-150/US-31E/Bardstown Rd - Roadwork. Lane blocked.,2319.0,Cherokee Pkwy,L,Louisville,Jefferson,KY,40204-2215,US,US/Eastern,KLOU,2020-03-26 15:53:00,72.0,72.0,53.0,29.19,10.0,SSE,6.0,0.0,Fair,False,False,True,False,False,False,False,False,False,False,False,False,False,Day,Day,Day,Day
C-5180137,3,2019-11-25 11:26:04,2019-11-25 17:45:15,40.762272,-73.729111,,,1.60000002384,Right lane closed due to construction work on I-495 Eastbound between Exit 31 - Cross Island Parkway and Exit 32 - Little Neck Parkway.,,Long Island Expy E,R,Little Neck,Queens,NY,11362,US,US/Eastern,KLGA,2019-11-25 11:51:00,52.0,52.0,49.0,29.79,10.0,VAR,3.0,0.0,Partly Cloudy,False,False,False,False,False,False,False,False,False,False,False,False,False,Day,Day,Day,Day
C-5180138,3,2019-07-08 20:00:00,2019-07-09 06:00:00,42.312286,-122.85022,,,0.0,Two lanes closed and speed restriction of 40 mph due to construction during the night on I-5 Northbound at Exit 27 Belknap Rd.,,I-5 N,R,Medford,Jackson,OR,97504,US,US/Pacific,KMFR,2019-07-08 19:53:00,82.0,82.0,25.0,28.48,10.0,NNW,12.0,0.0,Fair,False,False,True,False,False,False,False,False,False,False,False,True,False,Day,Day,Day,Day
C-5180139,2,2021-06-11 00:00:00,2021-06-14 23:59:59,34.988248,-80.982963,34.969588,-80.985106,1.29497873573,TEMPORARY LANE CLOSURES . Expect lane closures due to bridge patching and bridge rehabilitation work. Lane closures from 9pm Friday to 5am Monday.,,I-77 S,R,Fort Mill,York,SC,29708,US,US/Eastern,KUZA,2021-06-11 00:54:00,74.0,74.0,82.0,29.22,10.0,SW,7.0,0.0,Fair,False,False,False,False,False,False,False,False,False,False,False,False,False,Night,Night,Night,Night
C-5180140,2,2020-10-17 07:00:00,2020-10-21 07:45:00,39.411763,-86.030941,39.411631,-86.00049,1.62555631303,Construction on IN-252 EB near S 325 E Construction. Expect long delays.,4511.0,S Mauxferry Rd,R,Franklin,Johnson,IN,46131-8325,US,US/Eastern,K1II,2020-10-17 06:45:00,32.0,32.0,87.0,29.56,10.0,CALM,0.0,,Fair,False,False,False,False,False,False,False,False,False,False,False,False,False,Night,Night,Day,Day
C-5180141,2,2021-03-02 18:22:30,2021-03-03 15:23:54,38.462277,-82.86308000000002,38.456452,-82.858982,0.459499290468,Roadwork on KY-1459/Low Gap Rd (KY-1) from KY-784 (KY-1) to KY-1.,9400.0,State Route 1,L,Argillite,Greenup,KY,41121-8479,US,US/Eastern,KHTS,2021-03-02 18:51:00,43.0,43.0,30.0,29.26,10.0,N,3.0,0.0,Fair,False,False,False,False,False,False,False,False,False,False,False,False,False,Day,Day,Day,Day
C-5180142,2,2020-08-19 20:30:07,2020-08-22 13:16:52,43.10801,-77.61594000000002,43.10846,-77.61748,0.0836728862539,At RT-15A/Henrietta Rd/Exit 16 - Bridge maintenance work. Right lane blocked.,,E Henrietta Rd,R,Rochester,Monroe,NY,14623,US,US/Eastern,KROC,2020-08-19 20:54:00,62.0,62.0,60.0,29.45,10.0,WSW,3.0,0.0,Fair,False,False,False,False,False,False,False,False,False,False,False,False,False,Night,Day,Day,Day
C-5180143,3,2020-01-23 07:02:34,2020-01-27 07:02:32,39.2453,-84.47093000000002,39.21557,-84.47384,2.06004312072,At Galbraith Rd - Construction work.,9930.0,Springfield Pike,R,Cincinnati,Hamilton,OH,45215-1441,US,US/Eastern,KLUK,2020-01-23 06:53:00,27.0,27.0,85.0,29.71,10.0,CALM,0.0,0.0,Fair,False,False,True,False,False,False,False,False,True,False,False,True,False,Night,Night,Day,Day
C-5180144,3,2020-10-15 10:00:00,2020-10-15 15:00:00,33.069801,-96.879623,,,0.460000008345,Entry ramp to South Sam Rayburn Tollway Eastbound from Josey Ln closed due to construction work.,,Sam Rayburn Tollway N,R,The Colony,Denton,TX,75056,US,US/Central,KADS,2020-10-15 09:47:00,70.0,70.0,83.0,29.21,10.0,NNE,16.0,0.0,Cloudy,False,False,False,False,False,False,False,False,False,False,False,False,False,Day,Day,Day,Day
C-5180145,3,2019-08-07 20:00:00,2019-08-08 06:00:00,37.520958,-77.427063,,,0.0,Intermittent lane closures due to construction work on I-95 both ways at Exit 73 4th St.,,I-95 N,R,Richmond,Richmond City,VA,23224,US,US/Eastern,KFCI,2019-08-07 19:56:00,75.0,75.0,82.0,29.55,10.0,SSE,8.0,0.0,Fair,False,False,False,False,False,False,False,False,False,False,False,False,False,Day,Day,Day,Day
C-5180146,3,2019-09-11 23:35:31,2019-09-16 20:01:07,33.652404,-84.396001,33.652404,-84.396001,0.0,At US-19/US-41/GA-3/Crown Rd - Construction work.,,GA-401 N,R,Atlanta,Fulton,GA,30354,US,US/Eastern,KATL,2019-09-11 23:52:00,84.0,84.0,51.0,29.08,10.0,NW,3.0,0.0,Fair,False,False,False,False,False,False,False,False,False,False,False,False,False,Night,Night,Night,Night
C-5180147,2,2021-02-14 14:36:00,2021-02-14 17:36:24,31.16823,-99.376201,31.169992,-99.378137,0.167096420832,Roadwork on Walnut St (US-283/US-87) from US-283 (US-87) to US-283 N - US-87 N.,,N US Highway 87,R,Brady,McCulloch,TX,76825,US,US/Central,KBBD,2021-02-14 14:35:00,12.0,-9.0,92.0,28.2,1.0,N,28.0,0.0,Light Snow / Windy,False,False,False,False,False,False,False,False,False,False,False,False,False,Day,Day,Day,Day
C-5180148,2,2020-12-04 03:05:00,2020-12-04 03:43:30,40.859327,-73.93129499999998,40.858769,-73.93014000000002,0.0716194347363,Stationary traffic from Broadway / Nagle Ave to Bogardus Pl due to roadwork.,399.0,Bennett Ave,R,New York,New York,NY,10040-2423,US,US/Eastern,KLGA,2020-12-04 02:51:00,49.0,45.0,46.0,30.08,10.0,SSW,9.0,0.0,Cloudy,False,False,True,False,False,False,False,False,False,True,False,True,False,Night,Night,Night,Night
C-5180149,2,2019-09-11 23:35:31,2019-09-15 23:35:04,33.8438,-84.37141,33.846838,-84.368092,0.283397406388,Between Bolling Way and GA-141-CONN/Buckhead Loop/Lenox Rd - Construction work. Right lane blocked.,3256.0,Peachtree Rd NE,L,Atlanta,Fulton,GA,30305-2421,US,US/Eastern,KPDK,2019-09-11 23:53:00,74.0,74.0,82.0,29.1,10.0,CALM,0.0,0.0,Fair,False,False,True,False,False,False,False,False,False,False,False,True,False,Night,Night,Night,Night
C-5180150,2,2020-09-02 13:01:30,2020-09-03 00:42:53,42.643412,-82.993611,42.641194,-82.992874,0.157760635088,Stationary traffic from Pheasant Dr to W Wayford Dr due to resurfacing work.,47283.0,Schoenherr Rd,L,Shelby Township,Macomb,MI,48315-4766,US,US/Eastern,KMTC,2020-09-02 12:56:00,77.0,77.0,79.0,29.1,10.0,WSW,10.0,0.0,Mostly Cloudy,False,False,False,False,False,False,False,False,False,False,False,False,False,Day,Day,Day,Day
C-5180151,2,2021-10-21 09:18:00,2021-10-21 09:38:30,37.905534,-99.47795,37.91208,-99.441652,2.0297806361900004,Slow traffic on US-56 W - US-56 E - US-50 W - US-50 E from CR-3 (US-50/US-56) to US-50 (US-56) due to roadwork.,,US-50 E,R,Offerle,Edwards,KS,67563,US,US/Central,KDDC,2021-10-21 08:52:00,44.0,42.0,76.0,27.52,10.0,SW,5.0,0.0,Fair,False,False,False,False,False,False,False,False,False,False,False,False,False,Day,Day,Day,Day
C-5180152,2,2019-11-20 19:14:44,2019-11-20 23:14:44,42.22836,-121.7661,42.22836,-121.7661,0.0,At Main St - Maintenance work.,,Crater Lake Pkwy,R,Klamath Falls,Klamath,OR,97601,US,US/Pacific,KLMT,2019-11-20 18:53:00,35.0,26.0,64.0,25.71,10.0,NNE,13.0,0.0,Fair,False,False,True,False,False,False,False,False,False,False,False,True,False,Night,Night,Night,Night
C-5180153,2,2021-08-23 13:12:00,2021-08-23 13:42:00,29.996446,-92.286132,29.992792,-92.287561,0.266555686108,Stationary traffic on LA-35 from Veterans Memorial Dr / E Veterans Meml Dr to LA Highway 35 / E LA Highway 708 due to roadwork.,222.0,S Cushing Ave,L,Kaplan,Vermilion,LA,70548-5303,US,US/Central,KIYA,2021-08-23 13:15:00,93.0,93.0,42.0,30.01,10.0,WSW,3.0,0.0,Fair,False,False,False,False,False,False,False,False,False,False,False,False,False,Day,Day,Day,Day
C-5180154,2,2021-12-19 10:42:00,2021-12-19 15:57:30,40.577563,-75.80312099999998,40.57700300000001,-75.889411,4.528532688169999,Slow traffic on US-22 W - I-78 W from PA-737/Exit 40 (I-78) to PA-143/Exit 35 (I-78) due to roadwork.,,I-78 W,R,Lenhartsville,Berks,PA,19534,US,US/Eastern,KRDG,2021-12-19 10:54:00,38.0,30.0,60.0,29.78,10.0,NNW,13.0,0.0,Cloudy,False,False,False,False,True,False,False,False,False,True,False,False,False,Day,Day,Day,Day
C-5180155,2,2021-06-23 13:10:01,2021-06-29 23:59:00,40.177008,-74.70311,40.176157,-74.70235600000002,0.0710048247226999,Utility work on US 206 southbound South of I-195 (Bordentown Twp) Tuesday June 29th 2021 09:00 AM thru 03:00 PM 1 Right lane and shoulder of 2 lanes closed,594.0,US Highway 206,L,Trenton,Burlington,NJ,08610-4332,US,US/Eastern,KTTN,2021-06-23 12:53:00,71.0,71.0,39.0,29.98,10.0,NNW,8.0,0.0,Fair,False,False,False,False,False,False,False,False,False,False,False,True,False,Day,Day,Day,Day
C-5180156,2,2021-12-21 00:44:00,2021-12-21 01:18:00,39.069589,-95.008493,39.07183,-94.999562,0.503477050774,Slow traffic on I-70 E - Kansas Tpke E from US-40/US-59/Exit 204 (I-70) to KS-7/Exit 224 (I-70) due to roadwork.,,I-70 E,R,Tonganoxie,Leavenworth,KS,66086,US,US/Central,KLWC,2021-12-21 00:52:00,24.0,24.0,75.0,29.27,10.0,NW,3.0,0.0,Fair,False,False,False,False,False,False,False,False,False,False,False,False,False,Night,Night,Night,Night
C-5180157,2,2021-03-26 12:21:00,2021-03-26 18:45:00,37.586976,-77.338001,37.602387,-77.356175,1.4573009916,Construction on I-295 NB near MM 18 Drive with caution.,,I-295 N,R,Mechanicsville,Hanover,VA,23111,US,US/Eastern,KRIC,2021-03-26 11:54:00,79.0,79.0,60.0,29.7,10.0,SW,24.0,0.0,Mostly Cloudy / Windy,False,False,False,False,False,False,False,False,False,False,False,False,False,Day,Day,Day,Day
C-5180158,2,2017-08-03 01:13:10,2017-09-07 00:37:05,40.81556,-79.56183,40.795664,-79.471756,4.9072559245,Between Glade Rd and Lasher Rd - Roadwork. Hard shoulder closed. Traffic problem.,,US-422 W,R,Kittanning,Armstrong,PA,16201,US,US/Eastern,KBTP,2017-08-03 01:15:00,62.6,,94.0,30.11,5.0,Calm,,,Clear,False,False,False,False,True,False,False,False,False,False,False,False,False,Night,Night,Night,Night
C-5180159,2,2021-11-21 17:52:00,2021-11-21 20:00:24,33.478027000000004,-112.169025,33.480468,-112.170965,0.202348350864,Slow traffic from W Cambridge Ave to N 52nd Ave due to roadwork.,2630.0,N 51st Ave,L,Phoenix,Maricopa,AZ,85035-2020,US,US/Mountain,KGEU,2021-11-21 17:58:00,71.0,71.0,17.0,28.92,10.0,NE,7.0,0.0,Fair,False,False,False,False,False,False,False,False,False,False,False,False,False,Night,Night,Day,Day
C-5180160,2,2021-07-19 03:41:29,2021-07-26 02:05:31,37.760624,-92.593026,37.760832,-92.593047,0.0144171377657999,Roadwork on Highway JJ / Iowa Rd from Igloo Rd to MO-F.,30339.0,Highway F,R,Lebanon,Laclede,MO,65536,US,US/Central,KH21,2021-07-19 03:56:00,67.0,67.0,97.0,29.19,9.0,CALM,0.0,0.0,Fair,False,False,True,False,False,False,True,False,False,False,False,False,False,Night,Night,Night,Night
C-5180161,1,2020-03-23 07:00:00,2020-03-25 17:01:00,39.066319,-108.564468,,,0.0,Road closed due to utility work on Colorado Ave both ways between 4th St and 5th St.,161.0,S 5th St,R,Grand Junction,Mesa,CO,81501,US,US/Mountain,KGJT,2020-03-23 06:53:00,37.0,33.0,73.0,25.09,10.0,E,5.0,0.0,Cloudy,True,False,True,False,False,False,False,False,False,True,False,False,False,Night,Day,Day,Day
C-5180162,2,2020-09-24 12:37:30,2020-09-25 02:57:37,35.386379,-97.423612,35.39084000000001,-97.423561,0.308239131493,Stationary traffic from SE 104th St (Sooner Rd) to E I-240 Service Rd/OK-3/74th St (Sooner Rd) due to bridge maintenance work.,7804.0,S Sooner Rd,L,Oklahoma City,Oklahoma,OK,73135-6602,US,US/Central,KTIK,2020-09-24 12:56:00,75.0,75.0,61.0,28.6,10.0,SW,3.0,0.0,Fair,False,False,False,False,False,False,False,False,False,True,False,False,False,Day,Day,Day,Day
C-5180163,2,2021-07-20 16:33:00,2021-11-24 16:18:23,33.479137,-112.03019,33.480294,-112.030757,0.0863614163075,Stationary traffic from E Cambridge Ave to Piestewa Fwy N due to roadwork.,2811.0,N 24th St,R,Phoenix,Maricopa,AZ,85008-1003,US,US/Mountain,KPHX,2021-11-24 13:51:00,73.0,73.0,28.0,28.77,10.0,W,8.0,0.0,Mostly Cloudy,False,False,False,False,False,False,False,False,True,False,False,False,False,Day,Day,Day,Day
C-5180164,2,2018-11-30 10:31:00,2021-03-11 22:07:25,31.95699500000001,-92.653555,31.964916,-92.773199,7.0347898658500005,Road Maintenance Operations on LA-156 Both Directions from US-167 to 2021 Ft Before LA-501 . Lane(s) alternating.,5356.0,Highway 167 N,L,Winnfield,Winn,LA,71483-5249,US,US/Central,KIER,2018-11-30 10:35:00,72.0,,88.0,29.89,10.0,South,6.9,,Overcast,False,False,False,False,False,False,False,False,False,False,False,False,False,Day,Day,Day,Day
C-5180165,2,2020-07-21 04:35:00,2020-07-22 05:20:15,25.97095400000001,-80.297288,25.970865,-80.30108100000002,0.235686694488,Construction on FLORIDA'S TPKE SB near MM 43 Construction. Left lane closed.,,Florida's Tpke S,R,Hollywood,Broward,FL,33025,US,US/Eastern,KHWO,2020-07-21 04:53:00,75.0,75.0,100.0,29.99,10.0,CALM,0.0,0.0,Fair,False,False,False,False,False,False,False,False,False,False,False,False,False,Night,Night,Night,Night
C-5180166,2,2020-11-02 12:05:00,2020-11-03 05:22:30,33.952469,-96.416557,33.957604,-96.416554,0.354794751045,Slow traffic on US-69 from US-75 Bus/US-69 Bus (US-75/US-69) to US-70 Byp (US-75/US-69) due to roadwork.,4254.0,S Highway 69,L,Durant,Bryan,OK,74701-1955,US,US/Central,KDUA,2020-11-02 12:15:00,64.0,64.0,34.0,29.74,10.0,S,3.0,0.0,Fair,False,False,False,False,False,False,False,False,False,False,False,False,False,Day,Day,Day,Day
C-5180167,4,2018-05-22 04:31:39,2018-05-22 10:31:39,42.852755,-78.863858,42.883436,-78.87910699999998,2.25612391572,Closed between Fuhrmann Blvd/Tifft St and RT-5/Buffalo Skyway - Closed. Construction work.,,Buffalo Skwy N,R,Buffalo,Erie,NY,14203,US,US/Eastern,KBUF,2018-05-22 04:29:00,57.9,,90.0,30.03,2.0,South,9.2,0.1,Heavy Rain,False,False,True,False,False,False,False,False,False,False,False,True,False,Night,Night,Day,Day
C-5180168,3,2019-03-03 09:00:00,2019-03-03 15:30:00,34.909991999999995,-85.12526700000002,,,10.4600000381,Two lanes closed due to construction work on I-75 both ways between Exit 345 US-41 and Exit 348 GA-151.,,GA-401 N,R,Ringgold,Catoosa,GA,30736,US,US/Eastern,KCHA,2019-03-03 08:53:00,46.0,42.5,86.0,29.94,4.0,ENE,6.9,0.01,Light Rain,False,False,False,False,False,False,False,False,False,False,False,False,False,Day,Day,Day,Day
C-5180169,2,2016-07-20 10:00:00,2016-07-20 14:00:00,40.908226,-74.17347,,,0.0,Lane closed on exit ramp due to bridge maintenance work on NJ-19 Oliver St Northbound at I-80 Exits 57A 57B 57B-A 57C.,,NJ-19 N,R,Paterson,Passaic,NJ,07501,US,US/Eastern,KCDW,2016-07-20 09:53:00,77.0,,43.0,30.26,10.0,East,5.8,,Clear,False,False,False,False,False,False,False,False,False,False,False,False,False,Day,Day,Day,Day
C-5180170,2,2019-09-27 21:03:44,2019-10-01 21:03:19,34.00496,-84.2974,34.00496,-84.2974,0.0,At Eves Rd - Construction work.,,Eves Rd,R,Roswell,Fulton,GA,30076,US,US/Eastern,KPDK,2019-09-27 20:53:00,82.0,82.0,56.0,28.92,10.0,E,3.0,0.0,Fair,False,False,True,False,False,False,False,False,True,False,False,True,False,Night,Night,Night,Night
C-5180171,2,2021-02-17 05:30:00,2021-02-17 15:45:41,30.433731,-91.111746,30.430821,-91.109267,0.2494727347509999,Slow traffic on LA-73 from Government St (Jefferson Hwy/LA-73) to Corporate Blvd (Jefferson Hwy/LA-73) due to roadwork.,7420.0,Jefferson Hwy,R,Baton Rouge,East Baton Rouge,LA,70806-8204,US,US/Central,KBTR,2021-02-17 05:53:00,26.0,16.0,84.0,30.04,10.0,E,12.0,0.0,Cloudy,False,False,False,False,False,False,False,False,False,False,False,True,False,Night,Night,Night,Day
C-5180172,4,2020-10-15 04:27:01,2020-10-22 06:59:00,28.371718,-81.559516,28.371591,-81.55979,0.0188274810440999,Closed road from Walt Disney World Beach Club Resort to Southwest Orange due to roadwork.,1656.0,Epcot Resorts Blvd,R,Orlando,Orange,FL,32830,US,US/Eastern,KISM,2020-10-15 04:56:00,74.0,74.0,93.0,29.87,10.0,CALM,0.0,0.0,Fair,False,False,False,False,False,False,False,False,False,False,False,False,False,Night,Night,Night,Night
C-5180173,2,2020-10-30 17:29:00,2020-10-30 18:10:30,32.93942,-80.18356800000002,32.934237,-80.17706,0.520253882302,Stationary traffic on SC-61 from SC-165/Bacons Bridge Rd/Delemar Hwy (Ashley River Rd/SC-61) to 4WD Road (Ashley River Rd/SC-61) due to roadwork.,4796.0,Ashley River Rd,R,Summerville,Dorchester,SC,29485-9302,US,US/Eastern,KDYB,2020-10-30 17:35:00,72.0,72.0,50.0,29.96,10.0,N,6.0,0.0,Fair,False,False,False,False,False,False,False,False,False,False,False,False,False,Day,Day,Day,Day
C-5180174,2,2020-10-16 16:20:00,2020-10-16 21:19:29,26.527569,-80.091387,26.528231,-80.090396,0.0764542332723,Slow traffic on FL-804 - FL-807 from 31st Ter S to Old Boynton Rd due to resurfacing work.,1506.0,W Boynton Beach Blvd,L,Boynton Beach,Palm Beach,FL,33436,US,US/Eastern,KBCT,2020-10-16 16:42:00,80.0,80.0,87.0,29.94,6.0,WNW,6.0,0.01,T-Storm,False,False,False,False,False,False,False,False,False,False,False,False,False,Day,Day,Day,Day
C-5180175,2,2020-11-26 03:55:03,2021-07-17 23:00:00,33.680901,-86.973541,,,2.51999998093,Left lane closed due to construction work on AL-5 Eastbound from Littleton Sayre Rd to Old Jasper Hwy.,6058.0,Highway 78,L,Graysville,Jefferson,AL,35073,US,US/Central,KBHM,2020-11-26 03:53:00,58.0,58.0,84.0,29.4,10.0,NW,7.0,0.0,Cloudy,False,False,False,False,False,False,False,False,False,False,False,False,False,Night,Night,Night,Night
C-5180176,2,2021-03-05 19:00:00,2021-03-06 05:45:00,39.953359000000006,-83.003951,39.953059,-83.001111,0.151841717789,Construction on I-70 EB near I-71 Allow extra time.,,I-70 E,R,Columbus,Franklin,OH,43215,US,US/Eastern,KCMH,2021-03-05 18:51:00,36.0,29.0,52.0,29.33,10.0,WNW,9.0,0.0,Partly Cloudy,False,False,False,False,True,False,False,False,False,False,False,False,False,Night,Night,Day,Day
C-5180177,2,2021-04-12 06:04:00,2021-04-12 19:18:11,44.975341,-93.253209,44.973893,-93.249794,0.194605428469,Stationary traffic from MN-65/3rd Ave (S Washington Ave/MN-152) to I-35W (Washington Ave S/MN-152) due to roadwork.,,11th Ave S,R,Minneapolis,Hennepin,MN,55415,US,US/Central,KMSP,2021-04-12 05:53:00,45.0,39.0,76.0,28.76,10.0,W,12.0,0.0,Mostly Cloudy,True,False,True,False,True,False,False,False,True,False,False,True,False,Night,Day,Day,Day
C-5180178,2,2021-02-13 18:43:00,2021-02-14 01:01:55,31.088725,-100.511941,30.863681,-100.59712,16.3473183742,Roadwork on Duff Rd (US-277) from US-190/Murchison Ave (Divide St/US-277) to US-277 S - US-277 N.,,US-277 N,R,Christoval,Tom Green,TX,76935,US,US/Central,KSJT,2021-02-13 18:41:00,22.0,12.0,89.0,28.1,3.0,NNE,9.0,0.0,Cloudy,False,False,False,False,False,False,False,False,False,False,False,False,False,Night,Day,Day,Day
C-5180179,2,2020-05-13 10:00:00,2020-05-15 16:30:00,32.86418,-96.67071,32.864020000000004,-96.67082,0.0127658292264,At 244-SPUR/E Northwest Hwy - Construction work.,,E Northwest Hwy,R,Dallas,Dallas,TX,75218,US,US/Central,KDAL,2020-05-13 09:53:00,71.0,71.0,78.0,29.44,10.0,S,12.0,0.0,Cloudy,False,False,False,False,False,False,False,False,False,False,False,True,False,Day,Day,Day,Day
C-5180181,2,2021-10-25 09:00:00,2021-10-29 23:59:59,41.528217,-73.91825,41.523197,-73.908249,0.622840070095,Bridge work on I-84 eastbound between Exit 44 - State Hwy 52 - Fishkill (Fishkill) and Exit 58 - Ludingtonville Road (CR 43) (Kent) DOT BM Monday October 25th 2021 thru Friday October 29th 2021 Monday thru Friday 09:00 AM thru 03:00 PM various lane closures,,I-84 E,R,Fishkill,Dutchess,NY,12524,US,US/Eastern,KPOU,2021-10-25 08:53:00,54.0,54.0,97.0,29.79,4.0,N,3.0,0.0,Cloudy,False,False,False,False,False,False,False,False,False,False,False,False,False,Day,Day,Day,Day
C-5180182,3,2020-04-23 21:02:31,2020-04-27 21:02:00,25.81711,-80.20644,25.78226,-80.20063,2.43487843369,Between SR-112 Hov Ramp and 2nd St/Exit 1/Exit 2 - Construction work.,,I-95 S,R,Miami,Miami-Dade,FL,33127,US,US/Eastern,KMIA,2020-04-23 20:53:00,82.0,82.0,74.0,29.92,10.0,SE,15.0,0.0,Mostly Cloudy,False,False,False,False,True,False,False,False,False,False,False,False,False,Night,Night,Night,Day
C-5180183,2,2021-06-16 18:42:00,2021-06-16 19:05:39,44.306389,-88.53662800000002,44.309554,-88.53671899999998,0.218726954123,Stationary traffic on WI-76 from Maple Terrace Rd to Everglade Rd due to roadwork.,,N1898 Maple Terrace Rd,L,Greenville,Outagamie,WI,54942-8732,US,US/Central,KATW,2021-06-16 17:45:00,75.0,75.0,27.0,29.06,10.0,CALM,0.0,0.0,Fair,False,False,True,False,False,False,False,False,False,False,False,False,False,Day,Day,Day,Day
C-5180184,2,2021-12-17 09:43:00,2021-12-17 12:16:41,25.747808,-80.33247800000002,25.746905,-80.335719,0.211128743553,Slow traffic on County Hwy-913 - FL-973 - FL-972 from SW 84th Ave to SW 25th St due to roadwork.,8479.0,Coral Way,L,Miami,Miami-Dade,FL,33155-2346,US,US/Eastern,KMIA,2021-12-17 09:44:00,81.0,81.0,69.0,30.18,10.0,E,16.0,0.0,Mostly Cloudy,False,False,True,False,False,False,False,False,True,False,False,False,False,Day,Day,Day,Day
C-5180185,4,2018-10-13 07:00:00,2018-10-13 09:00:00,42.67015900000001,-83.13328,42.66629,-83.13318000000002,0.267370711287,Closed at Avon Rd - Closed due to roadwork.,743.0,S Rochester Rd,L,Rochester Hills,Oakland,MI,48307-2739,US,US/Eastern,KVLL,2018-10-13 06:55:00,43.0,41.3,82.0,29.94,10.0,NW,3.5,,Overcast,False,False,True,False,False,False,False,False,False,False,False,True,False,Night,Night,Day,Day
C-5180186,3,2019-08-01 09:00:00,2019-08-01 14:00:00,43.047749,-87.92598000000002,,,0.479999989271,Exit ramp from I-43 Northbound at Exits 72B 72D 72E 73A 310C Marquette Intr to WI-145 Southbound lane closed due to construction.,,I-43 N,R,Milwaukee,Milwaukee,WI,53205,US,US/Central,KMWC,2019-08-01 08:45:00,64.0,64.0,64.0,29.43,10.0,CALM,0.0,0.0,Fair,False,False,False,False,False,False,False,False,False,False,False,False,False,Day,Day,Day,Day
C-5180187,2,2021-10-30 10:15:00,2021-10-30 10:29:30,34.712986,-97.249162,34.72476,-97.253639,0.8523135647669999,Slow traffic on I-35 N from Airport Rd/Exit 70 (I-35) to OK-19/Exit 72 (I-35) due to roadwork.,,I-35 N,R,Pauls Valley,Garvin,OK,73075,US,US/Central,KPVJ,2021-10-30 10:15:00,52.0,52.0,53.0,28.95,10.0,CALM,0.0,0.0,Fair,False,False,False,False,False,False,False,False,False,False,False,False,False,Day,Day,Day,Day
C-5180188,2,2021-09-01 13:42:00,2021-09-01 15:45:54,35.33189,-106.573703,35.330213,-106.57128,0.1791084692729999,Stationary traffic on NM-44 - US-550 S from Paseo Del Volcan (NM-44/US-550) to NM-528 (NM-44/US-550) due to roadwork.,1127.0,W Highway 550,R,Rio Rancho,Sandoval,NM,87144,US,US/Mountain,KAEG,2021-09-01 13:47:00,75.0,75.0,50.0,24.19,10.0,SE,16.0,0.0,Mostly Cloudy,False,False,False,False,False,False,False,False,False,False,False,True,False,Day,Day,Day,Day
C-5180189,2,2021-04-19 07:11:30,2021-10-05 13:56:48,40.75356,-73.904927,40.753275,-73.907611,0.141854139446,Stationary traffic on NY-25A from I-278/Brooklyn Queens Expy (Northern Blvd/NY-25A) to Newtown Rd (Northern Blvd/NY-25A) due to roadwork.,3298.0,56th St,R,Woodside,Queens,NY,11377-1917,US,US/Eastern,KLGA,2021-08-19 15:51:00,87.0,87.0,51.0,29.85,10.0,W,14.0,0.0,Mostly Cloudy,False,False,True,False,False,False,False,False,True,True,False,False,False,Day,Day,Day,Day
C-5180190,2,2021-03-21 18:30:00,2021-11-02 12:26:46,26.167439,-80.105503,26.166891,-80.100565,0.308547839614,Slow traffic on FL-816 - FL-A1A from Bayview Dr to NE 30th St due to roadwork.,2910.0,E Oakland Park Blvd,L,Fort Lauderdale,Broward,FL,33306-1816,US,US/Eastern,KFXE,2021-11-02 09:53:00,71.0,71.0,96.0,30.12,10.0,WNW,5.0,0.02,Light Rain,False,False,False,False,False,False,False,False,False,False,False,False,False,Day,Day,Day,Day
C-5180191,2,2019-04-01 05:36:00,2020-08-11 03:38:17,46.939182,-120.008519,46.94037,-119.994841,0.650455307113,I-90 both directions milepost 34 to 136 North Bend to Vantage: Construction and maintenance projects will cause delays between North Bend and Vantage due to lane closures and rolling slowdowns. Please plan for added travel time. Crews will close the eastbound on and off ramps at Stampede Pass interchange Exit 62 Wednesday Aug. 12 and Thursday Aug. 13 to repair the ramps. To access Stampede Pass Road drivers can travel east to Exit 63 then turn around and travel west on I-90.,,I-90 E,R,Ellensburg,Kittitas,WA,98926,US,US/Pacific,KELN,2019-04-01 05:53:00,37.0,37.0,82.0,28.13,10.0,CALM,0.0,0.0,Mostly Cloudy,False,False,False,False,False,False,False,False,False,False,False,False,False,Night,Night,Day,Day
C-5180192,2,2021-11-03 09:11:00,2021-11-03 11:11:39,39.740095,-104.849773,39.740887,-104.84694,0.160154003927,Stationary traffic on US-40 E - I-70 Bus E - US-287 S from Nome St to E 16th Ave due to roadwork.,11858.0,E Colfax Ave,R,Aurora,Arapahoe,CO,80010-5109,US,US/Mountain,KBKF,2021-11-03 08:58:00,41.0,36.0,87.0,24.6,10.0,S,7.0,0.0,Partly Cloudy,False,False,False,False,False,False,False,False,False,False,False,False,False,Day,Day,Day,Day
C-5180193,2,2021-06-07 13:46:00,2021-06-07 15:59:16,33.39224,-112.066833,33.392775,-112.064664,0.130470127035,Stationary traffic from S 5th St to E Hidalgo Ave due to roadwork.,500.0,E Southern Ave,L,Phoenix,Maricopa,AZ,85040-3048,US,US/Mountain,KPHX,2021-06-07 13:51:00,97.0,97.0,8.0,28.58,10.0,VAR,3.0,0.0,Mostly Cloudy,False,False,False,False,False,False,False,False,True,True,False,False,False,Day,Day,Day,Day
C-5180194,2,2020-11-11 13:19:30,2020-11-11 22:57:05,43.630545,-116.354545,43.623026,-116.354636,0.519533356648,Stationary traffic on ID-55 from E Ustick Rd (ID-55) to E Fairview Ave (ID-55) due to roadwork.,2837.0,N Eagle Rd,L,Meridian,Ada,ID,83646-5907,US,US/Mountain,KMAN,2020-11-11 13:15:00,43.0,38.0,53.0,27.42,10.0,NNW,8.0,0.0,Partly Cloudy,False,False,False,False,False,False,False,False,False,False,False,False,False,Day,Day,Day,Day
C-5180195,2,2021-07-22 18:47:24,2021-07-22 19:09:26,31.530301,-82.91068100000003,31.524371,-82.899771,0.7620573557420001,Stationary traffic on GA-32 from Troy Carter Rd/Mitchel Rd (GA-32) to GA-206/GA-353/Bowens Mill Rd (GA-32) due to roadwork.,2.0,Clyde Rollins Rd,R,Douglas,Coffee,GA,31533-9036,US,US/Eastern,KDQH,2021-07-22 18:55:00,82.0,82.0,88.0,29.82,10.0,CALM,0.0,0.0,Light Rain,False,False,False,False,False,False,False,False,False,False,False,False,False,Day,Day,Day,Day
C-5180196,2,2021-07-19 03:45:39,2021-07-20 02:01:33,36.68954,-96.725965,36.688122,-96.707989,1.00077603566,Roadwork on 7th St (US-60) from OK-18/OK-11 (US-60) to US-60 W - US-60 E.,5298.0,Remington Rd,R,Burbank,Osage,OK,74633,US,US/Central,KPNC,2021-07-19 03:53:00,71.0,71.0,90.0,29.02,10.0,NNE,5.0,0.0,Fair,False,False,False,False,False,False,False,False,False,False,False,False,False,Night,Night,Night,Night
C-5180197,2,2021-12-24 12:26:00,2021-12-24 14:43:32,28.873936,-81.687859,28.875287,-81.688647,0.104816082162,Stationary traffic on FL-19 from FL-19 (Eustis) (East) (FL-44) to CR-44/Jennifer Ln (FL-44) due to roadwork.,1949.0,N Highway 19,R,Eustis,Lake,FL,32726-6728,US,US/Eastern,KLEE,2021-12-24 12:53:00,74.0,74.0,52.0,30.1,10.0,ESE,7.0,0.0,Fair,False,False,False,False,False,False,False,False,False,False,False,False,False,Day,Day,Day,Day
C-5180198,2,2020-09-24 17:54:30,2020-09-24 18:19:00,40.76036,-73.973747,40.75973,-73.97223699999998,0.0902208939528,Queuing traffic from W 56 St exit [7] to Park Ave due to resurfacing work.,49.0,E 54th St,L,New York,New York,NY,10022-4206,US,US/Eastern,KNYC,2020-09-24 17:51:00,72.0,72.0,49.0,29.89,10.0,VAR,3.0,0.0,Fair,False,False,True,False,False,False,True,False,False,False,False,True,False,Day,Day,Day,Day
C-5180199,2,2021-10-05 17:38:05,2021-10-05 18:13:11,26.01392,-80.31219899999998,26.007855,-80.312023,0.419194073943,Stationary traffic on FL-823 from Taft St/17th St (FL-823) to FL-820/Hollywood Blvd (North) (FL-823) due to roadwork.,902.0,N Flamingo Rd,L,Pembroke Pines,Broward,FL,33028-1002,US,US/Eastern,KHWO,2021-10-05 17:53:00,85.0,85.0,61.0,29.95,10.0,ESE,9.0,0.0,Fair,False,False,False,False,False,False,False,False,False,False,False,True,False,Day,Day,Day,Day
C-5180200,2,2020-08-31 07:00:00,2020-09-01 17:42:56,42.991636,-84.51860500000002,43.008656,-84.518665,1.17597390915,Construction on US-127 NB near MI-21 Construction. Left lane closed.,,US-127 N,R,Saint Johns,Clinton,MI,48879,US,US/Eastern,KLAN,2020-08-31 06:53:00,58.0,58.0,90.0,29.01,10.0,ESE,6.0,0.0,Fair,False,False,False,False,True,False,False,False,False,False,False,False,False,Night,Day,Day,Day
C-5180201,2,2021-11-10 11:28:30,2021-11-10 11:52:30,27.334372,-82.544635,27.3367,-82.54672,0.205547181365,Slow traffic on FL-45 - FL-789 - US-41 N from US-301/S Washington Blvd (US-41) to 3rd St/Fruitville Rd (US-41) due to roadwork.,1201.0,Main St,L,Sarasota,Sarasota,FL,34236,US,US/Eastern,KSRQ,2021-11-10 11:53:00,80.0,80.0,54.0,30.07,10.0,ESE,7.0,0.0,Fair,False,False,True,False,False,False,False,False,False,False,False,True,False,Day,Day,Day,Day
C-5180202,4,2018-04-17 07:00:00,2018-04-21 17:00:00,42.160571,-70.742421,42.096089,-70.717901,4.6290666176,Closed between Littles Ln and Old Plain St - Closed. Construction work.,,Chief Justice Cushing Hwy,R,Marshfield,Plymouth,MA,02050,US,US/Eastern,KGHG,2018-04-17 06:55:00,42.8,35.8,87.0,29.5,10.0,WSW,13.8,,Mostly Cloudy,False,False,False,False,False,False,False,False,False,False,False,False,False,Day,Day,Day,Day
C-5180203,2,2021-10-08 15:05:32,2021-10-08 15:36:04,27.849694,-82.691292,27.839731,-82.684213,0.812960015627,Stationary traffic on US-19 S from CR-611/49th St (US-19) to FL-694/Gandy Blvd/Park Blvd (US-19) due to roadwork.,8486.0,US Highway 19 N,L,Pinellas Park,Pinellas,FL,33781-1711,US,US/Eastern,KPIE,2021-10-08 15:00:00,80.0,80.0,81.0,29.97,5.0,S,8.0,0.02,T-Storm,False,False,True,False,False,False,False,False,False,False,False,True,False,Day,Day,Day,Day
C-5180204,4,2021-06-25 14:39:34,2021-07-02 23:59:00,40.745133,-74.16596,40.745049,-74.166589,0.0334336308182,County Hwy-508 is closed from Essex--Hudson County Border (Bridge St) to NJ-21/McCarter Hwy (Bridge St) due to roadwork.,,Bridge St,R,Newark,Essex,NJ,07102,US,US/Eastern,KEWR,2021-06-25 14:51:00,80.0,80.0,45.0,30.24,10.0,SE,12.0,0.0,Mostly Cloudy,False,False,False,False,False,False,False,False,False,False,False,False,False,Day,Day,Day,Day
C-5180205,2,2021-05-10 03:42:00,2021-11-15 14:51:25,33.493957,-112.112603,33.495103,-112.113424,0.0922359661907999,Slow traffic from W Indianola Ave to N 27th Ave due to roadwork.,4049.0,N Black Canyon Hwy,R,Phoenix,Maricopa,AZ,85015-5352,US,US/Mountain,KPHX,2021-08-31 06:51:00,85.0,85.0,49.0,28.53,10.0,S,5.0,0.0,Mostly Cloudy,False,False,True,False,False,False,False,False,False,False,False,True,False,Night,Night,Night,Night
C-5180206,2,2018-10-14 19:30:00,2018-10-15 06:00:00,36.570408,-121.761787,,,21.9500007629,Intermittent lane closures due to construction work on CA-68 Monterey Salinas Hwy both ways between CA-1 and B Rd.,1021.0,Monterey Salinas Hwy,L,Salinas,Monterey,CA,93908-8937,US,US/Pacific,KSNS,2018-10-14 19:53:00,59.0,,81.0,30.01,9.0,NNW,6.9,,Clear,False,False,False,False,False,False,False,False,True,False,False,False,False,Night,Night,Night,Day
C-5180207,2,2020-11-03 23:44:39,2020-11-04 00:12:44,35.925266,-84.13340600000002,35.930596,-84.139637,0.507104540766,Slow traffic on TN-162 from I-140/I-40 (TN-162) to TN-131/Lovell Rd (Pellissippi Pkwy/TN-162) due to roadwork.,,Pellissippi Pkwy N,R,Knoxville,Knox,TN,37932,US,US/Eastern,KOQT,2020-11-03 23:53:00,40.0,40.0,86.0,29.37,10.0,CALM,0.0,0.0,Fair,False,False,False,False,False,False,False,False,False,False,False,False,False,Night,Night,Night,Night
C-5180208,2,2020-10-20 18:03:30,2020-10-21 03:05:38,42.155097,-87.954752,42.153966,-87.954165,0.0837294126795,Stationary traffic on County Hwy-W17 - County Hwy-73 from Armstrong Dr to Lexington Dr due to roadwork.,170.0,N Weiland Rd,L,Buffalo Grove,Lake,IL,60089-7047,US,US/Central,KPWK,2020-10-20 17:52:00,51.0,51.0,71.0,29.34,10.0,E,5.0,0.0,Cloudy,False,False,False,False,False,False,False,False,False,False,False,False,False,Night,Day,Day,Day
C-5180209,2,2021-01-20 17:54:00,2021-01-21 18:39:00,42.92398,-71.466633,42.9428,-71.470213,1.31288856261,Construction on EVERETT TPKE NB near MP 19 Left lane closed. Expect delays.,,Everett Tpke N,R,Bedford,Hillsborough,NH,03110,US,US/Eastern,KMHT,2021-01-20 17:53:00,30.0,24.0,56.0,29.64,10.0,WNW,6.0,0.0,Partly Cloudy,False,False,False,False,False,False,False,False,False,False,False,False,False,Night,Night,Night,Day
C-5180210,4,2020-03-28 00:43:37,2020-03-28 05:42:53,39.17425,-84.62985,39.1717,-84.62951,0.177126957159,Closed at Westwood Northern Blvd - Closed due to roadwork.,5597.0,Reemelin Rd,L,Cincinnati,Hamilton,OH,45211-1703,US,US/Eastern,KCVG,2020-03-28 00:52:00,61.0,61.0,87.0,28.8,8.0,ENE,12.0,0.01,Cloudy,False,False,False,False,False,False,False,False,False,False,False,False,False,Night,Night,Night,Night
C-5180211,2,2021-02-16 05:40:14,2021-02-23 09:43:13,39.971421,-95.561197,39.966768,-95.550897,0.633111893092,Roadwork on Jackrabbit Rd (US-159/US-73) from 310th St (US-159/US-73) to US-159 S - US-73 S - US-159 N - US-73 N.,3165.0,US Highway 73,L,Hiawatha,Brown,KS,66434-8125,US,US/Central,KFNB,2021-02-16 05:53:00,-20.0,-33.0,70.0,29.13,10.0,WNW,5.0,0.0,Fair,False,False,False,False,False,False,False,False,False,False,False,False,False,Night,Night,Night,Night
C-5180212,2,2018-12-19 09:00:00,2018-12-19 15:00:00,32.734097,-97.062569,,,0.0,South-to-north U-turn lane closed due to construction work on TX-360 Angus G Wynne Jr Fwy both ways at Sh 360.,,TX-360 S,R,Arlington,Tarrant,TX,76010,US,US/Central,KGPM,2018-12-19 08:51:00,51.8,,100.0,29.92,4.0,ESE,4.6,,Fog,False,False,False,False,False,False,False,False,False,False,False,False,False,Day,Day,Day,Day
C-5180213,2,2020-09-26 13:43:00,2020-09-26 18:05:00,39.168699,-96.611574,39.168917,-96.595659,0.852657111314,Slow traffic on KS-18 from Riley St (Fort Riley Blvd/KS-18) to S 17th St (Fort Riley Blvd/KS-18) due to roadwork.,,Fort Riley Blvd,R,Manhattan,Riley,KS,66502,US,US/Central,KMHK,2020-09-26 13:52:00,96.0,96.0,27.0,28.55,10.0,SSW,18.0,0.0,Fair,False,False,True,False,False,False,False,False,False,False,False,True,False,Day,Day,Day,Day
C-5180214,2,2021-11-18 07:34:00,2021-11-18 11:12:51,41.990655,-87.683134,41.989967,-87.689735,0.342306068525,Slow traffic on US-14 W from N Damen Ave to W Thorndale Ave due to roadwork.,2108.0,W Peterson Ave,L,Chicago,Cook,IL,60659-4307,US,US/Central,KORD,2021-11-18 07:51:00,32.0,21.0,64.0,29.39,10.0,W,16.0,0.0,Fair,False,False,False,False,False,False,False,False,True,False,False,False,False,Day,Day,Day,Day
C-5180215,2,2021-05-21 12:43:57,2021-06-08 20:17:52,35.059864000000005,-80.770444,35.062249,-80.758082,0.718299970441,Slow traffic on I-485 N from Rea Rd/Exit 59 (I-485) to John St/Exit 52 (I-485) due to roadwork.,,I-485 N,R,Charlotte,Mecklenburg,NC,28277,US,US/Eastern,KEQY,2021-05-21 12:53:00,79.0,79.0,44.0,29.73,10.0,NNE,10.0,0.0,Fair,False,False,False,False,False,False,False,False,False,False,False,False,False,Day,Day,Day,Day
C-5180216,2,2021-12-23 14:57:49,2021-12-23 17:00:24,28.353785,-81.493732,28.357374,-81.49695200000002,0.315950549791,Slow traffic on FL-535 from N Poinciana Blvd (CR-535) to FL-536/World Center Dr (CR-535) due to roadwork.,14763.0,State Road 535,L,Orlando,Orange,FL,32821-5611,US,US/Eastern,KMCO,2021-12-23 14:53:00,71.0,71.0,49.0,30.02,10.0,NNE,7.0,0.0,Fair,False,False,False,False,False,False,False,False,False,False,False,True,False,Day,Day,Day,Day
C-5180217,2,2020-07-06 18:42:09,2020-11-26 09:23:31,42.58618900000001,-74.749831,42.649372,-74.623684,7.758635426869999,Roadwork on I-88 both directions between Exit 19 - Hollenbeck Road to Route 7 Worcester (Worcester) and Exit 21 - Mickle Road; I-88 ramps (Exit 21) to NY 7/NY 10; Warnersville (Richmondville) 1 alternate lanes of 2 lanes blocked for drainage and shoulder work to occur from 7/6 through 12/30/20 during the hours of 7:0 AM to 5:30 PM. This work is not weather dependent with no flagger personnel present. IR# 40367 D264101,,I-88 E,R,Worcester,Otsego,NY,12197,US,US/Eastern,KSCH,2020-07-06 18:54:00,86.0,86.0,31.0,29.64,15.0,CALM,0.0,0.0,Fair,False,False,False,False,False,False,False,False,False,False,False,False,False,Day,Day,Day,Day
C-5180218,4,2018-06-10 14:58:05,2018-06-29 17:00:00,41.88301,-80.66278,41.879744,-80.668163,0.357214952316,At OH-84/OH-193/Exit 235 - Roadwork.,,I-90 W,R,Kingsville,Ashtabula,OH,44048,US,US/Eastern,KHZY,2018-06-10 15:01:00,64.0,,100.0,29.95,8.0,East,8.1,,Overcast,False,False,False,False,False,False,False,False,False,False,False,False,False,Day,Day,Day,Day
C-5180219,2,2020-12-09 07:55:00,2021-12-17 06:11:53,30.105069,-89.897529,30.091790000000003,-89.909373,1.15890321079,Road Maintenance Operations on I-10 Westbound from Little Irish Bayou (256) to Michoud Blvd (249) . Lanes Alternating. Starting 12/16/2021 8:00 PM and Ending 12/17/2021 5:00 AM,,I-10 W,R,New Orleans,Orleans,LA,70129,US,US/Central,KNEW,2020-12-09 07:53:00,56.0,56.0,77.0,30.21,10.0,WSW,7.0,0.0,Fair,False,False,False,False,False,False,False,False,False,False,False,False,False,Day,Day,Day,Day
C-5180220,2,2019-10-07 07:00:00,2019-10-07 19:00:00,43.621094,-84.76215400000002,,,21.3199996948,Lane closed due to construction work on US-127 Southbound from Exit 156 to Exit 144 US-127-BR Mission St.,1000.0,Industrial Ave,R,Mount Pleasant,Isabella,MI,48858-4650,US,US/Eastern,KMOP,2019-10-07 06:56:00,52.0,52.0,83.0,29.26,10.0,WSW,6.0,0.0,Fair,False,False,False,False,False,False,False,False,False,False,False,False,False,Night,Night,Day,Day
C-5180221,2,2020-12-15 01:07:03,2020-12-15 02:08:30,39.145138,-104.860766,39.13314,-104.863385,0.840780141478,Slow traffic on US-85 S - I-25 S - US-87 S from Greenland Rd/Exit 167 (I-25) to County Line Rd/Exit 163 (I-25) due to roadwork.,,I-25 S,R,Larkspur,Douglas,CO,80118,US,US/Mountain,KMNH,2020-12-15 01:15:00,18.0,4.0,86.0,22.99,1.0,NW,14.0,0.0,Light Snow,False,False,False,False,False,False,False,False,False,False,False,False,False,Night,Night,Night,Night
C-5180222,2,2019-09-19 20:01:11,2019-09-23 20:00:53,30.48151,-81.6438,30.481286,-81.642411,0.0841426500208,At I-95 - Construction work.,,Max Leggett Pkwy,R,Jacksonville,Duval,FL,32218,US,US/Eastern,KJAX,2019-09-19 19:56:00,74.0,74.0,76.0,30.06,10.0,NE,15.0,0.0,Mostly Cloudy,False,False,True,False,False,False,False,False,False,False,False,True,False,Night,Night,Day,Day
C-5180223,2,2021-10-07 12:39:30,2021-10-07 13:00:30,32.516905,-90.125196,32.51692,-90.132,0.396414902479,Stationary traffic from I-55 (Gluckstadt Rd) to MS-463/Mannsdale Rd (Gluckstadt Rd) due to roadwork.,900.0,Gluckstadt Rd,L,Madison,Madison,MS,39110-7241,US,US/Central,KHKS,2021-10-07 12:53:00,83.0,83.0,47.0,29.74,10.0,VAR,5.0,0.0,Fair,False,False,False,False,False,False,False,False,False,False,False,False,False,Day,Day,Day,Day
C-5180224,2,2021-02-18 06:52:30,2021-02-18 10:49:34,43.620601,-122.070876,43.617029,-122.068758,0.26857922029,Roadwork on NFD-5897 (OR-58) from Lava Odell Rd (OR-58) to OR-58.,48787.0,Highway 58,R,Oakridge,Lane,OR,97463-9663,US,US/Pacific,KEUG,2021-02-18 06:54:00,43.0,38.0,74.0,29.75,10.0,SSE,9.0,0.0,Cloudy,False,False,False,False,False,False,False,False,False,False,False,False,False,Night,Day,Day,Day
C-5180225,2,2021-09-26 09:22:00,2021-09-26 11:31:13,39.682153,-105.082694,39.681,-105.08154,0.1005581877659999,Slow traffic on CO-121 from S Allison St to W Evans Ave due to roadwork.,7770.0,W Jewell Ave,L,Denver,Jefferson,CO,80227,US,US/Mountain,KAPA,2021-09-26 08:53:00,66.0,66.0,30.0,24.23,10.0,CALM,0.0,0.0,Partly Cloudy,False,False,True,False,False,False,False,False,False,False,False,True,False,Day,Day,Day,Day
C-5180226,4,2018-02-06 10:03:59,2018-02-06 16:03:59,34.06995,-117.86409,34.06995,-117.86409,0.0,At Holt Ave/Exit 38B - Entry ramp closed. Construction work.,,I-10 E,R,West Covina,Los Angeles,CA,91791,US,US/Pacific,KPOC,,,,,,,,,,,False,False,False,False,False,False,False,False,False,False,False,False,False,Day,Day,Day,Day
C-5180227,2,2021-12-14 15:42:32,2021-12-14 16:06:50,31.726239,-106.25861100000002,31.726242,-106.267867,0.5439641905120001,Slow traffic from Sun Fire Blvd to Joe Battle Blvd due to roadwork.,12409.0,Pellicano Dr,R,El Paso,El Paso,TX,79928,US,US/Mountain,KELP,2021-12-14 15:47:00,73.0,73.0,16.0,26.11,10.0,SSW,6.0,,Mostly Cloudy,False,False,False,False,False,False,False,False,False,False,False,True,False,Day,Day,Day,Day
C-5180228,2,2021-10-17 12:43:51,2021-10-17 13:04:57,33.822115000000004,-84.376599,33.821071999999994,-84.370188,0.374987994443,Stationary traffic on GA-236 from US-19/GA-9/Peachtree Rd (Lindbergh Dr/GA-236) to GA-237/Piedmont Rd (Lindbergh Dr/GA-236) due to roadwork.,345.0,Springdale Dr NE,R,Atlanta,Fulton,GA,30305-4210,US,US/Eastern,KPDK,2021-10-17 12:53:00,63.0,63.0,43.0,29.12,10.0,WNW,9.0,0.0,Fair,False,False,False,False,False,False,False,False,False,False,False,True,False,Day,Day,Day,Day
C-5180229,2,2020-06-08 14:46:52,2020-06-09 14:46:52,40.78114,-86.05753,40.77332,-86.08142,1.36173638854,Between E Lovers Lane Rd and N Mexico Rd/N Broadway - Roadwork. Roadway reduced to 1 lane.,,W US Highway 24,R,Peru,Miami,IN,46970,US,US/Eastern,KGUS,2020-06-08 14:56:00,85.0,85.0,32.0,29.11,10.0,E,9.0,0.0,Fair,False,False,False,False,False,False,False,False,False,False,False,True,False,Day,Day,Day,Day
C-5180230,2,2021-11-15 15:14:00,2021-11-15 17:40:26,26.257189,-80.186278,26.260823,-80.18628100000002,0.251085555453,Slow traffic from Coconut Creek Pkwy (46th Ave/Lyons Rd) to FL-834/W Sample Rd/NW 36th St (Lyons Rd) due to roadwork.,2222.0,Lyons Rd,L,Pompano Beach,Broward,FL,33066,US,US/Eastern,KFXE,2021-11-15 14:53:00,77.0,77.0,56.0,30.1,10.0,NE,15.0,0.0,Fair,False,False,False,False,False,False,False,False,False,False,False,False,False,Day,Day,Day,Day
C-5180231,2,2021-01-19 16:22:30,2021-01-20 01:53:00,41.401724,-82.15299499999998,41.393459,-82.160001,0.6767284084340001,Stationary traffic on I-90 W from OH-2 (I-90) to Lorain County West Toll Plaza (I-90) due to roadwork.,,I-90 W,R,Elyria,Lorain,OH,44035,US,US/Eastern,KLPR,2021-01-19 15:53:00,32.0,23.0,66.0,29.26,10.0,WSW,12.0,0.0,Cloudy,False,False,False,False,False,False,False,False,False,False,False,False,False,Day,Day,Day,Day
C-5180232,2,2020-08-31 00:01:00,2020-10-30 23:01:00,35.2671,-119.07372,35.26699,-119.05672,0.959045879625,At Stine Road - Roadwork on the hard shoulder.,6448.0,Taft Hwy,L,Bakersfield,Kern,CA,93313-9745,US,US/Pacific,KBFL,2020-08-31 00:54:00,78.0,78.0,33.0,29.26,9.0,E,3.0,0.0,Fair,False,False,True,False,False,False,False,False,False,False,False,True,False,Night,Night,Night,Night
C-5180233,4,2020-06-08 14:57:30,2020-06-08 19:46:23,42.34786,-71.0508,42.37454,-71.02948,2.14077939156,Closed between I-93 and William F McClellan Hwy - Closed due to roadwork. Right lane closed.,,Ted Williams Tunnel,R,Boston,Suffolk,MA,02210,US,US/Eastern,KBOS,2020-06-08 14:54:00,77.0,77.0,29.0,29.89,10.0,WNW,12.0,0.0,Partly Cloudy,False,False,False,False,False,False,False,False,False,False,False,False,False,Day,Day,Day,Day
C-5180234,2,2020-02-15 00:00:01,2020-02-15 23:30:00,40.62519,-103.2254,40.62519,-103.2254,0.0,At CR-39/N 7th Ave - Construction work.,901.0,W Main St,R,Sterling,Logan,CO,80751-2827,US,US/Mountain,KSTK,2020-02-15 00:00:00,32.0,24.0,80.0,25.79,10.0,NNE,10.0,0.0,Fair,False,False,False,False,False,False,False,False,False,False,False,False,False,Night,Night,Night,Night
C-5180235,2,2021-02-16 14:52:35,2021-02-16 19:08:41,31.628469,-95.475165,31.623738,-95.482092,0.522429463369,Roadwork on FM-2022 (TX-294) from FM-2419 (TX-294) to TX-294.,4552.0,E State Highway 294,R,Elkhart,Anderson,TX,75839-4510,US,US/Central,KPSN,2021-02-16 14:55:00,23.0,23.0,74.0,29.69,10.0,VAR,3.0,0.0,Cloudy,False,False,False,False,False,False,False,False,False,False,False,False,False,Day,Day,Day,Day
C-5180236,2,2018-12-13 09:03:18,2018-12-17 09:02:52,29.913933,-81.389284,29.914590000000004,-81.38463,0.282392517373,At Industry Center Rd - Construction work.,1773.0,State Road 16,R,Saint Augustine,St. Johns,FL,32084-0807,US,US/Eastern,KSGJ,2018-12-13 09:56:00,64.9,,73.0,30.25,10.0,ENE,8.1,,Overcast,False,False,False,False,False,False,False,False,False,False,False,False,False,Day,Day,Day,Day
C-5180237,2,2020-05-28 09:00:31,2020-05-28 23:59:00,43.00727,-75.98761999999998,43.00727,-75.98761999999998,0.0,At RT-173 - Roadwork.,83.0,Kelly Dr,L,Manlius,Onondaga,NY,13104-1016,US,US/Eastern,KSYR,2020-05-28 08:54:00,74.0,74.0,66.0,29.64,10.0,VAR,5.0,0.0,Mostly Cloudy,False,False,False,False,False,False,False,False,False,False,False,False,False,Day,Day,Day,Day
C-5180238,2,2021-11-12 10:43:30,2021-11-12 12:57:47,42.588813,-83.050117,42.593192,-83.050352,0.302796128604,Stationary traffic from 17 Mile Rd (Mound Rd) to 18 Mile Rd (Mound Rd) due to roadwork.,40250.0,Mound Rd,R,Sterling Heights,Macomb,MI,48310-2238,US,US/Eastern,KVLL,2021-11-12 10:35:00,50.0,45.0,57.0,29.02,10.0,SSW,14.0,0.0,Fair,False,False,False,False,False,False,False,False,False,False,False,False,False,Day,Day,Day,Day
C-5180239,2,2020-08-27 16:40:30,2020-08-27 16:55:00,40.06534,-75.317898,40.067451,-75.305762,0.658083981115,Slow traffic on I-76 from PA-320/Gulph Rd/Exit 330 (I-76) to Hollow Rd/Exit 337 (I-76) due to roadwork.,,I-76 E,R,Conshohocken,Montgomery,PA,19428,US,US/Eastern,KLOM,2020-08-27 16:35:00,91.0,91.0,51.0,29.38,10.0,WSW,12.0,0.0,Partly Cloudy,False,False,False,False,True,False,False,False,False,False,False,False,False,Day,Day,Day,Day
C-5180241,1,2020-05-07 19:16:12,2020-05-08 06:00:00,40.27467,-74.70676999999998,40.24749,-74.7293,2.22212984575,Between Bakers Basn Rd/Franklin Corner Rd and Whitehead Rd - Roadwork.,2947.0,US Highway 1,L,Lawrence Township,Mercer,NJ,08648-2403,US,US/Eastern,KTTN,2020-05-07 18:53:00,62.0,62.0,26.0,29.53,10.0,WSW,9.0,0.0,Fair,False,False,True,False,False,False,False,False,False,False,False,False,False,Day,Day,Day,Day
C-5180242,2,2021-11-22 16:28:18,2021-11-22 16:49:23,27.256511,-80.279368,27.265668,-80.28505,0.722553850686,Stationary traffic on US-1 N - FL-5 from NW Jensen Beach Blvd (US-1) to FL-716 (US-1) due to roadwork.,4161.0,NW Federal Hwy,L,Jensen Beach,Martin,FL,34957-3623,US,US/Eastern,KSUA,2021-11-22 16:47:00,73.0,73.0,65.0,29.88,10.0,WNW,12.0,0.0,Mostly Cloudy,False,False,False,False,False,False,False,False,False,False,False,True,False,Day,Day,Day,Day
C-5180243,2,2021-12-27 08:01:30,2021-12-27 08:24:00,37.646571,-118.961417,37.63954,-118.934516,1.5498647613799998,Slow traffic on CA-203 from Thompsons Way to US-395 S / Minaret Rd due to roadwork.,2757.0,Main St,L,Mammoth Lakes,Mono,CA,93546,US,US/Pacific,KMMH,2021-12-27 07:55:00,19.0,10.0,93.0,22.81,1.0,ESE,7.0,0.0,Cloudy,False,False,False,False,False,False,False,False,False,False,False,False,False,Day,Day,Day,Day
C-5180244,2,2021-10-07 20:51:00,2021-10-07 21:14:00,38.267836,-104.607989,38.26731,-104.607035,0.0632381739296999,Slow traffic from Central Main St / N Main St to N Mechanic St due to roadwork.,164.0,W City Center Dr,R,Pueblo,Pueblo,CO,81003-4259,US,US/Mountain,KPUB,2021-10-07 20:53:00,61.0,61.0,38.0,25.26,10.0,CALM,0.0,0.0,Fair,False,False,True,False,False,False,False,False,False,False,False,False,False,Night,Night,Night,Night
C-5180245,2,2020-05-13 17:00:00,2020-05-14 07:00:00,37.233318,-77.397591,,,0.0,Intermittent lane closures due to bridge maintenance work on US-301 Bollingbrook St both ways at Madison St.,399.0,N Madison St,R,Petersburg,Petersburg,VA,23803-3335,US,US/Eastern,,,,,,,,,,,,False,False,False,False,False,False,False,False,False,False,False,False,False,Day,Day,Day,Day
C-5180246,4,2021-10-12 22:00:00,2021-10-15 23:59:59,40.692044,-73.810273,40.691976,-73.81054499999998,0.0150042230764,NYSDOT - Region 11: construction on LIBERTY AVE westbound over VAN WYCK EXPY (New York) Subject to change without notice. Tuesday October 12th 2021 thru Saturday October 16th 2021 Tuesday/Wednesday/Thursday/Friday 10:00 PM thru 01:00 AM 2 Right lanes,10301.0,Van Wyck Expy,R,Jamaica,Queens,NY,11435-4825,US,US/Eastern,KJFK,2021-10-12 21:51:00,63.0,63.0,90.0,30.07,10.0,CALM,0.0,0.0,Mostly Cloudy,False,False,True,False,False,False,False,False,False,False,False,True,False,Night,Night,Night,Night
C-5180247,4,2018-02-03 00:02:49,2018-02-03 06:02:49,40.70205,-74.00948000000002,40.70205,-74.00948000000002,0.0,At Marginal St/South St/Exit 1 - Exit ramp closed. Construction work.,19.0,South St,R,New York,New York,NY,10004,US,US/Eastern,KJRB,2018-02-03 00:15:00,19.4,8.6,58.0,,10.0,WSW,9.2,,Clear,False,False,True,False,True,False,False,False,False,False,False,False,False,Night,Night,Night,Night
C-5180248,2,2018-12-03 07:55:06,2018-12-08 07:27:47,41.005799,-80.331007,41.004467,-80.334039,0.18292972149,At E Washington St - Roadwork. Lane blocked.,805.0,N Croton Ave,L,New Castle,Lawrence,PA,16101-2555,US,US/Eastern,KUCP,2018-12-04 07:44:00,30.2,25.4,93.0,30.1,9.0,WNW,4.6,0.0,Light Snow,False,False,False,False,False,False,False,False,False,False,False,False,False,Day,Day,Day,Day
C-5180249,2,2021-08-31 14:32:30,2021-08-31 16:48:54,42.697013,-87.802429,42.697034,-87.79821700000002,0.213891109363,Stationary traffic on WI-11 from Taylor Ave (Durand Ave/WI-11) to Sheridan Rd (Durand Ave/WI-11) due to roadwork.,3000.0,Phillips Ave,R,Mount Pleasant,Racine,WI,53403-3585,US,US/Central,KRAC,2021-08-31 14:53:00,75.0,75.0,71.0,29.16,10.0,NNE,12.0,0.0,Fair,False,False,False,False,False,False,False,False,True,False,False,False,False,Day,Day,Day,Day
C-5180250,2,2021-01-27 04:33:00,2021-01-28 05:28:09,40.231944,-76.940184,40.23158400000001,-76.936474,0.197271530581,Construction on PA-581 EB near US-15 Expect delays.,,Harrisburg Expy E,R,Camp Hill,Cumberland,PA,17011,US,US/Eastern,KCXY,2021-01-27 04:56:00,35.0,30.0,89.0,29.59,5.0,WSW,6.0,0.0,Cloudy,False,False,False,False,True,False,False,False,False,False,False,False,False,Night,Night,Night,Night
C-5180251,2,2020-09-02 07:06:00,2020-09-04 20:34:38,39.329613,-101.834231,39.32895,-101.909177,4.0057428596,Roadwork on I-70 from Road 14/Exit 12 (I-70) to CR-267/Exit 1 (I-70).,,I-70 W,R,Goodland,Sherman,KS,67735,US,US/Mountain,KGLD,2020-09-02 06:53:00,56.0,56.0,80.0,26.29,10.0,WNW,7.0,0.0,Fair,False,False,False,False,False,False,False,False,False,False,False,False,False,Day,Day,Day,Day
C-5180252,2,2021-12-16 23:43:30,2021-12-16 23:57:30,32.742666,-96.818046,32.745385,-96.812771,0.359537903793,Slow traffic on I-35E N - US-67 N - US-77 N - R L Thornton Fwy N from Beckley Ave/Exit 425B (I-35E) to Ewing Ave/Exit 426A (I-35E) due to roadwork.,,I-35E N,R,Dallas,Dallas,TX,75203,US,US/Central,KRBD,2021-12-16 23:53:00,61.0,61.0,60.0,29.23,9.0,NE,3.0,0.0,Light Rain,False,False,False,False,True,False,False,False,False,False,False,False,False,Night,Night,Night,Night
C-5180253,2,2020-12-09 06:00:00,2020-12-09 13:45:00,40.84853,-73.937187,40.848175,-73.936188,0.0576873250096999,Construction on GEORGE WASHINGTON BRG EB near MANHATTAN EXPY Construction. Expect long delays.,,I-95 N,R,New York,New York,NY,10033,US,US/Eastern,KNYC,2020-12-09 05:51:00,34.0,,56.0,29.75,10.0,,,0.0,Fair,False,False,True,False,False,False,False,False,True,False,False,False,False,Night,Night,Night,Day
C-5180254,2,2021-12-10 15:05:30,2021-12-10 15:26:00,33.399668,-112.050403,33.399656,-112.04725,0.181875499882,Stationary traffic from S 14th St to S 16th St due to roadwork.,1462.0,E Roeser Rd,L,Phoenix,Maricopa,AZ,85040,US,US/Mountain,KPHX,2021-12-10 14:51:00,62.0,62.0,44.0,28.82,10.0,W,9.0,0.0,Mostly Cloudy,False,False,True,False,False,False,False,False,False,False,False,True,False,Day,Day,Day,Day
C-5180255,2,2021-08-29 11:17:06,2021-08-29 11:43:03,40.817213,-73.930817,40.816294,-73.927274,0.195843385018,Slow traffic from Exterior St to Park Ave due to roadwork.,101.0,E 144th St,L,Bronx,Bronx,NY,10451-5415,US,US/Eastern,KLGA,2021-08-29 10:51:00,70.0,70.0,81.0,30.2,8.0,E,9.0,0.0,Cloudy,False,False,False,False,True,False,False,False,False,True,False,False,False,Day,Day,Day,Day
C-5180256,2,2020-10-22 18:49:00,2020-10-22 23:41:14,32.759653,-97.053533,32.759743,-97.077593,1.39799447694,Queuing traffic from I-30 (East) (I-30 Exp Toll) to Ballpark Way (I-30 Exp Toll) due to roadwork.,,Tom Landry Fwy,R,Arlington,Tarrant,TX,76011,US,US/Central,KGPM,2020-10-22 18:50:00,81.0,81.0,58.0,29.25,10.0,SE,12.0,0.0,Fair,False,False,False,False,False,False,False,False,False,False,False,False,False,Night,Day,Day,Day
C-5180257,2,2019-11-03 13:13:30,2019-11-07 13:13:10,38.24618,-104.61187,38.24644,-104.61187,0.0179642890830999,At El Dorado Ave/Exit 97B - Roadwork.,,W Mesa Ave,R,Pueblo,Pueblo,CO,81004,US,US/Mountain,KPUB,2019-11-03 12:53:00,56.0,56.0,42.0,25.16,10.0,VAR,3.0,0.0,Fair,False,False,False,False,False,False,False,False,False,False,False,False,False,Day,Day,Day,Day
C-5180258,2,2021-12-15 15:42:00,2021-12-15 18:10:39,33.459768,-112.151862,33.462504,-112.151784,0.189093054939,Stationary traffic from W Van Buren St (N 43rd Ave) to I-10/Papago Fwy (N 43rd Ave) due to roadwork.,1036.0,N 43rd Ave,L,Phoenix,Maricopa,AZ,85043,US,US/Mountain,KGEU,2021-12-15 15:58:00,56.0,56.0,34.0,28.96,10.0,CALM,0.0,0.0,Fair,False,False,True,False,False,False,False,False,False,False,False,True,False,Day,Day,Day,Day
C-5180259,2,2020-09-26 14:23:00,2020-09-26 21:04:00,33.287374,-111.852778,33.287139,-111.858989,0.3590973933959999,Queuing traffic from exit [48] to AZ-202 Loop E due to construction work.,,AZ-202 Loop W,R,Chandler,Maricopa,AZ,85286,US,US/Mountain,KCHD,2020-09-26 14:47:00,100.0,100.0,12.0,28.54,10.0,WSW,5.0,,Fair,False,False,False,False,False,False,False,False,False,False,False,False,False,Day,Day,Day,Day
C-5180260,2,2021-01-26 16:31:00,2021-01-27 17:25:05,40.65526,-75.428801,40.652055,-75.42994200000003,0.22937917618,Construction on PA-987 SB near LVI AIRPORT DR Allow extra time.,3367.0,Airport Rd,L,Allentown,Lehigh,PA,18109-3000,US,US/Eastern,KABE,2021-01-26 16:51:00,31.0,24.0,92.0,29.44,1.0,ENE,7.0,0.01,Wintry Mix,False,False,False,False,False,False,False,False,False,False,False,True,False,Day,Day,Day,Day
C-5180261,2,2021-07-21 17:00:58,2021-09-29 14:42:00,39.970178,-75.29074,39.968571,-75.294302,0.218870893753,Slow traffic on US-1 N - US-1 S from Haverford Rd/Haverford Ave (City Ave/US-1) to PA-3/W Chester Pike (W Township Line Rd/US-1) due to roadwork.,199.0,Foster Ave,R,Upper Darby,Delaware,PA,19082-1006,US,US/Eastern,KPHL,2021-09-29 13:54:00,68.0,68.0,40.0,30.0,10.0,NNW,10.0,0.0,Fair,False,False,True,False,False,False,False,False,False,True,False,True,False,Day,Day,Day,Day
C-5180262,2,2021-10-11 08:01:00,2021-10-11 18:01:00,39.498016,-121.583147,39.497901,-121.579854,0.175748463697,Lane closure due to Drainage Work between Middlehoff Ln and Feather River Bridge,808.0,Oro Dam Blvd W,R,Oroville,Butte,CA,95965-4449,US,US/Pacific,KOVE,2021-10-11 07:53:00,56.0,56.0,32.0,29.77,10.0,NW,16.0,0.0,Fair,False,False,False,False,False,False,False,False,False,False,False,False,False,Day,Day,Day,Day
C-5180263,2,2021-09-22 13:56:00,2021-09-22 15:05:34,35.0928,-81.687893,35.075532,-81.738281,3.08866793934,Slow traffic on I-85 S from SC-11/Exit 92 (I-85) to Green River Rd/Exit 86 (I-85) due to roadwork.,,I-85 S,R,Gaffney,Cherokee,SC,29341,US,US/Eastern,KEHO,2021-09-22 13:55:00,78.0,78.0,85.0,28.96,10.0,SW,10.0,0.12,Partly Cloudy,False,False,False,False,False,False,False,False,False,False,False,False,False,Day,Day,Day,Day
C-5180264,2,2021-07-26 10:27:00,2021-07-26 10:50:00,40.940701,-87.222337,40.943153,-87.220839,0.186586910412,Slow traffic on IN-114 from Newton to I-65 N due to roadwork.,,W State Road 114,R,Rensselaer,Jasper,IN,47978,US,US/Central,KRZL,2021-07-26 10:35:00,81.0,81.0,54.0,29.3,10.0,NE,3.0,0.0,Fair,False,False,False,False,False,False,False,False,False,False,False,False,False,Day,Day,Day,Day
C-5180265,2,2021-09-18 11:47:00,2021-09-18 12:15:30,42.349713,-87.869232,42.34921,-87.87527800000002,0.310679785781,Stationary traffic on IL-120 from S Lewis Ave (Belvidere St/IL-120) to US-41/Skokie Hwy (Belvidere Rd/IL-120) due to roadwork.,2696.0,Belvidere Rd,R,Waukegan,Lake,IL,60085-6006,US,US/Central,KUGN,2021-09-18 11:55:00,72.0,72.0,61.0,29.43,10.0,ENE,12.0,0.0,Fair,False,False,False,False,False,False,False,False,False,False,False,True,False,Day,Day,Day,Day
C-5180266,2,2021-10-20 11:17:00,2021-10-20 13:37:52,38.913511,-104.820297,38.911831,-104.822451,0.163964064759,Stationary traffic from Nevada Ave exit [148] to Mark Dabling Blvd due to roadwork.,,I-25 S,R,Colorado Springs,El Paso,CO,80919,US,US/Mountain,KAFF,2021-10-20 10:58:00,53.0,53.0,29.0,23.7,10.0,SSE,13.0,0.0,Fair,False,False,False,False,False,False,False,False,False,False,False,False,False,Day,Day,Day,Day
C-5180267,2,2021-02-05 13:42:30,2021-02-05 21:46:26,30.293066,-81.60191999999998,30.291971000000004,-81.600252,0.125006696926,Slow traffic on US-90 E - FL-109 - FL-212 from Lottie St to Jacksonville East due to roadwork.,3255.0,University Blvd S,L,Jacksonville,Duval,FL,32216-2733,US,US/Eastern,KCRG,2021-02-05 13:53:00,61.0,61.0,81.0,29.87,10.0,SSW,13.0,0.0,Cloudy,False,False,True,False,False,False,False,False,False,False,False,False,False,Day,Day,Day,Day
C-5180268,2,2019-03-08 01:17:28,2019-03-08 05:17:28,45.50837,-122.77856,45.508277,-122.778298,0.0142208337251,At OR-217/Exit 69 - Maintenance work.,,US-26 E,R,Portland,Washington,OR,97225,US,US/Pacific,KHIO,2019-03-08 00:53:00,28.9,,92.0,30.02,10.0,Calm,,,Clear,False,False,False,False,True,False,False,False,False,False,False,False,False,Night,Night,Night,Night
C-5180269,2,2021-12-22 20:10:00,2021-12-22 22:12:15,34.898622,-98.356797,34.901799,-98.356785,0.219510847172,Roadwork on OK-19 (Apache) (South) (US-62/Coblake St/US-281) from OK-9 (US-62/US-281) to US-281 S - US-62 W - US-281 N - US-62 E.,,State Highway 19,R,Apache,Caddo,OK,73006,US,US/Central,KFSI,2021-12-22 19:56:00,49.0,46.0,76.0,28.73,10.0,S,7.0,0.0,Fair,False,False,False,False,False,False,False,False,False,True,False,False,False,Night,Night,Night,Night
C-5180270,2,2019-08-19 07:00:00,2019-08-19 17:01:00,39.842209,-105.038879,,,0.790000021458,Intermittent lane closures due to construction on 80th Ave both ways from Lowell Blvd / 80th Ave to Oakwood Dr.,3892.0,W 80th Ave,L,Westminster,Adams,CO,80031,US,US/Mountain,KBJC,2019-08-19 06:45:00,70.0,70.0,25.0,24.46,10.0,W,7.0,0.0,Fair,False,False,True,False,False,False,False,False,False,False,False,True,False,Day,Day,Day,Day
C-5180271,2,2021-04-20 04:43:00,2021-12-31 19:34:10,29.000844,-81.302738,28.998924,-81.301115,0.16497863448,Stationary traffic on FL-15A - US-92 W - US-17 S from W Chipola Ave to Plumosus Park Dr due to roadwork.,1566.0,S Woodland Blvd,L,Deland,Volusia,FL,32720-7709,US,US/Eastern,KDED,2021-08-26 17:10:00,87.0,87.0,68.0,29.92,10.0,E,14.0,0.0,Partly Cloudy,False,False,False,False,False,False,False,False,False,False,False,False,False,Night,Night,Night,Night
C-5180272,4,2021-12-13 07:01:00,2021-12-13 20:01:00,38.244775,-122.446038,38.245962,-122.438955,0.393002520247,Full closure due to Flooding between Jct Rte 116/121 ((Arnold Dr/Fremont Dr) and Eighth St East,1144.0,Fremont Dr,R,Sonoma,Sonoma,CA,95476-9257,US,US/Pacific,KO69,2021-12-13 06:55:00,50.0,50.0,100.0,29.64,9.0,E,7.0,0.03,Cloudy,False,False,False,False,False,False,False,False,False,False,False,False,False,Night,Day,Day,Day
C-5180273,2,2018-11-28 09:05:51,2018-12-04 09:02:06,33.930421,-84.550409,33.929532,-84.550811,0.0656051020995,At GA-5/Austell Rd - Construction work.,913.0,S Cobb Dr,L,Marietta,Cobb,GA,30060-3301,US,US/Eastern,KMGE,2018-11-29 08:56:00,33.6,,71.0,30.19,10.0,Calm,,,Mostly Cloudy,False,False,False,False,False,False,False,False,False,False,False,False,False,Day,Day,Day,Day
C-5180274,2,2020-09-23 12:32:30,2020-09-23 16:14:00,41.942417,-84.176331,41.936175,-84.167137,0.639755502135,Stationary traffic on US-223 from Onsted Hwy (US-223) to Springville Hwy (US-223) due to roadwork.,9449.0,W US Highway 223,L,Adrian,Lenawee,MI,49221-9439,US,US/Eastern,KADG,2020-09-23 12:53:00,76.0,76.0,48.0,29.2,8.0,NNW,9.0,0.0,Fair,False,False,False,False,False,False,False,False,False,False,False,False,False,Day,Day,Day,Day
C-5180275,2,2020-07-08 14:49:00,2020-07-09 15:38:24,40.046067,-75.404977,40.048963,-75.404253,0.203725869077,Construction on OLD EAGLE SCHOOL RD near DELAWARE COUNTY LINE Allow extra time.,3.0,Old Eagle School Rd,R,Wayne,Delaware,PA,19087,US,US/Eastern,KLOM,2020-07-08 14:55:00,87.0,87.0,60.0,29.64,10.0,SSE,7.0,0.0,Cloudy,False,False,False,False,False,False,False,False,True,True,False,True,False,Day,Day,Day,Day
C-5180276,2,2021-12-16 13:16:00,2021-12-16 15:32:03,39.961237,-75.603537,39.960115,-75.604835,0.103610327432,Slow traffic on PA-3 - US-322 Bus W from N Matlack St to S High St / W Market St due to roadwork.,110.0,E Gay St,R,West Chester,Chester,PA,19380-3147,US,US/Eastern,KOQN,2021-12-16 13:15:00,57.0,57.0,51.0,29.33,10.0,CALM,0.0,0.0,Fair,True,False,True,False,False,False,False,False,False,False,False,True,False,Day,Day,Day,Day
C-5180277,2,2021-12-29 14:35:00,2021-12-29 15:30:30,37.52091400000001,-118.603534,37.551606,-118.641726,2.9791860594200004,Slow traffic on US-395 N from Wye Rd (US-395) to South Landing Rd (US-395) due to roadwork.,,US-395 N,R,Bishop,Mono,CA,93514,US,US/Pacific,KBIH,2021-12-29 14:34:00,32.0,26.0,82.0,25.58,10.0,S,6.0,0.0,Cloudy,False,False,False,False,False,False,False,False,False,False,False,False,False,Day,Day,Day,Day
C-5180278,2,2021-10-08 10:47:00,2021-10-08 17:45:00,38.587792,-75.509258,38.577541,-75.527956,1.23351027831,Construction on SYCAMORE RD near CHIPMANS LN Drive with caution.,13139.0,Sycamore Rd,L,Laurel,Sussex,DE,19956,US,US/Eastern,KGED,2021-10-08 10:54:00,72.0,72.0,73.0,30.11,10.0,ENE,7.0,0.0,Fair,False,False,False,False,False,False,False,False,False,False,False,False,False,Day,Day,Day,Day
C-5180279,2,2021-01-08 13:50:30,2021-01-08 20:33:52,43.905228,-116.201021,43.900155,-116.203516,0.371867894962,Roadwork on ID-52/N Riverside Dr (ID-55) from ID-55/Summit Ridge Rd (ID-55) to ID-55.,386.0,Highway 55,L,Horseshoe Bend,Boise,ID,83629-5032,US,US/Mountain,KBOI,2021-01-08 13:53:00,39.0,33.0,70.0,27.13,10.0,SE,9.0,0.0,Cloudy,False,False,False,False,False,False,False,False,False,False,False,False,False,Day,Day,Day,Day
C-5180280,2,2021-10-14 21:59:30,2021-12-23 16:26:00,41.643323,-91.524289,41.64553,-91.532142,0.4331949721729999,Stationary traffic on US-6 W from CR-X16/American Legion Rd SE (US-6) to IA-921/IA-1/S Riverside Dr (US-6) due to roadwork.,,Keokuk St,R,Iowa City,Johnson,IA,52240,US,US/Central,KIOW,2021-12-10 15:18:00,42.0,36.0,89.0,28.77,1.0,E,10.0,0.0,Fog,False,False,True,False,False,False,False,False,False,False,False,True,False,Night,Night,Night,Night
C-5180281,2,2021-07-26 12:23:00,2021-07-26 12:51:00,37.733398,-85.886771,37.727917,-85.88486999999998,0.392690517195,Slow traffic on US-31W S - KY-3005 - KY-447 from Starlite Dr to Woodland Dr due to roadwork.,1704.0,N Dixie Hwy,L,Elizabethtown,Hardin,KY,42701,US,US/Eastern,KFTK,2021-07-26 12:32:00,88.0,88.0,62.0,29.19,10.0,W,3.0,0.0,Light Drizzle,False,False,False,False,False,False,False,False,False,False,False,False,False,Day,Day,Day,Day
C-5180282,2,2021-07-29 11:56:00,2021-07-29 12:40:00,33.393283000000004,-112.081948,33.392206,-112.083216,0.104345310353,Slow traffic from W Sunland Ave to S 11th Ave due to roadwork.,5849.0,S 7th Ave,L,Phoenix,Maricopa,AZ,85041,US,US/Mountain,KPHX,2021-07-29 11:51:00,95.0,95.0,33.0,28.7,10.0,E,13.0,0.0,Mostly Cloudy,False,False,False,False,False,False,False,False,False,False,False,False,False,Day,Day,Day,Day
C-5180283,2,2019-08-09 05:00:00,2019-08-10 20:00:00,38.876528,-104.934807,38.879369,-104.945869,0.626547841828,At Chipita Park Rd - Construction work.,5904.0,W US Highway 24,R,Cascade,El Paso,CO,80809,US,US/Mountain,KAFF,2019-08-09 04:58:00,60.0,60.0,88.0,23.68,10.0,CALM,0.0,0.0,Partly Cloudy,False,False,False,False,False,False,False,False,False,False,False,False,False,Night,Night,Night,Day
C-5180284,2,2019-03-05 18:40:39,2019-03-09 18:39:59,32.447536,-93.982455,32.46136,-94.04296,3.65460387086,Between Texas/Louisiana State Line and LA-169/Exit 3 - Construction work.,,I-20 W,R,Greenwood,Caddo,LA,71033,US,US/Central,KSHV,2019-03-05 18:56:00,41.0,37.1,35.0,30.46,10.0,North,5.8,,Clear,False,False,False,False,False,False,False,False,False,False,False,False,False,Night,Night,Day,Day
C-5180285,3,2018-08-15 10:00:00,2018-08-15 11:00:00,40.877266,-73.834419,,,0.990000009537,Right lane closed due to bridge maintenance work on I-95 New England Trwy Northbound between Exit 11 Bartow Ave and Exit 12.,,New England Trwy S,R,Bronx,Bronx,NY,10475,US,US/Eastern,KLGA,2018-08-15 09:51:00,79.0,,62.0,29.9,10.0,NW,12.7,,Partly Cloudy,False,False,False,False,False,False,False,False,False,False,False,False,False,Day,Day,Day,Day
C-5180286,2,2021-08-21 15:15:30,2021-10-20 17:06:02,33.385725,-111.935152,33.386027,-111.939386,0.245156982592,Stationary traffic from exit [173] to S Mill Ave due to roadwork.,,Superstition Fwy W,R,Tempe,Maricopa,AZ,85282,US,US/Mountain,KPHX,2021-08-21 14:51:00,99.0,99.0,26.0,28.54,10.0,SSE,9.0,0.0,Fair,False,False,True,False,False,False,False,False,False,False,False,True,False,Day,Day,Day,Day
C-5180287,2,2021-09-19 19:00:00,2021-09-25 06:00:00,40.112617,-83.090664,40.112889,-83.090655,0.0187994263425999,Construction on SAWMILL RD near I-270 Drive with caution.,7228.0,Sawmill Rd,R,Columbus,Franklin,OH,43235-1942,US,US/Eastern,KOSU,2021-09-19 22:53:00,76.0,76.0,67.0,29.15,10.0,ESE,7.0,0.0,Fair,False,False,False,False,False,False,False,False,False,False,False,True,False,Day,Day,Day,Day
C-5180288,2,2021-09-20 15:27:00,2021-09-20 15:48:30,41.988569,-87.699352,41.990435,-87.700616,0.144347340278,Slow traffic on US-14 E - US-14 W from N Lincoln Ave to N Mozart St due to roadwork.,2798.0,W Thorndale Ave,R,Chicago,Cook,IL,60659,US,US/Central,KORD,2021-09-20 15:51:00,80.0,80.0,69.0,29.13,10.0,S,15.0,0.0,Mostly Cloudy,False,False,False,False,False,False,False,False,True,False,False,False,False,Day,Day,Day,Day
C-5180289,2,2020-09-09 14:28:30,2020-09-10 02:12:04,26.526788,-80.09037,26.527741,-80.091134,0.0810331679601999,Stationary traffic on FL-804 - FL-807 from S Congress Ave / Ocean Dr to Winchester Park Blvd due to resurfacing work.,260.0,N Congress Ave,L,Boynton Beach,Palm Beach,FL,33426-4212,US,US/Eastern,KBCT,2020-09-09 14:53:00,82.0,82.0,79.0,29.96,10.0,WSW,3.0,0.0,Mostly Cloudy,False,False,False,False,False,False,False,False,False,False,False,False,False,Day,Day,Day,Day
C-5180290,2,2021-06-29 22:23:00,2021-06-30 23:42:20,26.199055,-80.148535,26.204555,-80.14269499999997,0.52486734245,Construction on I-95 NB near EXIT 33A Construction. Right lane closed.,,I-95 N,R,Fort Lauderdale,Broward,FL,33309,US,US/Eastern,KFXE,2021-06-29 22:36:00,76.0,76.0,94.0,30.15,10.0,CALM,0.0,0.0,Mostly Cloudy,False,False,False,False,True,False,False,False,False,False,False,False,False,Night,Night,Night,Night
C-5180291,2,2020-05-20 10:06:35,2020-05-22 16:00:00,40.87121,-73.42631,40.84839,-73.41153,1.75571642092,At CR-11/Pulaski Rd - Construction work.,261.0,Main St,R,Huntington,Suffolk,NY,11743-6911,US,US/Eastern,KFRG,2020-05-20 09:53:00,59.0,59.0,39.0,30.36,10.0,E,12.0,0.0,Fair,True,False,True,False,False,False,False,False,False,False,False,True,False,Day,Day,Day,Day
C-5180292,2,2021-07-09 17:29:56,2021-07-09 17:42:56,40.982625,-73.68982199999998,40.98728300000001,-73.680526,0.581947945839,Slow traffic on I-95 N from Playland Pkwy/Exit 19 (I-95) to US-1/Exit 20 (I-95) due to roadwork.,,New England Trwy N,R,Rye,Westchester,NY,10580,US,US/Eastern,KHPN,2021-07-09 16:57:00,84.0,84.0,66.0,29.33,10.0,SSW,5.0,0.0,Fair,False,False,False,False,False,False,False,False,False,False,False,False,False,Day,Day,Day,Day
C-5180293,4,2020-04-05 19:27:22,2020-08-26 03:06:17,44.80926,-93.29133,44.80926,-93.29133,0.0,At 106th St/Exit 5 - Exit ramp closed. Construction work. Road cleared.,,I-35W N,R,Minneapolis,Hennepin,MN,55431,US,US/Central,KMSP,2020-04-05 19:53:00,51.0,51.0,39.0,29.14,10.0,SE,8.0,0.0,Partly Cloudy,False,False,False,False,True,False,False,False,False,False,False,False,False,Day,Day,Day,Day
C-5180294,2,2021-06-19 14:33:30,2021-06-19 16:35:10,33.495696,-112.203224,33.494822,-112.203833,0.0698425500618,Slow traffic from W Monterosa St to N 69th Dr due to roadwork.,4113.0,N 67th Ave,R,Phoenix,Maricopa,AZ,85033-3314,US,US/Mountain,KGEU,2021-06-19 14:58:00,111.0,111.0,10.0,28.47,10.0,SW,13.0,0.0,Fair,False,False,False,False,False,False,False,False,True,False,False,False,False,Day,Day,Day,Day
C-5180295,3,2018-01-25 23:00:00,2018-01-26 05:00:00,25.80949,-80.321449,,,1.39999997616,Road closed due to construction during the night on FL-826 Palmetto Expy Northbound from 25th St to FL-948 36th St.,,Palmetto Expy S,R,Miami,Miami-Dade,FL,33166,US,US/Eastern,KMIA,2018-01-25 22:53:00,71.1,,63.0,30.31,10.0,NE,15.0,,Scattered Clouds,False,False,False,False,False,False,False,False,False,False,False,False,False,Night,Night,Night,Night
C-5180296,2,2021-11-04 09:30:00,2021-11-06 05:00:00,33.473188,-112.123599,33.473191,-112.123063,0.0308924450744999,31ST AVE - 30TH AVE - Construction - Point Repair Install in COP Sanitary Sewer Mains; QS 14-22-105-405LanesRestricted: EB&amp;#61;1 WB&amp;#61;131ST AVE - 30TH AVE Comments: N 31st Ave &amp;#38; W Encanto Blvd,2299.0,N 30th Ave,R,Phoenix,Maricopa,AZ,85009,US,US/Mountain,KPHX,2021-11-04 09:51:00,71.0,71.0,29.0,28.83,10.0,ESE,3.0,0.0,Fair,False,False,False,False,False,False,False,False,False,False,False,False,False,Day,Day,Day,Day
C-5180297,4,2018-03-13 21:01:12,2018-03-14 09:52:12,39.949798,-83.02294599999998,39.950313,-83.017071,0.313210848026,Closed at I-71/OH-315/Exit 99C - Closed due to roadwork.,,I-70 E,R,Columbus,Franklin,OH,43223,US,US/Eastern,KTZR,2018-03-13 20:55:00,29.1,16.4,87.0,30.02,1.8,NNW,19.6,,Light Snow,False,False,False,False,False,False,False,False,False,False,False,False,False,Night,Night,Night,Day
C-5180298,2,2020-12-01 14:11:00,2020-12-02 00:13:31,30.519163,-86.501111,30.519297,-86.50232199999998,0.0726722758438,Stationary traffic on FL-190 - FL-85 - FL-397 from N John Sims Pkwy to Howell Rd / Spencer Pl due to roadwork.,767.0,John Sims Pkwy W,R,Niceville,Okaloosa,FL,32578-1878,US,US/Central,KVPS,2020-12-01 13:56:00,54.0,54.0,26.0,30.11,10.0,NNW,7.0,0.0,Fair,False,False,False,False,False,False,False,False,False,False,False,False,False,Day,Day,Day,Day
C-5180299,2,2019-06-24 09:07:39,2019-07-23 12:18:37,40.335033,-76.837762,40.332205,-76.846582,0.503962998066,At N Progress Ave - Roadwork. Open. Traffic problem.,2298.0,Versailles Dr,R,Harrisburg,Dauphin,PA,17112-1446,US,US/Eastern,KCXY,2019-06-24 08:56:00,72.0,72.0,64.0,29.54,10.0,CALM,0.0,0.0,Fair,False,False,False,False,False,False,False,False,False,False,False,False,False,Day,Day,Day,Day
C-5180300,4,2021-07-19 11:01:00,2021-07-19 14:01:00,34.157041,-118.825367,34.158681,-118.826507,0.130721677874,Full closure due to Pavement Marker Replacement between Westlake Blvd Route 23 and Ventura Freeway Route 101,,S Westlake Blvd,R,Westlake Village,Ventura,CA,91361,US,US/Pacific,KCMA,2021-07-19 10:55:00,79.0,79.0,54.0,29.96,10.0,SW,8.0,0.0,Fair,False,False,True,False,False,False,False,False,False,False,False,False,False,Day,Day,Day,Day
C-5180301,4,2019-05-15 22:01:26,2019-05-19 22:01:08,33.74451,-118.00501,33.74457,-118.00508,0.00577581554561,Ramp closed to Bolsa Ave/Exit 18 - Closed due to roadwork.,,Bolsa Ave,R,Westminster,Orange,CA,92683,US,US/Pacific,KSLI,2019-05-15 21:58:00,62.0,62.0,70.0,29.91,10.0,W,5.0,0.0,Mostly Cloudy,False,False,False,False,True,False,False,False,False,False,False,False,False,Night,Night,Night,Night
C-5180302,2,2020-11-07 12:41:00,2020-11-07 20:49:00,28.186591,-82.373459,28.194636,-82.385136,0.902575107136,Slow traffic on FL-56 from CR-581/Bruce B Downs Blvd (FL-56) to I-75 (FL-56) due to roadwork.,,State Road 56,R,Wesley Chapel,Pasco,FL,33544,US,US/Eastern,KVDF,2020-11-07 12:35:00,86.0,86.0,48.0,29.96,10.0,E,13.0,0.0,Partly Cloudy,False,False,False,False,False,False,False,False,False,False,False,True,False,Day,Day,Day,Day
