ID,Severity,Start_Time,End_Time,Start_Lat,Start_Lng,End_Lat,End_Lng,Distance(mi),Description,Number,Street,Side,City,County,State,Zipcode,Country,Timezone,Airport_Code,Weather_Timestamp,Temperature(F),Wind_Chill(F),Humidity(%),Pressure(in),Visibility(mi),Wind_Direction,Wind_Speed(mph),Precipitation(in),Weather_Condition,Amenity,Bump,Crossing,Give_Way,Junction,No_Exit,Railway,Roundabout,Station,Stop,Traffic_Calming,Traffic_Signal,Turning_Loop,Sunrise_Sunset,Civil_Twilight,Nautical_Twilight,Astronomical_Twilight
C-4936346,2,2021-09-02 04:05:26,2021-09-02 05:01:00,37.606068,-122.385574,,,0.0,One lane closed due to construction during the night on US-101 Northbound near Exit 422 / Airport Access Rd.,,Bayshore Fwy N,R,Millbrae,San Mateo,CA,94030,US,US/Pacific,KSFO,2021-09-02 03:56:00,57.0,57.0,77.0,29.89,10.0,SW,6.0,0.0,Mostly Cloudy,False,False,False,False,True,False,False,False,False,False,False,False,False,Night,Night,Night,Night
C-4936347,2,2018-12-10 09:05:20,2018-12-14 09:05:20,40.96777,-80.36183,40.96859,-80.36386,0.120108836855,At PA-168/Moravia St - Roadwork. Lane blocked.,,US-422 W,R,New Castle,Lawrence,PA,16101,US,US/Eastern,KUCP,2018-12-10 08:56:00,26.1,21.9,81.0,30.32,10.0,Variable,3.5,,Overcast,False,False,False,False,False,False,False,False,False,False,False,False,False,Day,Day,Day,Day
C-4936348,2,2021-03-18 02:56:30,2021-03-18 03:18:30,40.618847,-75.500675,40.610047,-75.527925,1.55319944446,Stationary traffic on US-22 W from 15th St (US-22) to Cedar Crest Blvd (US-22) due to roadwork.,,US-22 W,R,Allentown,Lehigh,PA,18104,US,US/Eastern,KXLL,2021-03-18 02:55:00,43.0,43.0,93.0,29.63,5.0,CALM,0.0,0.0,Cloudy,False,False,False,False,True,False,False,False,False,False,False,False,False,Night,Night,Night,Night
C-4936349,2,2021-08-03 22:43:00,2021-08-26 18:00:00,41.411046,-118.035096,41.401045,-117.869829,8.592447011989998,Roadwork - on SR-140 in both directions from Mile Post 0 to Mile Post 15 in Humboldt County Nevada. Beginning at 6AM Daily Lanes Will Be Reduced to One With Traffic Being Routed to the Opposing Lane. Use Caution Around Pilot Car and Flaggers. Decrease Speed and Move Over For Highway Personnel and Vehicles. Expect Delays. Estimated End Time is 6:00 PM on 08/26/21,,NV-140,R,Orovada,Humboldt,NV,89425,US,US/Pacific,KWMC,2021-08-03 22:56:00,81.0,81.0,25.0,25.71,10.0,NE,22.0,0.0,Fair / Windy,False,False,False,False,False,False,False,False,False,False,False,False,False,Night,Night,Night,Night
C-4936350,2,2020-11-19 17:49:30,2020-11-19 18:41:00,40.765983,-73.967401,40.763743,-73.962058,0.319581569445,Slow traffic from Park Ave to 2nd Ave due to roadwork.,601.0,Park Ave,R,New York,New York,NY,10065-7011,US,US/Eastern,KNYC,2020-11-19 17:51:00,47.0,43.0,42.0,30.33,10.0,SSW,9.0,0.0,Fair,True,False,True,False,False,False,False,False,True,False,False,True,False,Night,Night,Night,Day
C-4936351,2,2021-09-28 16:41:57,2021-09-28 17:11:31,28.07940300000001,-80.60819000000002,28.079931,-80.603516,0.287256310701,Slow traffic on US-192 E - US-192 W from FL-507/S Babcock St (US-192) to US-1/FL-5/S Harbor City Blvd (US-192) due to roadwork.,732.0,E Strawbridge Ave,L,Melbourne,Brevard,FL,32901-4735,US,US/Eastern,KMLB,2021-09-28 16:53:00,84.0,84.0,47.0,29.93,10.0,NE,10.0,0.0,Fair,False,False,True,False,False,False,False,False,False,False,False,True,False,Day,Day,Day,Day
C-4936352,2,2021-07-19 19:11:00,2021-07-19 22:50:30,47.655951,-117.323061,47.652879,-117.392233,3.2263496922000003,Stationary traffic on I-90 W from Broadway Ave/Exit 286 (I-90) to WA-290 Spur/E Trent Ave/N Hamilton St/Exit 282 (I-90) due to roadwork.,,I-90 W,R,Spokane,Spokane,WA,99212,US,US/Pacific,KSFF,2021-07-19 18:53:00,88.0,88.0,20.0,27.9,10.0,CALM,0.0,0.0,Fair,False,False,False,False,True,False,False,False,False,False,False,False,False,Day,Day,Day,Day
C-4936353,3,2021-08-24 22:00:00,2021-08-25 06:00:00,43.15564000000001,-77.682022,,,0.3799999952319999,Entry ramp to I-390 Southbound from I-490 Eastbound closed due to construction work.,,NY-390 S,R,Rochester,Monroe,NY,14606,US,US/Eastern,KROC,2021-08-24 21:54:00,73.0,73.0,81.0,29.43,10.0,SW,3.0,0.0,Fair,False,False,False,False,False,False,False,False,False,False,False,False,False,Night,Night,Night,Night
C-4936354,2,2019-05-01 10:33:54,2019-05-01 15:00:00,35.135899,-88.03556800000001,,,0.0,Intermittent lane closures due to construction work on TN-203 both ways between Old Pinhook Loop and Big Ivy Rd.,1.0,Big Ivy Rd,R,Savannah,Hardin,TN,38372,US,US/Central,KCRX,2019-05-01 10:35:00,75.0,75.0,73.0,29.66,10.0,S,8.0,0.0,Cloudy,False,False,False,False,False,False,False,False,False,False,False,False,False,Day,Day,Day,Day
C-4936355,2,2021-08-16 07:00:00,2021-08-20 17:00:00,44.389839,-73.822311,,,28.48999977110001,Intermittent lane closures due to maintenance work on NY-86 both ways from CR-21 River Rd to Whiteface Mountain.,1000.0,Bonnie View Rd,R,Wilmington,Essex,NY,12997-1800,US,US/Eastern,KSLK,2021-08-16 06:51:00,39.0,39.0,100.0,28.49,0.25,CALM,0.0,0.0,Fog,False,False,False,False,False,False,False,False,False,False,False,False,False,Day,Day,Day,Day
C-4936356,2,2021-08-04 08:26:27,2021-08-04 08:52:18,40.828304,-73.882473,40.826006,-73.88645,0.261616149584,Slow traffic from Colgate Ave to Lowell St due to roadwork.,1451.0,Westchester Ave,L,Bronx,Bronx,NY,10472-2903,US,US/Eastern,KLGA,2021-08-04 08:51:00,72.0,72.0,66.0,30.11,10.0,ENE,6.0,0.0,Cloudy,False,False,False,False,False,False,False,False,False,False,False,False,False,Day,Day,Day,Day
C-4936357,2,2021-11-04 11:58:00,2021-11-04 14:08:09,33.394591,-112.081944,33.392206,-112.083216,0.180386553203,Slow traffic from W Sunland Ave to S 11th Ave due to roadwork.,5669.0,S 7th Ave,L,Phoenix,Maricopa,AZ,85041,US,US/Mountain,KPHX,2021-11-04 11:51:00,80.0,80.0,19.0,28.82,10.0,VAR,6.0,0.0,Fair,False,False,False,False,False,False,False,False,False,False,False,False,False,Day,Day,Day,Day
C-4936358,2,2021-08-16 15:52:53,2021-08-20 02:05:01,39.043035,-90.261219,39.04312,-90.254068,0.383788801965,Roadwork on US Highway 67 from Stagecoach Rd to County Hwy-800.,1998.0,Delhi Rd,R,Jerseyville,Jersey,IL,62052,US,US/Central,KSET,2021-08-16 15:54:00,84.0,84.0,55.0,29.52,10.0,E,8.0,0.0,Fair,False,False,False,False,False,False,False,False,False,False,False,False,False,Day,Day,Day,Day
C-4936359,2,2020-11-03 09:29:30,2020-11-03 23:17:00,33.524012,-112.118852,33.524594,-112.116894,0.119735014976,Stationary traffic from N 28th Dr to W Rovey Ave due to roadwork.,2744.0,W Bethany Home Rd,R,Phoenix,Maricopa,AZ,85017-1707,US,US/Mountain,KPHX,2020-11-03 09:51:00,79.0,79.0,20.0,28.83,10.0,SE,5.0,0.0,Partly Cloudy,True,False,False,False,False,False,False,False,True,False,False,False,False,Day,Day,Day,Day
C-4936362,2,2021-11-04 00:49:30,2021-11-04 03:45:12,33.648801,-117.11914099999998,33.648924,-117.119143,0.00849926910178,Roadwork at Wickerd Rd.,32574.0,Leon Rd,R,Winchester,Riverside,CA,92596-9224,US,US/Pacific,KF70,2021-11-04 00:55:00,55.0,55.0,72.0,28.61,10.0,CALM,0.0,0.0,Fair,False,False,False,False,False,False,False,False,False,False,False,False,False,Night,Night,Night,Night
C-4936363,2,2020-11-11 12:32:00,2020-11-11 22:40:09,40.749696,-73.99155999999998,40.747862,-73.992936,0.145756221338,Stationary traffic from W 34th St (7th Ave) to W 23rd St (7th Ave) due to roadwork.,14.0,7th Ave,L,New York,New York,NY,10001,US,US/Eastern,KNYC,2020-11-11 12:38:00,72.0,72.0,78.0,29.91,10.0,SSE,3.0,0.0,Cloudy,True,False,True,False,False,False,True,False,True,False,False,True,False,Day,Day,Day,Day
C-4936364,2,2021-09-08 06:41:00,2021-09-08 09:33:53,28.811641,-81.360021,28.81196,-81.36360400000002,0.2180323316719999,Stationary traffic on FL-46 from I-4 (FL-46) to Lake Markham Rd (FL-46) due to roadwork.,5587.0,W State Road 46,R,Sanford,Seminole,FL,32771-9224,US,US/Eastern,KSFB,2021-09-08 06:53:00,75.0,75.0,96.0,29.91,10.0,CALM,0.0,0.0,Fair,False,False,False,False,False,False,False,False,False,False,False,False,False,Night,Night,Day,Day
C-4936365,4,2021-06-02 21:25:30,2021-10-16 01:59:39,35.35596500000001,-92.959157,35.36516,-92.963504,0.6808970141699999,AR-105 is closed from State Route 164 E to Pit Rd due to roadwork.,1.0,Rose Ln,R,Russellville,Pope,AR,72802-1230,US,US/Central,KRUE,2021-06-02 21:53:00,69.0,69.0,78.0,29.52,10.0,WNW,8.0,0.0,Cloudy,False,False,False,False,False,False,False,False,False,False,False,False,False,Night,Night,Day,Day
C-4936366,2,2021-04-02 05:42:30,2021-04-02 19:17:28,33.377707,-112.100607,33.378714,-112.099119,0.110506643981,Stationary traffic from S 20th Dr to W Park St due to roadwork.,1915.0,W Baseline Rd,L,Phoenix,Maricopa,AZ,85041-6506,US,US/Mountain,KPHX,2021-04-02 05:51:00,73.0,73.0,19.0,28.64,10.0,SE,6.0,0.0,Mostly Cloudy,False,False,False,False,False,False,False,False,False,False,False,False,False,Night,Night,Day,Day
C-4936367,2,2021-12-28 11:47:07,2021-12-28 13:48:56,39.98268,-75.366303,39.983864,-75.37486700000002,0.4607129894919999,Slow traffic on PA-3 from PA-320/N Sproul Rd (W Chester Pike/PA-3) to Bryn Mawr Ave (West Chester Pike/PA-3) due to roadwork.,2717.0,W Chester Pike,R,Broomall,Delaware,PA,19008-1835,US,US/Eastern,KPHL,2021-12-28 11:54:00,48.0,45.0,56.0,29.88,10.0,W,6.0,0.0,Cloudy,False,False,True,False,False,False,False,False,False,False,False,False,False,Day,Day,Day,Day
C-4936369,2,2021-09-28 07:38:00,2021-09-28 10:11:51,33.451764000000004,-112.222361,33.452529,-112.221131,0.0884397464334,Stationary traffic from N 79th Ave to I-10 E due to roadwork.,,W Van Buren St,R,Phoenix,Maricopa,AZ,85043,US,US/Mountain,KGEU,2021-09-28 07:58:00,69.0,69.0,91.0,28.7,10.0,NNW,3.0,0.0,Fair,False,False,False,False,False,False,False,False,False,False,False,False,False,Day,Day,Day,Day
C-4936370,4,2021-06-28 07:29:35,2021-07-05 23:59:00,47.567423,-122.370942,47.566847,-122.370759,0.0407019496506,Closed road from SW Avalon Way to SW Dakota St due to roadwork.,4001.0,30th Ave SW,L,Seattle,King,WA,98126,US,US/Pacific,KBFI,2021-06-28 07:53:00,83.0,83.0,49.0,29.74,10.0,VAR,5.0,0.0,Fair,False,False,True,False,False,False,False,False,False,False,False,False,False,Day,Day,Day,Day
C-4936371,2,2020-05-27 21:16:46,2020-05-28 06:00:00,41.87967,-71.37818,41.82599,-71.41927,4.2694424386000005,Between Roosevelt Ave/Exit 30 and RI-126/Smithfield Ave/Exit 25 - Roadwork. Two lanes closed. Lane blocked.,,I-95 S,R,Pawtucket,Providence,RI,02860,US,US/Eastern,KSFZ,2020-05-27 20:56:00,67.0,67.0,90.0,29.74,10.0,VAR,6.0,0.0,Fair,False,False,False,False,True,False,False,False,False,False,False,False,False,Night,Night,Day,Day
C-4936372,2,2021-07-21 06:00:00,2021-12-18 11:58:30,30.22018,-85.597625,30.21324000000001,-85.607515,0.760660460109,Stationary traffic on US-231 S from CR-390 (US-231) to CR-389/N East Ave (US-231) due to roadwork.,,34th St,R,Panama City,Bay,FL,32404,US,US/Central,KPAM,2021-12-18 11:56:00,75.0,75.0,87.0,30.03,10.0,S,18.0,0.0,Cloudy,False,False,False,False,False,False,False,False,False,False,False,True,False,Day,Day,Day,Day
C-4936373,4,2020-10-03 07:52:35,2020-10-11 06:59:00,33.749733,-117.86351299999998,33.749717,-117.864537,0.0588384316124,Closed road from Mortimer St to E Santa Ana Blvd / French St due to roadwork.,498.0,E 6th St,R,Santa Ana,Orange,CA,92701,US,US/Pacific,KSNA,2020-10-03 07:53:00,65.0,65.0,87.0,29.79,6.0,SSW,5.0,0.0,Mist,False,False,False,False,False,False,True,False,True,True,False,False,False,Day,Day,Day,Day
C-4936374,2,2021-05-28 10:57:30,2021-12-16 20:03:33,41.963857,-88.340474,41.956947,-88.341114,0.478566526322,Stationary traffic from CR-5/Silver Glen Rd (Randall Rd) to Red Gate Rd (Randall Rd) due to roadwork.,,6N568 Randall Rd,L,Saint Charles,Kane,IL,60175,US,US/Central,KDPA,2021-05-28 10:52:00,45.0,37.0,86.0,29.18,6.0,NE,21.0,0.0,Cloudy / Windy,False,False,False,False,False,False,False,False,False,False,False,True,False,Day,Day,Day,Day
C-4936375,2,2019-10-15 04:39:52,2019-10-21 18:00:00,33.673321,-112.013718,,,0.259999990463,Road closed due to construction work on 32nd St both ways from Tonopah Dr to Mohawk Ln.,3199.0,E Mohawk Ln,R,Phoenix,Maricopa,AZ,85050,US,US/Mountain,KDVT,2019-10-15 04:53:00,68.0,68.0,45.0,28.3,10.0,N,8.0,0.0,Fair,False,False,False,False,False,False,False,False,False,True,False,False,False,Night,Night,Night,Night
C-4936376,2,2018-01-29 18:05:04,2018-01-31 06:27:34,39.098604,-94.603449,39.09768,-94.59917,0.2381611465439999,At Genesee St/Exit 1B - Construction work.,,I-670 E,R,Kansas City,Jackson,MO,64102,US,US/Central,KNKA,2018-01-29 19:07:00,,,,,,North,,,,False,False,True,False,False,False,False,False,False,False,False,False,False,Night,Night,Day,Day
C-4936377,2,2021-01-28 12:50:00,2021-01-28 23:38:59,28.26228,-81.486187,28.255342,-81.484276,0.4932764570880001,Slow traffic on US-92 E - US-17 N from Kissimmee to Business Center Ln due to roadwork.,1542.0,S Poinciana Blvd,R,Kissimmee,Osceola,FL,34746,US,US/Eastern,KISM,2021-01-28 12:56:00,63.0,63.0,34.0,30.16,10.0,N,16.0,0.0,Fair,False,False,False,False,False,False,False,False,False,False,False,False,False,Day,Day,Day,Day
C-4936378,3,2019-10-02 10:00:00,2019-10-02 14:00:00,41.414787,-73.410103,,,5.0,Left lane closed due to bridge maintenance work on I-84 Westbound from Exit 9 CT-25 to Exit 8 Newtown Rd.,4.0,Betts Rd,L,Danbury,Fairfield,CT,06810-4134,US,US/Eastern,KDXR,2019-10-02 09:53:00,77.0,77.0,74.0,29.35,10.0,W,9.0,0.0,Fair,False,False,False,False,False,False,False,False,False,False,False,False,False,Day,Day,Day,Day
C-4936379,2,2020-11-05 19:45:00,2020-11-05 23:16:30,40.666355,-73.978711,40.673482,-73.972953,0.577529696881,Slow traffic from 9th St (8th Ave) to Union St (8th Ave) due to roadwork.,801.0,8th Ave,L,Brooklyn,Kings,NY,11215-4106,US,US/Eastern,KJRB,2020-11-05 19:51:00,61.0,61.0,62.0,30.25,10.0,CALM,0.0,0.0,Fair,True,False,True,False,False,False,False,False,False,False,False,True,False,Night,Night,Night,Night
C-4936380,3,2017-09-10 06:30:00,2017-09-10 17:00:00,43.00001500000001,-78.853088,,,0.0,Left lane blocked due to construction on I-290 Eastbound at Exit 2 NY-425 Twin Cities Vietnam Veterans Memorial Hwy.,,Twin Cities Vietnam Veterans Memorial Hwy,R,Tonawanda,Erie,NY,14150,US,US/Eastern,KBUF,2017-09-10 06:54:00,45.0,43.5,93.0,30.48,10.0,SE,3.5,,Partly Cloudy,False,False,False,False,False,False,False,False,False,False,False,False,False,Night,Day,Day,Day
C-4936381,2,2021-12-12 16:12:00,2021-12-12 17:45:00,31.566998,-97.106256,31.57616,-97.112174,0.7225618845690001,Slow traffic on US-77 Bus N - TX-484 Loop W from TX-484 (La Salle Ave) to I-35 Service Rd (La Salle Ave) due to roadwork.,,State Highway Loop 484 W,R,Waco,McLennan,TX,76704,US,US/Central,KCNW,2021-12-12 15:55:00,59.0,59.0,29.0,29.69,10.0,SSE,9.0,,Fair,False,False,False,False,False,False,False,False,False,False,False,False,False,Day,Day,Day,Day
C-4936382,2,2020-09-22 18:54:00,2020-09-23 19:39:30,39.326387,-76.52624399999998,39.314107,-76.533394,0.930568858376,Construction on I-95 SB near MP 62 Allow extra time.,,I-95 S,R,Rosedale,Baltimore County,MD,21237,US,US/Eastern,KMTN,2020-09-22 18:54:00,68.0,68.0,40.0,30.0,10.0,WSW,5.0,0.0,Fair,False,False,False,False,True,False,False,False,False,False,False,False,False,Day,Day,Day,Day
C-4936383,2,2021-02-14 07:27:30,2021-02-14 13:52:14,26.68223900000001,-81.89997199999998,26.681167,-81.90150200000002,0.1200334945659999,Slow traffic on FL-78 - FL-45 - US-41 S from Woodward Ave to Pineapple Ln due to roadwork.,566.0,Pine Island Rd,R,North Fort Myers,Lee,FL,33903-3767,US,US/Eastern,KFMY,2021-02-14 07:53:00,71.0,71.0,96.0,29.92,10.0,S,7.0,0.0,Fair,False,False,False,False,False,False,False,False,False,False,False,False,False,Day,Day,Day,Day
C-4936384,2,2021-01-07 00:35:30,2021-01-07 10:06:43,37.18235,-82.687976,37.180309,-82.68565100000002,0.190440188207,Roadwork on Bear Branch Rd from Cyprus Dr to KY-805.,2689.0,Highway 805,R,Neon,Letcher,KY,41840-9065,US,US/Eastern,KLNP,2021-01-07 00:35:00,30.0,30.0,93.0,27.37,10.0,ENE,3.0,0.0,Cloudy,False,False,False,False,False,False,False,False,False,False,False,False,False,Night,Night,Night,Night
C-4936385,2,2020-09-23 16:00:00,2020-09-24 00:15:00,42.068892,-90.682107,42.068842,-90.684217,0.108278735817,Construction on IA-64 WB near IA-62 Drive with caution.,1148.0,W Platt St,L,Maquoketa,Jackson,IA,52060,US,US/Central,KDBQ,2020-09-23 15:53:00,76.0,76.0,50.0,28.84,10.0,SSW,10.0,0.0,Fair,False,False,False,False,False,False,False,False,False,False,False,False,False,Day,Day,Day,Day
C-4936386,2,2020-09-28 07:00:00,2020-10-27 07:45:00,39.689322,-104.943032,39.689327,-104.938398,0.246383852553,Construction on E FLORIDA AVE EB near S JACKSON ST Expect delays.,1499.0,S Jackson St,R,Denver,Denver,CO,80210-2536,US,US/Mountain,KAPA,2020-09-28 06:56:00,38.0,38.0,70.0,24.5,10.0,SW,3.0,0.0,Partly Cloudy,False,False,False,False,False,False,False,False,False,False,False,False,False,Day,Day,Day,Day
C-4936387,2,2021-10-28 08:01:00,2021-10-28 18:46:00,39.349323,-123.603921,39.349947,-123.604994,0.0717323785996,Construction on CA-20 WB near ROAD 200A Expect long delays.,,Highway 20,R,Comptche,Mendocino,CA,95427,US,US/Pacific,KUKI,2021-10-28 07:56:00,51.0,51.0,92.0,29.54,0.25,CALM,0.0,0.0,Fog,False,False,False,False,False,False,False,False,False,False,False,False,False,Day,Day,Day,Day
C-4936388,2,2021-08-22 13:04:00,2021-08-22 15:40:00,37.597589,-122.060272,37.584625,-122.051032,1.02870700041,Slow traffic on Nimitz Fwy S - I-880 S from Dyer St/Whipple Rd (I-880) to Alvarado Blvd/Fremont Blvd (I-880) due to roadwork.,,I-880 S,R,Union City,Alameda,CA,94587,US,US/Pacific,KHWD,2021-08-22 12:54:00,68.0,68.0,63.0,29.78,10.0,WNW,8.0,0.0,Fair,False,False,False,False,False,False,False,False,False,False,False,False,False,Day,Day,Day,Day
C-4936389,2,2021-08-27 08:59:30,2021-08-27 11:08:53,40.881083,-73.87849399999998,40.882076,-73.88203100000001,0.197096588499,Slow traffic from Bainbridge Ave to Mosholu Pkwy N due to roadwork.,3498.0,Bainbridge Ave,R,Bronx,Bronx,NY,10467-2802,US,US/Eastern,KLGA,2021-08-27 08:51:00,84.0,84.0,67.0,30.04,10.0,WNW,5.0,0.0,Partly Cloudy,False,False,False,False,False,False,False,False,False,False,False,True,False,Day,Day,Day,Day
C-4936390,2,2021-07-23 04:07:42,2021-07-23 05:01:00,36.633389,-121.668839,,,3.79999995232,Intermittent lane closures due to resurfacing work during the night on CA-68 Monterey Salinas Hwy Eastbound from Portola Dr to Spreckels Blvd.,,S Main St,R,Salinas,Monterey,CA,93908,US,US/Pacific,KSNS,2021-07-23 03:53:00,56.0,56.0,84.0,29.94,10.0,SW,5.0,0.0,Cloudy,False,False,False,False,False,False,False,False,False,False,False,False,False,Night,Night,Night,Night
C-4936391,2,2021-05-26 16:44:40,2021-05-26 17:08:58,34.624071,-92.500526,34.62355,-92.499149,0.0861712416696,Slow traffic on AR-183 - AR-5 from Office Park Dr to I-30 W due to roadwork.,5608.0,Highway 5 N,R,Bryant,Saline,AR,72022,US,US/Central,KLIT,2021-05-26 16:53:00,85.0,85.0,57.0,29.8,10.0,SSW,9.0,0.0,Mostly Cloudy,False,False,False,False,False,False,False,False,False,False,False,False,False,Day,Day,Day,Day
C-4936392,4,2019-07-04 21:33:20,2019-07-05 02:31:30,34.05538,-118.24827,34.051938,-118.243018,0.3833385890599999,Closed between Hope St and Alameda St - Closed due to roadwork. Major event.,508.0,W 1st St,R,Los Angeles,Los Angeles,CA,90012-3104,US,US/Pacific,KCQT,2019-07-04 21:52:00,66.0,66.0,75.0,29.75,3.0,VAR,3.0,0.0,Haze,False,False,False,False,False,False,False,False,False,False,False,False,False,Night,Night,Night,Day
C-4936393,2,2020-01-22 16:30:00,2021-01-29 23:30:00,33.613938,-111.916104,33.613943,-111.916941,0.0481622792865999,E REDFIELD RD / N 76TH PL - Construction - EB Redfield Rd thru traffic shifted towards center at 76th St; NB 76th St curb lane restricted at Redfield Rd; SB 76th St thru traffic shifted to NB 76th St left turn lane at Redfield Rd; NB 76th Pl thru traffic shifted towards center at Redfield Rd; SB 76th Pl thru traffic shifted towards center at Redfield Rd; WB Redfield Rd thru traffic shifted towards center at 76th St,7637.0,E Redfield Rd,R,Scottsdale,Maricopa,AZ,85260-3430,US,US/Mountain,KSDL,2020-01-22 16:53:00,62.0,62.0,52.0,28.41,10.0,CALM,0.0,0.0,Fair,False,False,True,False,False,False,False,False,False,False,False,True,False,Day,Day,Day,Day
C-4936394,3,2019-05-03 21:02:44,2019-05-07 21:02:11,39.55224000000001,-119.78776,39.61372,-119.85665,5.61263600216,Between McCarran Blvd/Exit 70 and Lemmon Dr/Exit 74 - Roadwork.,,Martin Luther King Jr Memorial Fwy,R,Reno,Washoe,NV,89512,US,US/Pacific,KRNO,2019-05-03 20:55:00,66.0,66.0,30.0,25.49,10.0,WNW,16.0,0.0,Fair,False,False,False,False,True,False,False,False,False,False,False,False,False,Night,Night,Night,Day
C-4936395,3,2019-06-27 05:19:52,2019-06-27 16:00:00,38.963482,-87.59903,,,15.0900001526,Road closed due to construction work on IL-33 both ways between 1650th St and 750th Ave.,19498.0,E 750th Ave,R,Palestine,Crawford,IL,62451,US,US/Central,KRSV,2019-06-27 05:15:00,67.0,67.0,100.0,29.7,10.0,ESE,3.0,0.0,Fair,False,False,False,False,False,False,False,False,False,False,False,False,False,Night,Day,Day,Day
C-4936396,2,2020-10-21 12:19:00,2020-10-22 00:49:07,26.162898,-80.256866,26.166829,-80.256438,0.272899996047,Queuing traffic on FL-817 from Sunset Strip (FL-817) to FL-816/Oakland Park Blvd (FL-817) due to roadwork.,3038.0,N University Dr,R,Sunrise,Broward,FL,33322-1611,US,US/Eastern,KFXE,2020-10-21 11:53:00,79.0,79.0,84.0,29.97,10.0,E,17.0,0.01,Mostly Cloudy,False,False,True,False,False,False,False,False,False,False,False,True,False,Day,Day,Day,Day
C-4936397,4,2021-10-10 07:00:00,2021-10-10 14:45:00,41.869503,-87.65126500000002,41.869463,-87.655245,0.204796014609,Closed road from S Halsted St (W Taylor St) to S Racine Ave (W Taylor St) due to roadwork.,1003.0,W Taylor St,L,Chicago,Cook,IL,60607-4226,US,US/Central,KMDW,2021-10-10 06:53:00,73.0,73.0,66.0,29.09,10.0,S,12.0,0.0,Mostly Cloudy,True,False,True,False,False,False,False,False,True,False,False,True,False,Day,Day,Day,Day
C-4936398,2,2021-04-23 14:25:04,2021-04-23 18:07:05,40.822226,-73.956103,40.826413,-73.952478,0.345850867933,Slow traffic from W 133rd St (Overpass) (Riverside Dr) to W 158th St (Overpass) (Riverside Dr) due to roadwork.,699.0,W 137th St,R,New York,New York,NY,10031-7804,US,US/Eastern,KNYC,2021-04-23 14:51:00,61.0,61.0,21.0,29.82,10.0,NW,13.0,0.0,Fair,False,False,False,False,False,False,False,False,True,False,False,True,False,Day,Day,Day,Day
C-4936399,2,2021-10-25 08:25:00,2021-10-25 08:48:00,35.332031,-90.772971,35.35857,-90.771903,1.8346578766900004,Slow traffic on AR-1 from AR-364/AR-1 Bus (AR-1) to AR-42/AR-1 (AR-1) due to roadwork.,2772.0,Highway 1,R,Cherry Valley,Cross,AR,72324-8933,US,US/Central,KM19,2021-10-25 07:56:00,58.0,58.0,87.0,29.66,10.0,NW,10.0,0.0,Mostly Cloudy,False,False,False,False,False,False,False,False,False,False,False,False,False,Day,Day,Day,Day
C-4936400,2,2020-12-17 12:03:30,2020-12-17 16:39:30,35.112282,-92.432211,35.111515000000004,-92.438155,0.340111969002,Stationary traffic on US-65 Bus S - AR-287 - US-65 S - US-65 Bus N from Beaverfork Rd/Acklin Gap Rd (US-65) to I-40 (US-65) due to roadwork.,546.0,Skyline Dr,L,Conway,Faulkner,AR,72032-3502,US,US/Central,KLRF,2020-12-17 11:56:00,41.0,41.0,59.0,29.92,10.0,CALM,0.0,0.0,Fair,False,False,False,False,False,False,False,False,False,False,False,False,False,Day,Day,Day,Day
C-4936401,2,2021-07-20 04:01:13,2021-07-20 05:59:00,37.78754,-122.42179099999998,,,1.69000005722,One lane closed due to utility work on US-101 Van Ness Ave both ways from Mcallister St to Sutter St.,1301.0,Van Ness Ave,R,San Francisco,San Francisco,CA,94109-5518,US,US/Pacific,KOAK,2021-07-20 03:53:00,58.0,58.0,84.0,30.02,10.0,CALM,0.0,0.0,Mostly Cloudy,True,False,True,False,False,False,False,False,True,False,False,True,False,Night,Night,Night,Night
C-4936402,2,2021-02-15 06:00:00,2021-08-24 17:08:30,47.642918,-122.302712,47.644703,-122.304469,0.147987480572,Stationary traffic on WA-513 from E Louisa St/24th Ave E (E Montlake Pl E) to WA-520 (Montlake Blvd) due to roadwork.,2563.0,Montlake Pl E,L,Seattle,King,WA,98112,US,US/Pacific,KBFI,2021-08-24 15:53:00,76.0,76.0,35.0,29.93,10.0,NW,8.0,0.0,Partly Cloudy,False,False,False,False,False,False,False,False,True,False,False,False,False,Night,Night,Night,Day
C-4936403,4,2021-07-29 10:03:18,2021-07-29 15:15:18,40.736296,-73.772785,40.739175,-73.76360799999998,0.519990258676,Closed road from Utopia Pkwy (73rd Ave) to Bell Blvd (73rd Ave) due to roadwork.,7151.0,Francis Lewis Blvd,L,Oakland Gardens,Queens,NY,11364,US,US/Eastern,KLGA,2021-07-29 09:51:00,77.0,77.0,66.0,29.98,10.0,S,14.0,0.0,Cloudy,False,False,True,False,False,False,False,False,True,False,False,True,False,Day,Day,Day,Day
C-4936404,2,2020-04-08 15:01:38,2020-04-08 17:00:00,38.2448,-122.03721000000002,38.2448,-122.03721000000002,0.0,At Main St - Entry ramp closed. Construction work.,,State Highway 12,R,Suisun City,Solano,CA,94585,US,US/Pacific,KSUU,2020-04-08 14:58:00,63.0,63.0,65.0,29.85,10.0,SW,8.0,0.0,Partly Cloudy,False,False,False,False,False,False,False,False,False,False,False,False,False,Day,Day,Day,Day
C-4936405,2,2021-09-26 16:24:39,2021-09-26 18:34:01,40.603884,-74.162549,40.607221,-74.161854,0.2334292648449999,Slow traffic from Signs Rd to Saybrook St due to roadwork.,1821.0,Richmond Ave,L,Staten Island,Richmond,NY,10314-3909,US,US/Eastern,KLDJ,2021-09-26 16:15:00,72.0,72.0,35.0,29.87,10.0,WNW,14.0,0.0,Fair,False,False,False,False,False,False,False,False,False,False,False,False,False,Day,Day,Day,Day
C-4936406,2,2020-08-27 13:27:00,2020-08-27 14:29:00,34.628842,-86.895303,34.631409999999995,-86.88649000000002,0.531531505083,Queuing traffic on I-565 from I-65/Exit 1 &amp; 1 (I-565) to Mooresville Rd/Exit 2 (I-565) due to roadwork.,,AL-20 E,R,Tanner,Limestone,AL,35671,US,US/Central,KDCU,2020-08-27 13:53:00,91.0,91.0,57.0,29.37,10.0,SE,8.0,0.0,Fair,False,False,False,False,False,False,False,False,False,False,False,False,False,Day,Day,Day,Day
C-4936407,2,2020-10-07 07:07:30,2020-10-07 21:38:08,34.410839,-119.553215,34.398933,-119.513331,2.41789182757,Roadwork on US-101 from Padaro Ln (US-101) to Linden Ave (US-101).,,US-101 S,R,Carpinteria,Santa Barbara,CA,93013,US,US/Pacific,KSBA,2020-10-07 06:53:00,62.0,62.0,93.0,29.88,0.5,VAR,5.0,0.0,Fog,False,False,False,False,False,False,False,False,False,False,False,False,False,Day,Day,Day,Day
C-4936408,4,2020-04-17 11:46:04,2020-04-21 11:44:25,33.945570000000004,-118.37849,33.94845,-118.37834,0.199174693582,Closed at Arbor Vitae St - Closed due to roadwork.,,W Century Blvd,R,Los Angeles,Los Angeles,CA,90045,US,US/Pacific,KLAX,2020-04-17 11:53:00,64.0,64.0,60.0,29.86,8.0,CALM,0.0,0.0,Mostly Cloudy,False,False,False,False,False,False,False,False,False,False,False,True,False,Day,Day,Day,Day
C-4936409,2,2020-08-31 09:00:00,2020-09-01 07:44:00,44.859592,-93.167144,44.859594,-93.167062,0.0040184090868,Construction on CSAH31 near NORTHLAND DR Expect long delays.,2639.0,Pilot Knob Rd,L,Saint Paul,Dakota,MN,55121-1116,US,US/Central,KMSP,2020-08-31 08:53:00,60.0,60.0,93.0,28.86,10.0,WNW,12.0,0.07,Mostly Cloudy,False,False,False,False,False,False,False,False,False,False,False,False,False,Day,Day,Day,Day
C-4936410,2,2021-06-21 09:00:00,2021-06-21 14:00:00,44.88773,-93.370209,,,0.0,Roadway reduced to one lane due to bridge maintenance work on MN-62 Eastbound at Valley View Rd.,,MN-62 W,R,Minneapolis,Hennepin,MN,55436,US,US/Central,KFCM,2021-06-21 08:53:00,57.0,57.0,64.0,28.95,10.0,NW,14.0,0.0,Fair,False,False,False,False,False,False,False,False,False,False,False,False,False,Day,Day,Day,Day
C-4936411,2,2021-05-09 13:10:03,2021-05-10 05:00:56,29.70629000000001,-95.301965,29.70887,-95.305715,0.287093309958,Roadwork on Woodridge Dr (I-45) from Broad St/Exit 41 (I-45) to I-45 N.,,I-45 N,R,Houston,Harris,TX,77087,US,US/Central,KHOU,2021-05-09 12:53:00,87.0,87.0,59.0,29.82,10.0,S,22.0,0.0,Mostly Cloudy / Windy,False,False,False,False,True,False,False,False,False,False,False,False,False,Day,Day,Day,Day
C-4936412,2,2021-12-08 11:54:00,2021-12-08 14:02:07,41.952509,-87.688337,41.954952,-87.688411,0.168838046216,Stationary traffic from W Addison St (N Western Ave) to W Montrose Ave (N Western Ave) due to roadwork.,3913.0,N Western Ave,R,Chicago,Cook,IL,60618-3724,US,US/Central,KORD,2021-12-08 11:51:00,33.0,28.0,54.0,29.23,10.0,NW,6.0,0.0,Fair,True,False,False,False,False,False,False,False,False,False,False,False,False,Day,Day,Day,Day
C-4936413,2,2021-12-17 09:56:30,2021-12-17 11:58:01,27.841542,-82.685475,27.839578000000003,-82.684097,0.159694485106,Slow traffic on US-19 S from CR-611/49th St (US-19) to FL-694/Gandy Blvd/Park Blvd (US-19) due to roadwork.,7598.0,US Highway 19 N,L,Pinellas Park,Pinellas,FL,33781-2746,US,US/Eastern,KPIE,2021-12-17 09:53:00,74.0,74.0,76.0,30.21,10.0,ESE,12.0,0.0,Fair,False,False,True,False,False,False,False,False,False,False,False,True,False,Day,Day,Day,Day
C-4936414,2,2020-11-21 01:43:02,2020-11-21 02:05:14,40.738601,-73.850735,40.739308,-73.85289499999998,0.123179215188,Slow traffic from Horace Harding Expy to 108th St due to roadwork.,,Waldron St,R,Corona,Queens,NY,11368,US,US/Eastern,KLGA,2020-11-21 01:51:00,59.0,59.0,41.0,30.23,10.0,W,10.0,0.0,Mostly Cloudy,False,False,False,False,False,False,False,False,True,True,False,True,False,Night,Night,Night,Night
C-4936415,2,2020-07-22 07:44:10,2020-07-22 16:29:10,44.210321,-121.41558,44.208984,-121.413967,0.122128129418,Road maintenance operations are occurring. Use caution.,64972.0,Highway 20,R,Bend,Deschutes,OR,97703-9101,US,,,,,,,,,,,,,False,False,False,False,False,False,False,False,False,False,False,False,False,Day,Day,Day,Day
C-4936416,2,2020-09-12 15:04:30,2020-09-13 01:52:32,39.70962100000001,-105.025092,39.711213,-105.026057,0.121367859864,Queuing traffic on CO-26 - CO-88 from W Dakota Ave to S Grove St due to resurfacing work.,388.0,S Federal Blvd,L,Denver,Denver,CO,80219-2936,US,US/Mountain,KAPA,2020-09-12 14:53:00,77.0,77.0,15.0,24.28,10.0,VAR,5.0,0.0,Fair,False,False,False,False,False,False,False,False,False,False,False,False,False,Day,Day,Day,Day
C-4936417,2,2016-10-03 07:00:00,2016-10-03 16:00:00,42.281506,-71.835831,,,0.0,Intermittent lane closures due to resurfacing work on Audubon Rd both ways between Richmond Ave and Flagg St.,60.0,Flagg St,L,Worcester,Worcester,MA,01602-1451,US,US/Eastern,KORH,2016-10-03 07:01:00,52.0,,97.0,29.99,5.0,SW,3.5,,Mostly Cloudy,False,False,False,False,False,False,False,False,False,False,False,False,False,Day,Day,Day,Day
C-4936418,2,2020-08-30 12:39:00,2020-08-30 23:05:10,25.775705,-80.14084100000002,25.774279,-80.14009,0.109045819907,Slow traffic on US-41 S - FL-A1A - FL-907 from 6th St to Lenox Ave due to roadwork.,598.0,Alton Rd,L,Miami Beach,Miami-Dade,FL,33139,US,US/Eastern,KMIA,2020-08-30 12:53:00,92.0,92.0,54.0,29.94,10.0,VAR,6.0,0.0,Mostly Cloudy,True,False,True,False,False,False,False,False,False,False,False,True,False,Day,Day,Day,Day
C-4936419,2,2020-12-22 04:00:00,2020-12-22 14:45:00,40.527051,-74.271537,40.528311,-74.275067,0.204809965474,Construction barrier repairs on NJ 440 southbound CR 653/Amboy Ave (Perth Amboy) 1 Left lane of 3 lanes closed Until 6:00 AM,,NJ-440 S,R,Perth Amboy,Middlesex,NJ,08861,US,US/Eastern,KLDJ,2020-12-22 03:55:00,37.0,32.0,90.0,29.66,4.0,W,6.0,0.0,Cloudy,False,False,False,False,True,False,False,False,False,False,False,False,False,Night,Night,Night,Night
C-4936420,2,2021-06-03 16:39:08,2021-06-03 17:25:49,43.08339,-97.056717,43.083456,-97.022747,1.7142363811,Slow traffic on SD-19 - SD-46 from 455th Ave (SD-46) to SD-19A (SD-46) due to roadwork.,45735.0,SD Highway 46,R,Centerville,Clay,SD,57014-6000,US,US/Central,KYKN,2021-06-03 16:56:00,89.0,89.0,23.0,28.45,10.0,SW,10.0,0.0,Fair,False,False,False,False,False,False,False,False,False,False,False,False,False,Day,Day,Day,Day
C-4936421,4,2020-12-04 07:06:36,2020-12-11 07:59:00,39.836796,-104.709759,39.836786,-104.709298,0.0244680779318,Closed road at Calawba Ct due to roadwork.,7728.0,Calawba Ct,L,Denver,Denver,CO,80249-6392,US,US/Mountain,KDEN,2020-12-04 06:53:00,32.0,23.0,45.0,24.75,10.0,SW,12.0,0.0,Fair,False,False,False,False,False,False,False,False,False,False,False,False,False,Day,Day,Day,Day
C-4936422,2,2021-08-23 19:11:30,2021-08-23 19:32:00,34.014354,-118.079832,34.0106,-118.080993,0.267764185328,Stationary traffic on CA-19 from San Gabriel Blvd/Durfee Ave (Rosemead Blvd) to Beverly Blvd (Rosemead Blvd) due to roadwork.,4139.0,Rosemead Blvd,L,Pico Rivera,Los Angeles,CA,90660-1736,US,US/Pacific,KEMT,2021-08-23 18:53:00,75.0,75.0,62.0,29.72,10.0,VAR,3.0,0.0,Fair,False,False,False,False,False,False,False,False,False,False,False,True,False,Day,Day,Day,Day
C-4936423,4,2016-08-15 21:00:00,2016-08-16 05:00:00,47.295796,-122.254381,47.29573,-122.25854,0.194944605006,Closed at 15th St SW - Closed due to roadwork.,1623.0,15th St SW,R,Auburn,King,WA,98001-6567,US,US/Pacific,KSEA,2016-08-15 20:53:00,73.0,,59.0,30.08,10.0,NW,4.6,,Clear,False,False,False,False,False,False,False,False,False,False,False,True,False,Night,Night,Day,Day
C-4936424,2,2021-03-10 04:33:30,2021-03-10 09:27:01,40.761155,-73.96758100000002,40.758989,-73.96244300000002,0.307737326236,Slow traffic from Park Ave to 1st Ave due to roadwork.,159.0,E 58th St,L,New York,New York,NY,10022-1232,US,US/Eastern,KNYC,2021-03-10 04:51:00,43.0,40.0,49.0,30.42,10.0,ENE,5.0,0.0,Fair,True,False,False,False,False,False,False,False,True,False,False,True,False,Night,Night,Night,Night
C-4936425,2,2021-10-14 16:14:33,2021-10-14 16:27:32,42.649468,-74.635061,42.640848,-74.650763,0.995766948202,Stationary traffic on I-88 W from NY-10/NY-7/Exit 20 (I-88) to Hollenbeck Rd/Exit 19 (I-88) due to roadwork.,,I-88 W,R,Richmondville,Schoharie,NY,12149,US,US/Eastern,KSCH,2021-10-14 15:46:00,75.0,75.0,61.0,29.51,15.0,W,7.0,0.0,Mostly Cloudy,False,False,False,False,False,False,False,False,False,False,False,False,False,Day,Day,Day,Day
C-4936426,2,2021-08-10 09:54:00,2021-08-10 10:31:30,42.183938,-97.510303,42.196339,-97.52329,1.08451150899,Stationary traffic on NE-13 from 850th Rd (NE-13) to NE-98 (NE-13) due to roadwork.,85248.0,Highway 13,R,Pierce,Pierce,NE,68767-4000,US,US/Central,KOFK,2021-08-10 09:56:00,80.0,80.0,48.0,28.24,10.0,N,9.0,0.0,Fair,False,False,False,False,False,False,False,False,False,False,False,False,False,Day,Day,Day,Day
C-4936427,2,2020-12-07 17:05:00,2020-12-07 17:33:00,36.925962,-97.056434,36.919305,-97.056139,0.460243440409,Stationary traffic on US-77 S - US-77 N from OK--KS State Border (US-77) to N3330 Rd/South St (US-77) due to roadwork.,8805.0,N Highway 77,L,Newkirk,Kay,OK,74647-7380,US,US/Central,KPNC,2020-12-07 16:53:00,58.0,58.0,42.0,29.04,10.0,W,5.0,0.0,Fair,False,False,False,False,False,False,False,False,False,False,False,False,False,Day,Day,Day,Day
C-4936428,1,2020-05-14 11:03:46,2020-05-15 11:03:46,38.8898,-76.96758,38.8898,-76.96758,0.0,At Independence Ave - New roadwork layout.,,E Capitol St NE,R,Washington,District of Columbia,DC,20002,US,US/Eastern,KDCA,2020-05-14 10:52:00,61.0,61.0,67.0,30.28,10.0,S,8.0,0.0,Cloudy,False,False,False,False,False,False,False,False,False,False,False,False,False,Day,Day,Day,Day
C-4936429,2,2021-08-19 11:10:30,2021-08-19 11:36:30,33.402738,-117.083705,33.408845,-117.085019,0.42870602125,Stationary traffic from CA-76 (Pala Temecula Rd/Pala Mission Rd/CR-16) to CA-79 (Pechanga Pkwy/CR-16) due to roadwork.,38635.0,Pala Temecula Rd,R,Pala,San Diego,CA,92059,US,US/Pacific,KF70,2021-08-19 11:15:00,75.0,75.0,50.0,28.53,10.0,CALM,0.0,0.0,Partly Cloudy,False,False,False,False,False,False,False,False,False,False,False,False,False,Day,Day,Day,Day
C-4936430,2,2021-11-28 15:14:30,2021-11-28 17:17:23,44.565226,-123.254212,44.56727,-123.259415,0.292473942989,Slow traffic on US-20 W - OR-34 from OR-34 Byp/Corvallis-Newport Hwy (Corvallis-Lebanon Hwy/OR-34) to OR-99W/NW 3rd St/NW 4th St (US-20/OR-34) due to roadwork.,28290.0,Highway 34,L,Corvallis,Linn,OR,97333-2231,US,US/Pacific,KCVO,2021-11-28 14:56:00,60.0,60.0,69.0,29.94,10.0,SW,9.0,0.0,Fair,False,False,True,False,False,False,False,False,False,False,False,True,False,Day,Day,Day,Day
C-4936431,2,2021-11-15 17:07:33,2021-11-15 17:27:33,32.781334,-96.564781,32.784803000000004,-96.562589,0.271407370368,Slow traffic on TX-352 from Clay Rd (TX-352) to US-80 (TX-352) due to roadwork.,,Stone Canyon Dr,R,Sunnyvale,Dallas,TX,75182,US,US/Central,KHQZ,2021-11-15 16:50:00,77.0,77.0,50.0,29.55,10.0,SSE,9.0,0.0,Fair,False,False,False,False,False,False,False,False,False,False,False,False,False,Day,Day,Day,Day
C-4936432,2,2018-12-03 07:00:00,2018-12-03 17:00:00,39.77969,-104.971915,39.77969,-104.97191,0.000265495049948,At Brighton Blvd/Exit 275 - Construction work.,1622.0,E 46th Ave,R,Denver,Denver,CO,80216,US,US/Mountain,KBJC,2018-12-03 06:45:00,24.8,,86.0,30.1,12.0,Calm,,,Overcast,False,False,False,False,False,False,False,False,False,False,False,False,False,Night,Day,Day,Day
C-4936433,2,2021-03-12 09:30:00,2021-11-19 02:58:47,39.755798,-83.308328,39.698088,-83.452908,8.65602011895,Construction on I-71 SB near OH-323 Drive with caution.,,I-71 S,R,Mount Sterling,Madison,OH,43143,US,US/Eastern,KTZR,2021-06-07 18:47:00,79.0,79.0,74.0,28.99,10.0,SW,7.0,0.0,Mostly Cloudy,False,False,False,False,True,False,False,False,False,False,False,False,False,Day,Day,Day,Day
C-4936434,2,2020-07-17 09:42:13,2020-07-17 11:57:00,40.904205,-73.87831700000002,40.905632,-73.878072,0.0994229351436,Road maintenance operations slow moving maintenance vehicle right lane closed on I-87 - NYS Thruway northbound from Major Deegan Expressway (I-87) NYC Line to before Exit 7 (I-87) - Ardsley (Rte 9A) until 4:12 AM 07/17/2020. [CARS CAD-201990028],,Major Deegan Expy N,R,Bronx,Bronx,NY,10471,US,US/Eastern,KLGA,2020-07-17 09:51:00,74.0,74.0,82.0,30.11,10.0,S,9.0,0.0,Cloudy,False,False,False,False,True,False,False,False,False,False,False,False,False,Day,Day,Day,Day
C-4936435,2,2021-07-11 22:34:00,2021-07-11 22:54:00,40.355987,-75.948786,40.366094,-75.93986899999999,0.841459042302,Slow traffic on PA-12 E from PA-183/Schuylkill Ave (Warren St Byp/PA-12) to River Rd (Warren St Byp/PA-12) due to roadwork.,,Warren Street Byp E,R,Reading,Berks,PA,19601,US,US/Eastern,KRDG,2021-07-11 22:54:00,79.0,79.0,79.0,29.67,10.0,WNW,23.0,0.0,Mostly Cloudy / Windy,False,False,False,False,True,False,False,False,False,False,False,False,False,Night,Night,Night,Night
C-4936436,2,2021-01-05 14:57:30,2021-01-06 05:50:30,39.034677,-95.605318,39.032569,-95.593846,0.632696548656,Slow traffic on I-70 E from Rice Rd/Exit 365 (I-70) to Toll Plaza 183 (I-70) due to roadwork.,,I-70 E,R,Tecumseh,Shawnee,KS,66542,US,US/Central,KTOP,2021-01-05 14:53:00,49.0,43.0,48.0,29.08,10.0,SSE,16.0,0.0,Fair,False,False,False,False,False,False,False,False,False,False,False,False,False,Day,Day,Day,Day
C-4936437,2,2021-06-16 19:30:39,2021-06-16 21:34:44,25.900711,-80.18695799999998,25.898501,-80.18685699999997,0.152825440896,Slow traffic on FL-915 from NE 159th St (NE 6th Ave/FL-915) to W Dixie Hwy/NE 125th St (NE 6th Ave/FL-915) due to roadwork.,13642.0,NE 6th Ave,L,North Miami,Miami-Dade,FL,33161-3721,US,US/Eastern,KOPF,2021-06-16 19:53:00,76.0,76.0,87.0,30.06,6.0,WNW,5.0,0.04,Light Rain,False,False,True,False,False,False,False,False,False,False,False,True,False,Day,Day,Day,Day
C-4936438,2,2020-09-18 16:18:30,2020-09-18 16:51:30,40.755981,-73.97694,40.75791,-73.981535,0.274953162352,Slow traffic from Madison Ave to Avenue of the Americas due to roadwork.,,E 47th St,R,New York,New York,NY,10017,US,US/Eastern,KNYC,2020-09-18 15:51:00,69.0,69.0,45.0,29.86,10.0,N,9.0,0.0,Fair,True,False,False,False,False,False,True,False,True,False,False,True,False,Day,Day,Day,Day
C-4936439,2,2016-09-30 19:01:03,2016-10-01 01:01:03,41.88696,-87.62725,41.88696,-87.633938,0.344014202546,Between State St and Wells St - Construction work.,24.0,E Wacker Dr,L,Chicago,Cook,IL,60601,US,US/Central,KMDW,2016-09-30 18:53:00,64.0,,80.0,30.06,10.0,ENE,13.8,0.01,Light Rain,True,False,True,False,False,False,True,False,True,False,False,True,False,Night,Night,Day,Day
C-4936440,2,2020-12-09 13:30:30,2020-12-10 02:07:54,39.70098,-86.408443,39.702302,-86.402745,0.31637366777,Stationary traffic on US-40 W - US-40 E from Wedding Ln to W Carter St due to roadwork.,504.0,W Main St,L,Plainfield,Hendricks,IN,46168,US,US/Eastern,KIND,2020-12-09 13:54:00,53.0,53.0,48.0,29.02,10.0,WSW,16.0,0.0,Fair,False,False,False,False,False,False,False,False,False,False,False,False,False,Day,Day,Day,Day
C-4936441,2,2021-02-09 15:36:00,2021-02-10 17:46:09,38.803638,-94.705038,38.803655,-94.667982,1.99525728757,Roadwork from S Switzer St (W 179th St) to Metcalf Ave (W 179th St).,17899.0,Switzer Rd,R,Overland Park,Johnson,KS,66221-6463,US,US/Central,KOJC,2021-02-09 15:53:00,13.0,2.0,81.0,29.14,7.0,NNE,8.0,0.0,Cloudy,False,False,False,False,False,False,False,False,False,False,False,False,False,Day,Day,Day,Day
C-4936442,2,2017-04-19 10:00:00,2017-04-19 16:00:00,41.593395,-93.620323,,,0.13,Intermittent lane closures due to construction work on 2nd Ave Northbound between Center St and Crocker St.,101.0,Crocker St,R,Des Moines,Polk,IA,50309,US,US/Central,KDSM,2017-04-19 09:54:00,52.0,,83.0,30.03,10.0,East,5.8,,Overcast,False,False,True,False,False,False,False,False,False,False,False,True,False,Day,Day,Day,Day
C-4936443,2,2020-11-10 12:43:47,2020-11-12 16:23:25,42.604304,-87.926507,42.615048,-87.95231700000002,1.5078690650400002,Roadwork on 38th St (Burlington Rd) from I-94/US-41 (Burlington Rd) to WI-142 - County Hwy-S.,9608.0,38th St,R,Kenosha,Kenosha,WI,53144-7419,US,US/Central,KENW,2020-11-10 12:53:00,75.0,75.0,60.0,28.85,10.0,SSW,25.0,0.0,Mostly Cloudy / Windy,False,False,False,False,False,False,False,False,False,False,False,False,False,Day,Day,Day,Day
C-4936444,2,2021-06-09 03:13:42,2021-06-09 18:47:05,29.537032,-95.1385,29.577142,-95.17536,3.54797331325,Roadwork on Bay Area Blvd exit [26] from Clear Lake City Blvd to I-45 N - I-45 S.,,I-45 S,R,Webster,Harris,TX,77598,US,US/Central,KEFD,2021-06-09 02:50:00,82.0,82.0,89.0,29.92,7.0,SSE,10.0,,Mostly Cloudy,False,False,False,False,False,False,False,False,False,False,False,False,False,Night,Night,Night,Night
C-4936445,2,2021-01-31 14:30:30,2021-02-01 03:41:18,25.791034,-80.141189,25.792028,-80.141903,0.0817910371538,Slow traffic on FL-907 from Lincoln Rd to Dade Blvd / Bay Rd due to roadwork.,1659.0,Alton Rd,R,Miami Beach,Miami-Dade,FL,33139-2427,US,US/Eastern,KMIA,2021-01-31 14:53:00,76.0,76.0,62.0,30.03,10.0,SE,13.0,0.0,Mostly Cloudy,True,False,False,False,False,False,False,False,False,True,True,False,False,Day,Day,Day,Day
C-4936446,2,2021-10-26 19:30:00,2021-10-26 21:39:26,25.94053,-80.205015,25.942583,-80.206066,0.156157652266,Slow traffic on FL-7 - US-441 N - FL-860 from NW 181st St to NW 2nd Ct due to roadwork.,,NW 2nd Ave,R,Miami,Miami-Dade,FL,33169,US,US/Eastern,KHWO,2021-10-26 19:53:00,84.0,84.0,65.0,29.84,10.0,W,8.0,0.0,Fair,False,False,False,False,False,False,False,False,True,False,False,False,False,Night,Night,Day,Day
C-4936447,2,2017-04-20 09:02:07,2017-04-20 15:02:07,28.66206,-81.38728,28.662019,-81.39309300000002,0.352436122802,Between I-4/SR-400 and Westmonte Dr - Construction work.,,E Altamonte Dr,R,Altamonte Springs,Seminole,FL,32701,US,US/Eastern,KORL,2017-04-20 08:53:00,72.0,,68.0,30.2,10.0,East,6.9,,Clear,False,False,False,False,False,False,False,False,False,False,False,False,False,Day,Day,Day,Day
C-4936448,2,2020-08-28 19:12:06,2020-08-31 08:58:51,30.535778000000004,-95.31364,30.526392,-95.356054,2.60619636212,Roadwork on TX-150 from FM-945 (TX-150) to FM-1097 Rd (TX-150).,1.0,M Scott Rd,L,New Waverly,San Jacinto,TX,77358-5770,US,US/Central,KCXO,2020-08-28 18:53:00,79.0,79.0,84.0,29.62,10.0,NW,8.0,0.0,Thunder in the Vicinity,False,False,False,False,False,False,False,False,False,False,False,False,False,Day,Day,Day,Day
C-4936449,3,2018-09-28 10:21:07,2018-11-15 17:00:00,41.629616,-93.543671,,,0.0,Road closed due to construction work on Douglas Ave both ways from Fourmile Creek to US-6 Hubbell Ave.,3725.0,Hubbell Ave,R,Des Moines,Polk,IA,50317-4344,US,US/Central,KIKV,2018-09-28 10:15:00,48.2,,76.0,30.24,10.0,NNW,6.9,,Light Rain,False,False,False,False,False,False,False,False,False,False,False,False,False,Day,Day,Day,Day
C-4936450,4,2020-07-21 04:01:00,2020-07-21 12:59:00,34.064129,-118.459213,34.048659,-118.448183,1.2414296888,Full closure due to Core Drilling between San Diego Freeway Route 405 and Wilshire Blvd,,I-405 S,R,Los Angeles,Los Angeles,CA,90049,US,US/Pacific,KSMO,2020-07-21 03:51:00,61.0,61.0,90.0,29.67,10.0,CALM,0.0,0.0,Fair,False,False,False,False,False,False,False,False,False,False,False,False,False,Night,Night,Night,Night
C-4936451,2,2021-04-14 18:56:30,2021-04-15 02:14:30,39.835592,-75.41980600000002,39.838662,-75.410156,0.554179142758,Slow traffic on Vietnam Veterans Memorial Hwy - I-95 N from PA-452/Market St/Exit 2 (I-95) to US-322/Exit 2/Exit 3 (I-95) due to roadwork.,,I-95 N,R,Marcus Hook,Delaware,PA,19061,US,US/Eastern,KPHL,2021-04-14 18:54:00,58.0,58.0,84.0,29.93,10.0,SSW,12.0,0.0,Cloudy,False,False,False,False,False,False,False,False,False,False,False,False,False,Day,Day,Day,Day
C-4936452,2,2021-03-15 08:00:00,2021-12-31 05:45:00,40.577477,-75.856527,40.573808,-75.87326999999998,0.91450682796,Slow traffic on US-22 W - I-78 W from PA-737/Exit 40 (I-78) to PA-143/Exit 35 (I-78) due to roadwork.,,I-78 W,R,Lenhartsville,Berks,PA,19534,US,US/Eastern,KRDG,2021-06-24 11:54:00,77.0,77.0,33.0,29.98,10.0,SE,8.0,0.0,Partly Cloudy,False,False,False,False,False,False,False,False,False,False,False,False,False,Day,Day,Day,Day
C-4936453,2,2021-06-01 03:54:46,2021-06-05 01:58:24,41.185486,-88.326468,41.185632,-88.319788,0.3474956829039999,Roadwork on IL-47 (Gardner Rd) from I-55 (E Gardner Rd) to County Hwy-7000 - County Hwy-29 - IL-53.,662.0,W Main St,R,Gardner,Grundy,IL,60424,US,US/Central,KC09,2021-06-01 03:55:00,48.0,48.0,99.0,29.58,3.0,CALM,0.0,0.0,Partly Cloudy,False,False,False,False,False,False,False,False,False,False,False,False,False,Night,Night,Night,Day
C-4936454,2,2020-10-03 20:40:34,2020-10-03 22:18:30,39.362264,-104.86698,39.289004,-104.89587,5.29206113997,Slow traffic on I-25 from Plum Creek Pkwy/Exit 181 (I-25) to Tomah Road/Exit 174 (I-25) due to roadwork.,,I-25 S,R,Castle Rock,Douglas,CO,80104,US,US/Mountain,KMNH,2020-10-03 20:35:00,43.0,39.0,57.0,23.36,10.0,S,7.0,0.0,Fair,False,False,False,False,False,False,False,False,False,False,False,False,False,Night,Night,Night,Night
C-4936455,4,2019-02-20 06:50:03,2019-02-20 11:49:57,41.684471,-93.156735,41.681184,-93.093207,3.28600143343,Closed at IA-14/Exit 164 - Closed due to roadwork. Traffic problem.,,I-80 W,R,Newton,Jasper,IA,50208,US,US/Central,KTNU,2019-02-20 06:55:00,26.6,16.2,100.0,29.75,1.5,SE,11.5,,Mist,False,False,False,False,False,False,False,False,False,False,False,False,False,Night,Day,Day,Day
C-4936456,2,2020-08-30 10:42:30,2020-08-30 11:42:00,42.402469,-71.03673,42.389492,-71.042773,0.948164286168,Slow traffic on US-1 from Webster Ave (US-1) to Chestnut St (US-1) due to roadwork.,,Adamski Memorial Hwy S,R,Chelsea,Suffolk,MA,02150,US,US/Eastern,KBOS,2020-08-30 10:54:00,74.0,74.0,46.0,29.57,10.0,WNW,18.0,0.0,Partly Cloudy,False,False,True,False,True,False,False,False,False,False,False,False,False,Day,Day,Day,Day
C-4936457,2,2021-08-13 17:15:30,2021-08-13 17:35:30,33.423032,-111.92637,33.422018,-111.927399,0.0918135538408,Slow traffic from E 6th St to E Alpha Dr due to roadwork.,666.0,S Rural Rd,R,Tempe,Maricopa,AZ,85281,US,US/Mountain,KPHX,2021-08-13 16:51:00,97.0,97.0,36.0,28.71,10.0,VAR,3.0,0.0,Mostly Cloudy,False,False,True,False,False,False,False,False,False,False,False,False,False,Day,Day,Day,Day
C-4936458,2,2020-04-16 00:00:01,2020-04-18 00:00:01,37.73519,-104.82824,37.73524000000001,-104.82827,0.00382386719519,At Butte Rd/Exit 59 - Construction work.,,I-25 N,R,Walsenburg,Huerfano,CO,81089,US,US/Mountain,KVTP,2020-04-16 00:06:00,25.0,17.0,54.0,20.48,10.0,E,7.0,0.0,Fair,False,False,False,False,False,False,False,False,False,False,False,False,False,Night,Night,Night,Night
C-4936459,2,2021-10-20 12:14:01,2021-10-20 14:00:00,40.754103,-73.99208,40.75792,-73.989316,0.300799721308,Stationary traffic from 34th St (8th Ave) to 56th St (8th Ave) due to roadwork.,536.0,8th Ave,R,New York,New York,NY,10018-4306,US,US/Eastern,KNYC,2021-10-20 11:51:00,69.0,69.0,51.0,29.92,10.0,VAR,3.0,0.0,Fair,True,False,True,False,False,False,True,False,True,False,False,True,False,Day,Day,Day,Day
C-4936460,2,2021-03-31 05:21:00,2021-03-31 20:27:07,39.738476,-105.05321200000002,39.740414,-105.0538,0.137499065175,Slow traffic on US-40 W - CO-95 - I-70 Bus W from W 14th Ave to N Ames St due to roadwork.,5200.0,W 14th Ave,L,Denver,Jefferson,CO,80214,US,US/Mountain,KBJC,2021-03-31 05:15:00,27.0,27.0,51.0,24.6,10.0,CALM,0.0,0.0,Fair,False,False,True,False,False,False,False,False,True,False,False,True,False,Night,Night,Night,Day
C-4936461,2,2020-07-15 13:30:00,2020-07-16 14:17:25,40.863737,-79.44246700000002,40.818105,-79.489745,4.0059691625300005,Construction on PA-28 WB near PINE FURNACE RD Allow extra time.,1150.0,State Route 28 and 66,R,Templeton,Armstrong,PA,16259-1518,US,US/Eastern,KIDI,2020-07-15 13:35:00,82.0,82.0,45.0,28.69,9.0,S,7.0,0.0,Fair,False,False,False,False,False,False,False,False,False,False,False,True,False,Day,Day,Day,Day
C-4936462,2,2021-05-26 14:38:00,2021-05-26 15:48:30,38.28667700000001,-112.650793,38.253307,-112.650223,2.30585472575,Slow traffic on I-15 S from I-15/W 1400 N/Exit 112 (I-15) to I-15/Exit 109 (I-15) due to roadwork.,,I-15 S,R,Beaver,Beaver,UT,84713,US,US/Mountain,KMLF,2021-05-26 14:52:00,77.0,77.0,19.0,24.98,10.0,VAR,5.0,0.0,Fair,False,False,False,False,True,False,False,False,False,False,False,False,False,Day,Day,Day,Day
C-4936463,2,2020-06-24 06:01:00,2020-06-24 18:01:00,40.59024,-122.4665,40.58279,-122.43092,1.93658919135,Between 0.3 mi west of Iron Mountain Rd and 0.3 mi west of Redding - Construction work.,16036.0,Eureka Way,L,Redding,Shasta,CA,96001,US,US/Pacific,KRDD,2020-06-24 05:53:00,75.0,,73.0,29.25,10.0,,,0.0,Fair,False,False,False,False,False,False,False,False,False,False,False,False,False,Day,Day,Day,Day
C-4936464,2,2020-09-09 14:36:00,2020-09-09 22:50:00,33.480342,-112.025865,33.480297,-112.030188,0.249150080729,Stationary traffic from N 32nd St (E Thomas Rd) to N 24th St (E Thomas Rd) due to roadwork.,2900.0,N 26th St,L,Phoenix,Maricopa,AZ,85016-7920,US,US/Mountain,KPHX,2020-09-09 14:51:00,87.0,87.0,15.0,28.55,10.0,VAR,6.0,0.0,Fair,False,False,True,False,False,False,False,False,True,True,False,True,False,Day,Day,Day,Day
C-4936465,2,2021-03-18 11:04:00,2021-03-18 11:24:00,40.073164,-80.717457,40.071578,-80.730998,0.72428411533,Slow traffic on I-70 W - US-40 W from US-250/Exit 1B (I-70) to Zane St/Exit 0 (I-70) due to roadwork.,,I-70 W,R,Wheeling,Ohio,WV,26003,US,US/Eastern,KHLG,2021-03-18 10:53:00,48.0,43.0,89.0,28.42,3.0,NE,10.0,0.04,Light Rain,False,False,False,False,True,False,False,False,False,False,False,False,False,Day,Day,Day,Day
C-4936466,4,2020-08-29 05:46:37,2020-09-08 06:59:00,42.956848,-85.63399,42.955821,-85.632224,0.1140618022169999,Closed road from Robinson Rd SE to Wealthy St SE / Norwood Ave SE due to roadwork.,1438.0,Lake Dr SE,R,Grand Rapids,Kent,MI,49506-1746,US,US/Eastern,KGRR,2020-08-29 05:53:00,68.0,68.0,84.0,28.65,10.0,WNW,18.0,0.0,Mostly Cloudy,True,False,True,False,False,True,False,False,False,False,False,False,False,Night,Night,Night,Day
C-4936467,2,2021-10-26 04:50:54,2021-12-28 02:57:52,35.025276,-79.760029,35.024164,-79.758999,0.0964339309836999,Roadwork from Haywood Cemetery Rd to McDowell Ln.,598.0,Lee Thee Church Rd,R,Ellerbe,Richmond,NC,28338-9122,US,US/Eastern,KRCZ,2021-10-26 03:55:00,65.0,65.0,96.0,29.3,10.0,W,7.0,0.0,Cloudy,False,False,False,False,False,False,False,False,False,False,False,False,False,Night,Night,Night,Night
C-4936468,2,2019-08-28 11:36:09,2019-09-01 11:37:28,41.747171,-77.30154499999998,41.749598,-77.299267,0.204717613078,Between Broughton Hollow Rd and US-6 - Roadwork. Open.,,Kimball St,R,Wellsboro,Tioga,PA,16901,US,US/Eastern,KELM,2019-08-28 11:39:00,68.0,68.0,96.0,28.87,1.0,WSW,5.0,0.16,Rain,True,False,True,False,False,False,False,False,False,False,False,True,False,Day,Day,Day,Day
C-4936469,2,2021-12-30 14:45:18,2021-12-30 17:01:34,26.166064,-80.156391,26.166989,-80.154526,0.132137580746,Slow traffic on FL-816 - FL-845 from I-95 N to NW 33rd St due to roadwork.,1018.0,W Oakland Park Blvd,L,Wilton Manors,Broward,FL,33311-1604,US,US/Eastern,KFXE,2021-12-30 14:53:00,83.0,83.0,63.0,30.03,10.0,SSE,10.0,0.0,Partly Cloudy,False,False,False,False,False,False,False,False,False,False,False,False,False,Day,Day,Day,Day
C-4936470,2,2021-09-30 16:49:00,2021-09-30 19:04:00,41.864516,-88.2793,41.868911,-88.280273,0.307764919191,Stationary traffic from Douglas Rd to Cleanwater Dr due to roadwork.,1339.0,N Kirk Rd,R,Batavia,Kane,IL,60510-1442,US,US/Central,KDPA,2021-09-30 16:52:00,80.0,80.0,36.0,29.31,10.0,E,13.0,0.0,Fair,False,False,False,False,False,False,False,False,False,False,False,False,False,Day,Day,Day,Day
C-4936471,2,2021-10-05 11:29:00,2021-10-05 13:41:06,33.59605,-112.013171,33.597769,-112.013076,0.118897361124,Slow traffic from E Shea Blvd (N 32nd St) to E Thunderbird Rd (N 32nd St) due to roadwork.,12038.0,N 32nd St,R,Phoenix,Maricopa,AZ,85028-1219,US,US/Mountain,KSDL,2021-10-05 11:53:00,82.0,82.0,45.0,28.3,10.0,CALM,0.0,0.0,Light Rain,True,False,False,False,False,False,False,False,True,False,False,False,False,Day,Day,Day,Day
C-4936472,2,2021-09-29 06:13:00,2021-10-29 23:59:59,35.307358,-86.543262,35.294266,-86.547111,0.930245116359,State Route 10 both directions in Lincoln County - Between GILL RD. and MOORE-LINCOLN COUNTY LINE resurfacing work will cause temporary lane closures on weekdays. This work is expected to be completed by 10/31/2021.,1201.0,Shelbyville Hwy,R,Petersburg,Lincoln,TN,37144-7661,US,US/Central,KTHA,2021-09-29 06:15:00,59.0,59.0,94.0,28.89,8.0,CALM,0.0,0.0,Fair,False,False,False,False,False,False,False,False,False,False,False,False,False,Night,Night,Day,Day
C-4936473,2,2021-07-02 17:36:30,2021-07-02 18:01:31,40.791581,-73.948727,40.790931,-73.94721700000002,0.0908633946518,Slow traffic from Park Ave to Lexington Ave due to roadwork.,1401.0,Park Ave,R,New York,New York,NY,10029-4565,US,US/Eastern,KNYC,2021-07-02 17:51:00,74.0,74.0,82.0,29.6,10.0,CALM,0.0,0.0,Mostly Cloudy,True,False,True,False,False,False,False,False,False,False,False,True,False,Day,Day,Day,Day
C-4936474,2,2020-09-16 15:27:30,2020-09-17 08:44:35,43.559406,-91.229063,43.571736,-91.228243,0.8529104148569999,Roadwork on WI-35 from WI-82/Main St (WI-35) to Main St (WI-35).,,E400 Gianoli Rd,R,Genoa,Vernon,WI,54632-8843,US,US/Central,KY51,2020-09-16 15:35:00,69.0,69.0,67.0,28.68,10.0,NNW,10.0,0.0,Mostly Cloudy,False,False,False,False,False,False,False,False,False,False,False,False,False,Day,Day,Day,Day
C-4936475,2,2021-04-28 07:32:30,2021-11-30 15:45:00,40.208741,-75.51863,40.211232,-75.52764300000003,0.505761304682,Construction on LINFIELD RD near ROYERSFORD RD Drive with caution.,396.0,Royersford Rd,R,Royersford,Montgomery,PA,19468-1831,US,US/Eastern,KPTW,2021-11-30 08:54:00,34.0,28.0,67.0,29.71,10.0,SW,7.0,0.0,Cloudy,False,False,False,False,False,False,False,False,False,False,False,True,False,Day,Day,Day,Day
C-4936476,2,2016-04-14 08:01:13,2016-04-14 14:01:13,41.50108,-81.61617,41.50143,-81.63291,0.866580740874,At 100th St - Construction work.,10290.0,Carnegie Ave,R,Cleveland,Cuyahoga,OH,44106-2131,US,US/Eastern,KBKL,2016-04-14 07:53:00,37.9,32.7,73.0,30.34,10.0,ENE,6.9,,Clear,False,False,False,False,False,False,False,False,False,False,False,False,False,Day,Day,Day,Day
C-4936477,2,2021-08-31 06:01:00,2021-08-31 18:44:00,37.384752,-119.736224,37.384557,-119.735586,0.037528188803,Construction on CA-49 SB near METCALF GAP RD Expect long delays.,43818.0,Highway 49,L,Ahwahnee,Madera,CA,93601-9717,US,US/Pacific,KMAE,2021-08-31 05:53:00,65.0,65.0,58.0,29.38,10.0,CALM,0.0,0.0,Fair,False,False,False,False,False,False,False,False,False,False,False,False,False,Night,Night,Day,Day
C-4936478,2,2017-10-05 09:23:55,2017-10-05 15:28:07,40.478559,-79.265629,40.500804,-79.272399,1.5776155858899998,At PA-286 - Roadwork. Lane blocked.,5545.0,Route 217 Hwy N,R,Blairsville,Indiana,PA,15717-5321,US,US/Eastern,KLBE,2017-10-05 09:50:00,68.0,,64.0,30.23,10.0,SSW,13.8,,Mostly Cloudy,False,False,False,False,False,False,False,False,False,False,False,False,False,Day,Day,Day,Day
C-4936479,2,2020-10-08 08:01:30,2020-10-08 20:07:06,41.715454,-86.339129,41.742736,-86.338418,1.88536316908,Roadwork on US-31 from US-20 (US-31) to IN--MI State Border (US-31).,,Saint Joseph Valley Pkwy,R,South Bend,St. Joseph,IN,46628,US,US/Eastern,KSBN,2020-10-08 07:54:00,43.0,43.0,89.0,29.3,10.0,CALM,0.0,0.0,Fair,False,False,False,False,False,False,False,False,False,False,False,False,False,Day,Day,Day,Day
C-4936480,2,2021-08-31 16:27:01,2021-08-31 17:51:51,40.75485,-73.98410200000002,40.75792,-73.989316,0.345632605203,Slow traffic from Avenue of the Americas to W 43rd St due to roadwork.,99.0,W 42nd St,R,New York,New York,NY,10036-8004,US,US/Eastern,KNYC,2021-08-31 16:51:00,80.0,80.0,47.0,29.68,10.0,VAR,5.0,0.0,Fair,True,False,True,False,False,False,True,False,True,False,False,True,False,Day,Day,Day,Day
C-4936481,4,2019-04-30 12:45:07,2020-02-16 17:13:25,39.06384,-94.50016,39.06384,-94.50016,0.0,At Manchester Tfwy/Exit 7 - Entry ramp closed. Construction work.,,I-70 W,R,Kansas City,Jackson,MO,64129,US,US/Central,KMKC,2019-05-01 05:29:00,57.0,57.0,93.0,29.07,10.0,CALM,0.0,0.0,Cloudy,False,False,False,False,False,False,False,False,False,False,False,False,False,Day,Day,Day,Day
C-4936482,2,2020-12-22 17:13:00,2020-12-23 00:45:00,41.322405,-72.885124,41.322598,-72.884824,0.0204975558687,Road Work on I-91 Northbound between Exits 6 and 8 in effect today until 4:00 pm. The right lane is closed. Reported Tuesday December 22 at 9:13 am.,,I-91 N,R,New Haven,New Haven,CT,06513,US,US/Eastern,KHVN,2020-12-22 16:53:00,45.0,38.0,49.0,29.89,10.0,NW,15.0,0.0,Mostly Cloudy,False,False,False,False,True,False,False,False,False,False,False,False,False,Night,Night,Day,Day
C-4936483,2,2020-05-15 08:36:00,2020-05-15 14:36:00,43.08255,-70.75146,43.08255,-70.75146,0.0,At New Hampshire/Maine State Line - Bridge maintenance work.,76.0,Newmarch St,L,Kittery,York,ME,03904-1619,US,US/Eastern,KPSM,2020-05-15 08:56:00,61.0,61.0,66.0,29.84,10.0,SW,5.0,0.0,Mostly Cloudy,True,False,False,False,False,False,False,False,False,False,False,False,False,Day,Day,Day,Day
C-4936484,2,2021-05-29 15:47:36,2021-05-29 17:13:03,29.228755,-81.026151,29.229859,-81.016313,0.59807557916,Stationary traffic on FL-430 from Mason Ave / N Beach St to Ora St due to roadwork.,,Oakridge Blvd,R,Daytona Beach,Volusia,FL,32117,US,US/Eastern,KDAB,2021-05-29 15:53:00,92.0,92.0,34.0,29.82,10.0,SW,8.0,0.0,Mostly Cloudy,False,False,False,False,False,False,False,False,False,False,False,False,False,Day,Day,Day,Day
C-4936485,2,2020-11-10 15:46:00,2020-11-12 18:48:10,48.426246,-107.169329,48.451891,-107.214505,2.7253794802,Roadwork on Cut Across Rd (US-2) from US-191/Central Ave (US-2) to US-2 W - US-2 E.,50914.0,US Highway 2,R,Hinsdale,Valley,MT,59241,US,US/Mountain,KGGW,2020-11-10 15:53:00,26.0,26.0,78.0,27.27,10.0,SSW,3.0,0.0,Cloudy,False,False,False,False,False,False,False,False,False,False,False,False,False,Day,Day,Day,Day
C-4936486,2,2021-10-16 19:27:00,2021-10-16 22:59:48,41.957995,-87.6885,41.961328,-87.689719,0.238653236728,Stationary traffic from W Berteau Ave to N Artesian Ave due to roadwork.,4209.0,N Western Ave,L,Chicago,Cook,IL,60618-2815,US,US/Central,KORD,2021-10-16 19:51:00,53.0,53.0,50.0,29.33,10.0,W,7.0,0.0,Fair,False,False,False,False,False,False,False,False,True,False,False,False,False,Night,Night,Night,Day
C-4936487,2,2020-02-10 07:01:00,2020-02-10 15:01:00,40.76871,-122.31598,40.81205,-122.32077,3.00497388145,Between 0.4 mi south of Turntable Bay Rd and 0.4 mi north of O'Brien Rd - Maintenance work.,,I-5 N,R,Lakehead,Shasta,CA,96051,US,US/Pacific,KO86,2020-02-10 06:55:00,27.0,21.0,86.0,27.71,10.0,WNW,5.0,0.0,Fair,False,False,False,False,False,False,False,False,False,False,False,False,False,Night,Day,Day,Day
C-4936488,2,2021-10-25 02:43:08,2021-11-01 00:00:35,37.57793,-121.970118,37.59848,-121.922058,2.98996021109,Roadwork on Mission Blvd (Niles Canyon Rd/CA-84) from Pleasanton Sunol Rd/Paloma Rd (Niles Canyon Rd/CA-84) to CA-84.,203.0,Old Canyon Rd,L,Fremont,Alameda,CA,94536-1724,US,US/Pacific,KPAO,2021-10-25 06:47:00,55.0,55.0,94.0,29.7,6.0,VAR,3.0,,Rain,False,False,True,False,False,False,True,False,False,False,False,False,False,Night,Night,Night,Night
C-4936489,4,2021-08-27 11:31:42,2021-09-03 23:59:00,42.379361,-71.187426,42.378712,-71.187629,0.0460230616242,Closed road from Belmont St (Waverley Ave) to US-20/Main St (Waverley Ave) due to roadwork.,285.0,Waverley Ave,R,Watertown,Middlesex,MA,02472-3241,US,US/Eastern,KBED,2021-08-27 11:51:00,89.0,89.0,52.0,29.93,10.0,NNW,7.0,0.0,Fair,False,False,True,False,False,False,False,False,False,False,False,False,False,Day,Day,Day,Day
C-4936490,2,2020-02-25 00:00:00,2021-03-13 23:59:59,40.21267,-74.01454,40.21267,-74.01454,0.0,At CR-16/Asbury Ave - Construction work.,47.0,S Main St,R,Neptune,Monmouth,NJ,07753-5032,US,US/Eastern,KBLM,2020-02-25 00:56:00,46.0,44.0,83.0,29.76,10.0,SSW,5.0,0.0,Fair,False,False,False,False,False,False,False,False,False,False,False,False,False,Night,Night,Night,Night
C-4936491,2,2021-10-27 11:57:00,2021-10-27 14:13:44,40.760735,-111.887036,40.759569,-111.888307,0.104474690287,Slow traffic on UT-186 - US-89 N - US-89 S from S 200 E to E 500 S due to roadwork.,137.0,E 400 S,L,Salt Lake City,Salt Lake,UT,84111,US,US/Mountain,KSLC,2021-10-27 11:54:00,51.0,51.0,52.0,25.94,10.0,SSE,9.0,0.0,Mostly Cloudy,False,False,True,False,False,False,False,False,False,False,False,False,False,Day,Day,Day,Day
C-4936492,3,2019-01-14 06:06:53,2019-01-14 07:36:10,32.73214,-97.320847,,,0.0,Three lanes closed due to construction work on I-35 Southbound at US-287-BR Rosedale St.,1186.0,South Fwy,R,Fort Worth,Tarrant,TX,76104-5064,US,US/Central,KFTW,2019-01-14 05:53:00,34.0,28.0,85.0,30.48,10.0,NW,6.9,,Overcast,False,False,False,False,False,False,False,False,False,False,False,False,False,Night,Night,Night,Day
C-4936493,2,2019-08-14 06:00:00,2019-08-14 20:30:00,39.789745,-104.41443,39.781818,-104.41441,0.547704566157,At CO-36/Colfax Ave - Maintenance work.,5199.0,Highway 79,L,Bennett,Adams,CO,80102-8947,US,US/Mountain,KFTG,2019-08-14 06:32:00,61.0,61.0,85.0,24.71,10.0,S,10.0,0.0,Fair,False,False,False,False,False,False,False,False,False,False,False,False,False,Night,Day,Day,Day
C-4936494,2,2021-07-08 14:41:54,2021-09-11 09:06:30,40.717333,-73.831211,40.716095,-73.824988,0.3369306493550001,Slow traffic on Grand Central Pkwy E from 69th Rd/Jewel Ave/Exit 11 (Grand Central Pkwy) to Jackie Robinson Pkwy/Union Tpke/Exit 13/Exit 14 (Grand Central Pkwy) due to roadwork.,,Grand Central Pkwy E,R,Forest Hills,Queens,NY,11375,US,US/Eastern,KLGA,2021-09-11 08:51:00,70.0,70.0,49.0,30.17,10.0,NNW,3.0,0.0,Fair,False,False,False,False,False,False,False,False,False,False,False,False,False,Day,Day,Day,Day
C-4936495,2,2021-06-16 20:15:30,2021-06-16 20:57:30,29.147899,-97.80994,29.133705,-97.790775,1.51639286669,Slow traffic on TX-119 from FM-1347 (TX-119) to TX-80 (TX-119) due to roadwork.,,State Highway 119,R,Gillett,Karnes,TX,78116,US,US/Central,KT20,2021-06-16 20:15:00,88.0,88.0,62.0,29.59,10.0,CALM,0.0,0.0,Fair,False,False,False,False,False,False,False,False,False,False,False,False,False,Day,Day,Day,Day
C-4936496,2,2020-06-01 07:30:00,2020-06-05 19:00:00,40.98291,-73.86657,40.98323,-73.86646,0.0228421985724,At Ashford Ave/Exit 17 - Roadwork.,,Saw Mill River Pkwy S,R,Hastings on Hudson,Westchester,NY,10706,US,US/Eastern,KHPN,2020-06-02 07:56:00,59.0,59.0,55.0,29.58,10.0,W,5.0,0.0,Fair,False,False,True,False,False,False,False,False,False,False,False,False,False,Day,Day,Day,Day
C-4936497,2,2019-06-19 07:00:00,2019-06-19 17:00:00,40.593552,-105.00146,40.58452,-105.00145,0.624051985946,At CO-14/Mulberry St/Exit 269 - Construction work.,,I-25 S,R,Fort Collins,Larimer,CO,80524,US,US/Mountain,KFNL,2019-06-19 07:56:00,61.0,61.0,67.0,24.97,10.0,S,9.0,0.0,Partly Cloudy,False,False,False,False,True,False,False,False,False,False,False,False,False,Day,Day,Day,Day
C-4936498,2,2021-12-08 08:43:45,2021-12-08 10:49:31,26.273849,-80.188261,26.27503,-80.186258,0.148520086831,Slow traffic on FL-834 from Fishermans Dr to Coral Tree Ter / Coral Tree Cir due to roadwork.,4710.0,W Sample Rd,R,Pompano Beach,Broward,FL,33063,US,US/Eastern,KFXE,2021-12-08 08:53:00,73.0,73.0,81.0,30.09,10.0,CALM,0.0,0.0,Fair,False,False,False,False,False,False,False,False,False,False,False,False,False,Day,Day,Day,Day
C-4936499,2,2021-12-12 18:23:30,2021-12-12 20:27:45,39.763723,-86.34074,39.763699,-86.33254000000002,0.4355161212899999,Slow traffic on US-36 E - US-36 W from IN-267 (US-36) to Raceway Rd (Rockville Rd/US-36) due to roadwork.,10269.0,E US Highway 36,R,Avon,Hendricks,IN,46123-7985,US,US/Eastern,KIND,2021-12-12 17:54:00,41.0,35.0,49.0,29.38,10.0,S,10.0,0.0,Partly Cloudy,False,False,False,False,False,False,False,False,False,False,False,True,False,Night,Night,Day,Day
C-4936500,2,2021-10-19 14:21:30,2021-10-19 16:23:30,40.556966,-75.99798,40.555481,-76.002252,0.246615984977,Stationary traffic on PA-61 at I-78 W due to roadwork.,,US-22 E,R,Hamburg,Berks,PA,19526,US,US/Eastern,KRDG,2021-10-19 13:54:00,68.0,68.0,42.0,29.66,10.0,W,17.0,0.0,Fair,False,False,False,False,False,False,False,False,False,False,False,False,False,Day,Day,Day,Day
C-4936501,2,2020-11-14 15:27:00,2020-11-15 02:34:39,35.19774,-111.649929,35.198606,-111.65113999999998,0.0908580815397,Stationary traffic on US-180 E - I-40 Bus Loop E - I-40 Bus Loop W - US-180 W from Enterprise Rd (I-40 Bus/US-89/E Santa Fe Ave/US-180) to W Columbus Ave (N Humphreys St/US-180) due to roadwork.,72.0,W Route 66,R,Flagstaff,Coconino,AZ,86001-5541,US,US/Mountain,KFLG,2020-11-14 14:57:00,53.0,53.0,14.0,23.3,10.0,VAR,6.0,0.0,Fair,False,False,True,False,False,False,False,False,False,False,False,True,False,Day,Day,Day,Day
C-4936502,2,2020-06-08 07:48:02,2020-11-15 17:00:00,42.772678000000006,-83.238831,,,7.110000133510001,Right lane closed due to construction work on M-24 Lapeer Rd Southbound from Harriet St to Goldengate Ave.,722.0,S Lapeer Rd,R,Lake Orion,Oakland,MI,48362-2977,US,US/Eastern,KPTK,2020-06-08 07:53:00,58.0,58.0,62.0,29.05,10.0,ESE,5.0,0.0,Fair,False,False,False,False,False,False,False,False,False,False,False,False,False,Day,Day,Day,Day
C-4936503,3,2018-07-18 05:59:58,2018-07-18 07:59:34,41.4644,-81.99619,41.46452,-82.005714,0.49318718372,At OH-83/Exit 153 - Roadwork.,,OH-2 W,R,Avon,Lorain,OH,44011,US,US/Eastern,KCLE,2018-07-18 05:51:00,66.9,,70.0,30.06,10.0,North,6.9,,Partly Cloudy,False,False,False,False,False,False,False,False,False,False,False,False,False,Night,Day,Day,Day
C-4936504,2,2021-04-09 02:38:00,2021-04-09 03:23:30,39.980672,-75.103617,39.988662,-75.08812900000002,0.988469662918,Slow traffic on The Officers O'Hanlon and Lorenzo Memorial Hwy - I-95 N from Girard Ave/Exit 23 (I-95) to Aramingo Ave/Richmond St (I-95) due to roadwork.,,I-95 N,R,Philadelphia,Philadelphia,PA,19134,US,US/Eastern,KPNE,2021-04-09 02:54:00,50.0,50.0,77.0,30.0,10.0,SE,5.0,0.0,Fair,False,False,False,False,False,False,False,False,False,False,False,False,False,Night,Night,Night,Night
C-4936505,2,2021-05-07 07:27:00,2021-05-07 16:08:11,34.037711,-118.005265,34.038803,-118.002169,0.192651471301,Incident on WORKMAN MILL RD near 60FWY Allow extra time.,968.0,Workman Mill Rd,L,Whittier,Los Angeles,CA,90601,US,US/Pacific,KEMT,2021-05-07 07:53:00,63.0,63.0,72.0,29.92,10.0,S,5.0,0.0,Cloudy,False,False,False,False,False,False,False,False,True,False,False,True,False,Day,Day,Day,Day
C-4936506,2,2021-02-16 05:41:49,2021-02-16 19:08:41,32.168494,-95.848878,32.170474,-95.837608,0.673184363977,Roadwork on FM-59 (TX-7 Loop) from TX-19/TX-19 Bus/S Palestine St (TX-7 Loop) to TX-7 Loop - FM-317.,,State Loop 7,R,Athens,Henderson,TX,75751,US,US/Central,KF44,2021-02-16 05:35:00,-4.0,-4.0,85.0,29.78,10.0,CALM,0.0,0.0,Fair,False,False,False,False,False,False,False,False,False,False,False,False,False,Night,Night,Night,Night
C-4936507,3,2021-03-31 05:31:35,2021-04-07 06:00:00,39.244362,-104.87899,,,0.879999995232,Entry ramp to I-25 Northbound from E Upper Lake Gulch Rd closed due to long-term construction. Detour in operation - Access northbound I-25 from the new Spruce Mountain Road bridge.,,I-25 N,R,Castle Rock,Douglas,CO,80104,US,US/Mountain,KMNH,2021-03-31 05:35:00,19.0,11.0,74.0,23.32,10.0,SSW,6.0,0.0,Fair,False,False,False,False,False,False,False,False,False,False,False,False,False,Night,Night,Night,Day
C-4936508,2,2021-12-11 18:28:30,2021-12-11 20:33:11,40.742699,-73.914098,40.743101,-73.91680799999997,0.144557529185,Slow traffic on NY-25 from 58th St (Queens Blvd/NY-25) to 39th St (Queens Blvd/NY-25) due to roadwork.,,Queens Blvd,R,Woodside,Queens,NY,11377,US,US/Eastern,KLGA,2021-12-11 18:51:00,65.0,65.0,73.0,29.56,10.0,S,15.0,0.0,Cloudy,True,False,False,False,False,False,False,False,True,False,False,False,False,Night,Night,Night,Night
C-4936509,2,2021-11-03 09:30:00,2021-11-06 05:45:00,33.377564,-112.147647,33.377681,-112.147647,0.00808393008714,Construction on 41ST AVE near 43RD AVE Allow extra time.,10500.0,S 41st Ave,L,Laveen,Maricopa,AZ,85339,US,US/Mountain,KPHX,2021-11-03 09:51:00,67.0,67.0,34.0,28.87,10.0,E,8.0,0.0,Fair,False,False,True,False,False,False,False,False,True,False,False,True,False,Day,Day,Day,Day
C-4936510,3,2016-07-24 09:55:33,2016-11-01 17:00:00,39.36359,-85.51592,39.45338,-85.62935,8.66925480604,Between IN-3/Exit 134 and Decatur/Shelby County Line - Roadwork in the emergency lane.,,I-74 W,R,Greensburg,Decatur,IN,47240,US,US/Eastern,KBAK,2016-07-24 09:45:00,80.6,,89.0,30.02,10.0,SSE,3.5,,Mostly Cloudy,False,False,False,False,False,False,False,False,False,False,False,False,False,Day,Day,Day,Day
C-4936511,1,2020-05-18 08:58:27,2020-05-18 15:00:00,38.40745,-76.95333000000002,38.40731,-76.95345999999998,0.0119628318453,At US-301/Blue Star Meml Hwy/Crain Hwy - Roadwork. Single alternate lane traffic.,11100.0,Crain Hwy,R,Newburg,Charles,MD,20664-2116,US,US/Eastern,KNYG,2020-05-18 08:56:00,58.0,58.0,93.0,30.05,7.0,NE,13.0,0.0,Cloudy,False,False,False,False,False,False,False,False,False,False,False,True,False,Day,Day,Day,Day
C-4936512,2,2020-12-17 18:21:01,2020-12-18 01:56:12,42.155326,-87.954657,42.153503,-87.955437,0.1321418725009999,Stationary traffic on County Hwy-W17 - County Hwy-73 from Deerfield Pkwy (Weiland Rd) to IL-83/McHenry Rd (Weiland Rd) due to roadwork.,188.0,N Weiland Rd,L,Buffalo Grove,Lake,IL,60089-7047,US,US/Central,KPWK,2020-12-17 17:52:00,34.0,34.0,56.0,29.49,10.0,CALM,0.0,0.0,Cloudy,False,False,False,False,False,False,False,False,False,False,False,False,False,Night,Night,Night,Night
C-4936513,2,2021-03-12 05:29:30,2021-12-17 18:51:00,25.883468,-80.122384,25.887831,-80.12321800000002,0.305879874827,Slow traffic on FL-A1A from FL-934/71st St (FL-A1A) to FL-826/Ocean Blvd/163rd St (FL-A1A) due to roadwork.,9399.0,Collins Ave,R,Surfside,Miami-Dade,FL,33154-2608,US,US/Eastern,KOPF,2021-05-24 05:53:00,68.0,68.0,76.0,30.13,10.0,CALM,0.0,0.0,Fair,False,False,True,False,False,False,False,False,False,False,False,True,False,Night,Night,Night,Day
C-4936514,3,2017-11-16 02:01:00,2017-11-16 06:00:00,41.08795900000001,-73.457001,,,1.42999994755,Right and center lane closed due to construction work on I-95 Northbound from Exit 12 CT-136 Tokeneke Rd to Exit 13 US-1 Post Rd.,,I-95 N,R,Darien,Fairfield,CT,06820,US,US/Eastern,KHPN,2017-11-16 01:56:00,48.0,,74.0,30.0,10.0,SE,11.5,,Mostly Cloudy,False,False,False,False,False,False,False,False,False,False,False,False,False,Night,Night,Night,Night
C-4936515,2,2020-10-07 20:00:00,2020-10-08 06:00:00,41.156898,-73.760727,,,8.31999969482,Intermittent lane closures due to maintenance work on NY-120 King St both ways from Nanny Hagen Rd to Ridgewood Ter.,199.0,Ridgewood Ter,L,Chappaqua,Westchester,NY,10514-3550,US,US/Eastern,KHPN,2020-10-07 19:56:00,58.0,58.0,62.0,29.25,10.0,NW,12.0,0.0,Fair,False,False,False,False,False,False,False,False,False,False,False,False,False,Night,Night,Night,Night
C-4936516,3,2020-12-31 00:00:00,2020-12-31 06:30:00,39.954151,-75.177818,,,0.300000011921,Road closed due to construction work on PA-3 Market St Eastbound from Schuylkill Ave to 23rd St.,1.0,N 23rd St,R,Philadelphia,Philadelphia,PA,19103,US,US/Eastern,KPHL,2020-12-31 00:21:00,45.0,39.0,65.0,30.04,10.0,SSW,14.0,0.0,Cloudy,True,False,True,False,False,False,False,False,False,False,False,True,False,Night,Night,Night,Night
C-4936517,2,2017-12-20 02:07:59,2017-12-20 04:00:00,47.239277,-122.407204,,,0.0,Intermittent lane closures due to construction during the night on WA-167 Bay St Northbound at I-5.,,I-5 N,R,Tacoma,Pierce,WA,98404,US,US/Pacific,KTCM,2017-12-20 01:58:00,37.4,33.8,100.0,29.85,10.0,SW,4.6,0.0,Overcast,False,False,False,False,False,False,False,False,False,False,False,False,False,Night,Night,Night,Night
C-4936518,3,2017-03-16 22:50:18,2017-03-17 04:50:18,32.76736,-97.30831,32.76988,-97.29833,0.605397741506,At Riverside Dr - Construction work.,,TX-121 N,R,Fort Worth,Tarrant,TX,76111,US,US/Central,KFWD,,,,,,,,,,,False,False,False,False,False,False,False,False,False,False,False,False,False,Night,Night,Night,Night
C-4936519,2,2020-09-24 20:58:30,2020-09-24 21:52:30,40.52356,-75.518087,40.518684,-75.521591,0.383890062775,Stationary traffic on PA-29 from I-476 (Chestnut St/PA-29) to PA-100/Kings Hwy (Chestnut St/PA-29) due to roadwork.,3868.0,Chestnut St,R,Emmaus,Lehigh,PA,18049-1847,US,US/Eastern,KXLL,2020-09-24 20:55:00,63.0,63.0,88.0,29.6,10.0,SW,3.0,0.0,Fair,True,False,False,False,False,False,False,False,False,False,False,True,False,Night,Night,Night,Night
C-4936520,2,2020-10-30 20:32:30,2020-10-30 21:15:30,33.970899,-88.46340699999998,33.967835,-88.459405,0.312099542104,Stationary traffic on US-278 from MS-25/S Main St (US-278) to Harmony Rd (US-278) due to roadwork.,1416.0,Highway 278 E,L,Amory,Monroe,MS,38821-5914,US,US/Central,KM40,2020-10-30 20:56:00,45.0,45.0,90.0,30.02,10.0,CALM,0.0,0.0,Fair,False,False,False,False,False,False,False,False,False,False,False,False,False,Night,Night,Night,Night
C-4936521,2,2021-07-20 23:06:00,2021-07-20 23:20:00,41.883521,-87.646048,41.87155,-87.645286,0.828045773181,Slow traffic on I-94 E - I-90 E - Kennedy Expy E from Randolph St/Exit 51B (I-90/I-94) to Taylor St/Exit 52A (I-90/I-94) due to roadwork.,,I-90 E,R,Chicago,Cook,IL,60661,US,US/Central,KMDW,2021-07-20 22:53:00,71.0,71.0,68.0,29.41,8.0,NE,10.0,0.0,Fair,False,False,False,False,False,False,False,False,False,False,False,False,False,Night,Night,Night,Night
C-4936522,2,2021-03-13 05:30:00,2021-11-10 21:28:33,42.050466,-122.607008,42.073067,-122.605424,1.56369288443,Slow traffic on Pacific Highway 1 N - I-5 N - OR-99 N from OR-99/Exit 1 (I-5) to Old Siskiyou Hwy/Exit 6 (I-5) due to roadwork.,,I-5 N,R,Ashland,Jackson,OR,97520,US,US/Pacific,KMFR,2021-05-12 06:53:00,50.0,50.0,61.0,28.66,10.0,CALM,0.0,0.0,Fair,False,False,False,False,False,False,False,False,False,False,False,False,False,Night,Night,Day,Day
C-4936523,2,2021-06-29 09:07:13,2021-06-30 09:52:24,41.051179,-97.598232,41.017149,-97.597629,2.35145909138,Construction on US-81 SB near COUNTY ROAD 121 Allow extra time.,12134.0,Highway 81,L,Benedict,Polk,NE,68316,US,US/Central,KJYR,2021-06-29 09:15:00,70.0,70.0,88.0,28.39,10.0,CALM,0.0,0.0,Fair,False,False,False,False,False,False,False,False,False,False,False,False,False,Day,Day,Day,Day
C-4936524,2,2020-08-31 16:29:00,2020-09-01 00:27:34,39.620187,-86.479831,39.61249,-86.479773,0.531821009957,Slow traffic on IN-39 from US-40/Cumberland St (Morgan St/IN-39) to I-70 (IN-39) due to roadwork.,,Innovation Blvd,R,Clayton,Hendricks,IN,46118,US,US/Eastern,KIND,2020-08-31 16:54:00,81.0,81.0,62.0,28.94,10.0,SSE,5.0,0.0,Mostly Cloudy,False,False,False,False,False,False,False,False,False,False,False,False,False,Day,Day,Day,Day
C-4936525,2,2021-03-10 03:11:00,2021-12-22 13:37:00,45.459073,-98.485201,45.45899,-98.479353,0.283472229095,Stationary traffic on US-12 E - US-12 W from S 2nd St (US-12) to CR-12/S Roosevelt St (US-12) due to roadwork.,576.0,S Washington St,L,Aberdeen,Brown,SD,57401-6025,US,US/Central,KABR,2021-08-26 16:53:00,68.0,68.0,68.0,28.63,10.0,ENE,10.0,0.0,Cloudy,False,False,True,False,False,False,False,False,False,False,False,True,False,Night,Night,Night,Night
C-4936526,2,2020-04-10 08:00:00,2020-04-10 15:00:00,40.84377,-99.98641,40.69186,-99.40886,31.9930858934,Between NE-47/Exit 211 and US-183/Exit 257 - Road marking work.,,I-80 E,R,Cozad,Dawson,NE,69130,US,US/Central,KLXN,2020-04-10 07:55:00,29.0,18.0,65.0,27.6,10.0,S,14.0,0.0,Partly Cloudy,False,False,False,False,False,False,False,False,False,False,False,False,False,Day,Day,Day,Day
C-4936527,2,2021-06-22 09:00:00,2021-06-22 15:00:00,33.833686,-84.340232,33.827571,-84.329714,0.7368458879449999,Lane closed on GA-42 from Roxboro Rd (N Druid Hills Rd NE) to GA-42/Briarcliff Rd (N Druid Hills Rd NE) due to roadwork.,,N Druid Hills Rd NE,R,Atlanta,DeKalb,GA,30329,US,US/Eastern,KPDK,2021-06-22 08:53:00,70.0,70.0,97.0,28.87,10.0,SW,7.0,0.0,Cloudy,False,False,False,False,False,False,False,False,True,False,False,True,False,Day,Day,Day,Day
C-4936528,2,2017-11-09 07:00:00,2017-11-13 18:01:00,40.546505,-105.040047,,,0.0,Intermittent lane closures due to paving repairs and maintenance work on Sombrero Ln both ways at Sagebrush Dr.,3032.0,Sagebrush Dr,L,Fort Collins,Larimer,CO,80525-2483,US,US/Mountain,KFNL,2017-11-09 06:56:00,28.0,21.7,81.0,30.3,10.0,SE,5.8,,Overcast,False,False,False,False,False,False,False,False,False,False,False,False,False,Day,Day,Day,Day
C-4936529,2,2021-12-20 17:38:30,2021-12-31 14:00:33,33.509021999999995,-112.218753,33.508042,-112.220467,0.119729934188,Stationary traffic from N 73rd Ave to W Highland Ave due to roadwork.,7408.0,W Camelback Rd,R,Glendale,Maricopa,AZ,85303-6114,US,US/Mountain,KGEU,2021-12-20 17:58:00,62.0,62.0,31.0,28.95,10.0,CALM,0.0,0.0,Fair,False,False,False,False,False,False,False,False,False,False,False,False,False,Night,Day,Day,Day
C-4936530,2,2021-05-14 19:15:56,2021-05-15 01:14:00,35.129815,-81.547523,35.137387,-81.516813,1.81243417782,Slow traffic on I-85 N from SC-5/Exit 99 (I-85) to SC-198/Exit 102 (I-85) due to roadwork.,,I-85 N,R,Blacksburg,Cherokee,SC,29702,US,US/Eastern,KEHO,2021-05-14 14:55:00,67.0,67.0,28.0,29.35,10.0,CALM,0.0,0.0,Mostly Cloudy,False,False,False,False,False,False,False,False,False,False,False,False,False,Day,Day,Day,Day
C-4936531,2,2021-08-16 15:05:14,2021-08-16 17:09:23,27.892375,-82.78703,27.894562,-82.786007,0.1635114487109999,Slow traffic on FL-688 - US-19 Alt N - FL-595 from Lark Dr to Honeyvine Mobile Home Park due to roadwork.,13213.0,Seminole Blvd,L,Largo,Pinellas,FL,33773,US,US/Eastern,KPIE,2021-08-16 14:53:00,88.0,88.0,63.0,29.92,10.0,SW,13.0,0.0,Thunder in the Vicinity,False,False,False,False,False,False,False,False,True,False,False,False,False,Day,Day,Day,Day
C-4936532,2,2021-08-02 06:29:00,2021-08-02 08:08:30,41.971726,-87.764139,41.980154,-87.802734,2.06621867016,Slow traffic on I-90 W - Kennedy Expy W from Lawrence Ave/Exit 84 (I-90) to IL-43/Harlem Ave (I-90) due to roadwork.,,I-90 W,R,Chicago,Cook,IL,60630,US,US/Central,KORD,2021-08-02 06:51:00,63.0,63.0,84.0,29.44,10.0,NNW,5.0,0.0,Fair,False,False,False,False,False,False,False,False,False,False,False,False,False,Day,Day,Day,Day
C-4936533,2,2020-11-18 13:10:30,2020-11-18 18:47:00,40.165146,-76.158392,40.163354,-76.151584,0.380195784719,Slow traffic on US-322 E - US-322 W from State St (Main St/US-322) to US-222 (Main St/28th Division Hwy/US-322) due to roadwork.,847.0,E Main St,R,Ephrata,Lancaster,PA,17522-2545,US,US/Eastern,KLNS,2020-11-18 12:53:00,40.0,31.0,40.0,30.06,10.0,NNW,16.0,0.0,Fair,False,False,False,False,False,False,False,False,False,False,False,False,False,Day,Day,Day,Day
C-4936534,2,2020-07-15 05:01:00,2020-07-15 13:46:00,34.068785,-118.463333,34.064125,-118.459213,0.399093891912,Construction on I-405 SB near MONTANA AVE Expect delays.,,I-405 S,R,Los Angeles,Los Angeles,CA,90049,US,US/Pacific,KSMO,2020-07-15 04:51:00,65.0,65.0,81.0,29.75,10.0,CALM,0.0,0.0,Cloudy,False,False,False,False,False,False,False,False,False,False,False,False,False,Night,Night,Day,Day
C-4936535,2,2021-06-14 12:15:25,2021-06-14 12:44:17,40.797255,-73.970014,40.794692,-73.971875,0.202077127186,Slow traffic from W 110th St (Broadway) to W 96th St (Broadway) due to roadwork.,223.0,W 100th St,R,New York,New York,NY,10025-5331,US,US/Eastern,KNYC,2021-06-14 12:13:00,68.0,68.0,90.0,29.76,10.0,VAR,5.0,0.0,Cloudy,True,False,True,False,False,False,True,False,True,False,False,True,False,Day,Day,Day,Day
C-4936536,2,2021-09-01 12:21:00,2021-09-01 12:42:00,38.592517,-121.224891,38.59147,-121.250391,1.37899935993,Slow traffic from Grant Line Rd (White Rock Rd) to Sunrise Blvd (White Rock Rd) due to roadwork.,12051.0,White Rock Rd,L,Rancho Cordova,Sacramento,CA,95742,US,US/Pacific,KMHR,2021-09-01 12:15:00,72.0,72.0,46.0,29.68,10.0,SW,13.0,,Fair,False,False,False,False,False,False,False,False,False,False,False,False,False,Day,Day,Day,Day
C-4936537,2,2021-02-02 14:09:00,2021-02-03 03:07:36,25.731311,-80.255682,25.735146,-80.25066600000002,0.409488137497,Stationary traffic on US-1 N - FL-5 from Grand Ave (US-1) to FL-976/30th St/Bird Rd (US-1) due to roadwork.,3798.0,S Dixie Hwy,L,Miami,Miami-Dade,FL,33133-4309,US,US/Eastern,KMIA,2021-02-02 13:53:00,64.0,64.0,38.0,29.92,10.0,W,17.0,0.0,Fair,False,False,True,False,False,False,False,False,False,False,False,True,False,Day,Day,Day,Day
C-4936538,2,2020-10-12 20:46:00,2020-10-13 01:01:38,30.063673,-81.872665,30.06283,-81.874227,0.110077720713,Stationary traffic on FL-21 from FL-220 A (FL-21) to FL-218 (FL-21) due to roadwork.,2654.0,Blanding Blvd,L,Middleburg,Clay,FL,32068-9106,US,US/Eastern,KVQQ,2020-10-12 20:50:00,70.0,70.0,94.0,29.85,10.0,CALM,0.0,0.0,Fair,False,False,False,False,False,False,False,False,False,False,False,True,False,Night,Night,Night,Night
C-4936539,2,2018-02-07 09:00:00,2018-02-07 11:00:00,39.979618,-75.346565,,,1.08000004292,Right lane closed due to construction on PA-3 Chester Pike Westbound from Lawrence Rd to New Ardmore Ave.,2195.0,W Chester Pike,R,Broomall,Delaware,PA,19008-3028,US,US/Eastern,KPHL,2018-02-07 08:54:00,32.0,24.8,88.0,30.32,3.0,NE,8.1,0.06,Light Freezing Rain,False,False,True,False,False,False,False,False,False,False,False,True,False,Day,Day,Day,Day
C-4936540,2,2021-05-31 14:53:14,2021-11-01 11:10:30,43.704881,-73.013646,43.698145,-73.006123,0.598181596048,Stationary traffic on US-7 N - US-7 S from Kendall Hill Rd (US-7) to Mountain View Dr (US-7) due to roadwork.,3112.0,US Route 7,R,Pittsford,Rutland,VT,05763-9301,US,US/Eastern,KRUT,2021-11-01 10:56:00,50.0,50.0,46.0,29.11,10.0,WNW,17.0,0.0,Fair,False,False,False,False,False,False,False,False,False,False,False,False,False,Day,Day,Day,Day
C-4936541,2,2021-12-03 10:22:00,2021-12-03 10:42:00,25.930608,-80.125893,25.930265,-80.130258,0.272263506108,Stationary traffic on FL-826 from FL-A1A/Collins Ave (FL-826) to US-1/FL-5/Biscayne Blvd (FL-826) due to roadwork.,16900.0,N Bay Rd,R,Sunny Isles Beach,Miami-Dade,FL,33160-4252,US,US/Eastern,KHWO,2021-12-03 09:53:00,73.0,73.0,35.0,30.14,10.0,N,9.0,0.0,Fair,False,False,True,False,False,False,False,False,True,False,False,False,False,Day,Day,Day,Day
C-4936542,2,2021-11-19 14:44:07,2021-11-19 16:54:59,28.593081,-81.36296800000002,28.593612,-81.365095,0.134152413696,Slow traffic on FL-424A - US-92 E - FL-426 - US-17 N - US-92 W - US-17 S from Ward Ave to W Comstock Ave due to roadwork.,1069.0,W Fairbanks Ave,R,Winter Park,Orange,FL,32789-4753,US,US/Eastern,KORL,2021-11-19 14:51:00,79.0,79.0,65.0,30.01,10.0,NE,14.0,0.0,Mostly Cloudy,False,False,True,False,False,False,False,False,False,False,False,False,False,Day,Day,Day,Day
C-4936543,2,2020-09-27 14:23:30,2020-09-28 02:18:13,30.533178000000003,-87.275841,30.533099,-87.27215,0.2197288616209999,Stationary traffic on FL-10 from US-29/FL-95/Pensacola Blvd (US-90 Alt/FL-10) to FL-291/N Davis Hwy (US-90 Alt/FL-10) due to construction work.,165.0,W Nine Mile Rd,L,Pensacola,Escambia,FL,32534,US,US/Central,KPNS,2020-09-27 14:22:00,88.0,88.0,67.0,29.73,10.0,SSE,8.0,0.0,Partly Cloudy,False,False,True,False,False,False,False,False,False,True,False,False,False,Day,Day,Day,Day
C-4936544,2,2017-10-18 19:44:45,2017-10-19 01:46:52,40.496294,-76.20150699999998,40.502101,-76.17281899999998,1.5597465500799998,Between PA-419/Exit 17 and Mountain Rd/Exit 23 - Roadwork. Lane blocked.,,I-78 W,R,Bethel,Berks,PA,19507,US,US/Eastern,KMUI,2017-10-18 19:58:00,52.3,,91.0,30.3,10.0,Calm,,,Clear,False,False,False,False,False,False,False,False,False,False,False,False,False,Night,Night,Night,Day
C-4936545,2,2021-12-24 15:06:30,2021-12-24 15:31:00,25.926068,-80.15206500000002,25.925524,-80.154131,0.133770228791,Slow traffic on FL-826 - US-1 S - FL-5 from NE 26th Ave to US-1 due to roadwork.,2349.0,NE 163rd St,L,North Miami Beach,Miami-Dade,FL,33160-3902,US,US/Eastern,KHWO,2021-12-24 14:53:00,77.0,77.0,46.0,30.12,10.0,ENE,10.0,0.0,Fair,False,False,False,False,False,False,False,False,True,False,False,False,False,Day,Day,Day,Day
C-4936546,4,2021-04-14 21:29:50,2021-04-21 23:59:00,37.735395,-122.505258,37.73557,-122.505257,0.0120914718873999,Closed road at Sloat Blvd due to roadwork.,2803.0,Sloat Blvd,R,San Francisco,San Francisco,CA,94116-2660,US,US/Pacific,KSFO,2021-04-14 21:56:00,55.0,55.0,69.0,29.99,10.0,NW,8.0,0.0,Fair,False,False,True,False,False,False,False,False,False,False,False,True,False,Night,Night,Night,Night
C-4936547,4,2020-09-01 03:01:00,2020-09-01 12:46:00,33.006352,-117.259901,33.010921999999994,-117.263561,0.380359719068,Construction on I-5 NB near MANCHESTER AVE Use alternate exit ramp.,,I-5 N,R,Solana Beach,San Diego,CA,92075,US,US/Pacific,KCRQ,2020-09-01 02:53:00,68.0,68.0,76.0,29.55,10.0,CALM,0.0,0.0,Cloudy,False,False,False,False,False,False,False,False,False,False,False,True,False,Night,Night,Night,Night
C-4936548,2,2020-09-02 12:12:30,2020-09-02 16:50:12,40.644057,-74.21029200000002,40.645044,-74.212999,0.157451012555,Slow traffic on NJ-439 from Elizabeth to Polonia Ave due to roadwork.,,Cole Ave,R,Elizabeth,Union,NJ,07202,US,US/Eastern,KLDJ,2020-09-02 12:35:00,79.0,79.0,70.0,29.89,10.0,WSW,3.0,0.0,Cloudy,True,False,False,False,False,False,False,False,False,False,False,False,False,Day,Day,Day,Day
C-4936549,3,2021-01-19 22:00:00,2021-01-20 06:00:00,27.896891,-82.724548,,,0.0,Main roadway closed due to construction during the night on US-19 at Ulmerton Rd.,,US-19 N,R,Clearwater,Pinellas,FL,33764,US,US/Eastern,KPIE,2021-01-19 21:53:00,57.0,57.0,69.0,30.32,10.0,N,5.0,0.0,Fair,False,False,False,False,False,False,False,False,False,False,False,False,False,Night,Night,Night,Night
C-4936550,2,2020-10-23 18:17:00,2020-10-23 18:54:00,46.948217,-123.616329,46.974777,-123.600909,1.97393016087,Queuing traffic on WA-107 from US-101 (WA-107) to US-12 (WA-107) due to roadwork.,2.0,Melbourne Rd,L,Montesano,Grays Harbor,WA,98563-9505,US,US/Pacific,KHQM,2020-10-23 18:15:00,55.0,55.0,,29.79,8.0,W,15.0,0.0,Cloudy,False,False,True,False,False,False,True,False,False,False,False,False,False,Night,Day,Day,Day
C-4936551,2,2021-09-17 14:38:00,2021-09-17 15:06:30,39.763687,-86.34559300000002,39.763723,-86.34074,0.2577613431989999,Stationary traffic on US-36 E - US-36 W from IN-267 (US-36) to Ronald Reagan Pkwy (US-36) due to roadwork.,9971.0,E US Highway 36,R,Avon,Hendricks,IN,46123-7987,US,US/Eastern,KIND,2021-09-17 14:54:00,84.0,84.0,53.0,29.25,10.0,S,3.0,0.0,Partly Cloudy,False,False,False,False,False,False,False,False,False,False,False,True,False,Day,Day,Day,Day
C-4936552,2,2020-09-03 12:38:30,2020-09-03 21:36:00,40.806041,-73.941369,40.808415,-73.94492,0.247776046149,Queuing traffic from Madison Ave to W 126th St due to resurfacing work.,14.0,E 125th St,R,New York,New York,NY,10035-1817,US,US/Eastern,KNYC,2020-09-03 12:51:00,81.0,81.0,47.0,29.74,10.0,WSW,6.0,0.0,Fair,True,False,False,False,False,False,True,False,True,False,False,True,False,Day,Day,Day,Day
C-4936553,4,2019-10-16 18:06:36,2019-10-16 22:16:32,38.9035,-86.53560999999998,38.88641,-86.52525,1.30563317415,Closed between IN-54/IN-58 and IN-58/5th St - Closed due to roadwork.,,State Road 37,R,Bedford,Lawrence,IN,47421,US,US/Eastern,KBMG,2019-10-16 17:53:00,51.0,51.0,54.0,29.08,10.0,WNW,12.0,0.0,Cloudy,False,False,False,False,False,False,False,False,False,False,False,False,False,Day,Day,Day,Day
C-4936554,2,2018-05-30 20:59:03,2018-05-31 06:59:00,40.17554000000001,-76.98925,40.19191,-76.97819,1.27284413046,Between W Lisburn Rd and Cumberland Pky/Winding Hill Rd - Roadwork. Lane blocked.,,US-15 S,R,Mechanicsburg,Cumberland,PA,17055,US,US/Eastern,KCXY,2018-05-30 20:56:00,75.9,,71.0,30.0,10.0,SE,11.5,,Overcast,False,False,False,False,False,False,False,False,False,False,False,False,False,Night,Day,Day,Day
C-4936555,2,2021-10-11 22:33:14,2021-11-18 17:02:27,43.901899,-100.052656,43.898022,-100.01122,2.08022623497,Construction on SD-248 EB near I-90 Expect delays.,534.0,E Highway 16,R,Presho,Lyman,SD,57568,US,US/Central,KPIR,2021-10-11 22:53:00,46.0,41.0,76.0,28.09,10.0,N,10.0,0.0,Fair,False,False,False,False,False,False,False,False,False,False,False,False,False,Night,Night,Night,Night
C-4936557,2,2020-11-13 13:37:00,2020-11-13 16:03:00,33.666996000000005,-112.030015,33.671864,-112.030891,0.340097852086,Slow traffic from Union Hills Dr (N Cave Creek Rd) to AZ-101 (N Cave Creek Rd) due to roadwork.,19852.0,N Cave Creek Rd,R,Phoenix,Maricopa,AZ,85024-1226,US,US/Mountain,KDVT,2020-11-13 13:53:00,72.0,72.0,17.0,28.38,10.0,W,7.0,0.0,Fair,False,False,True,False,False,False,False,False,False,True,False,True,False,Day,Day,Day,Day
C-4936558,2,2021-05-28 06:00:00,2021-05-28 18:00:00,26.482611,-97.708382,,,0.0,Single alternate line traffic due to construction work on FM-2099 both ways from FM-498 to TX-186.,18800.0,Highway 186,R,Raymondville,Willacy,TX,78580,US,US/Central,KHRL,2021-05-28 06:04:00,77.0,77.0,100.0,29.85,7.0,SSE,7.0,0.0,Mostly Cloudy,False,False,False,False,False,False,False,False,False,False,False,False,False,Night,Night,Day,Day
C-4936559,2,2020-09-15 06:36:30,2020-09-15 07:08:30,40.147721,-77.009496,40.129628,-77.021364,1.39847985711,Slow traffic on US-15 from W Lisburn Rd (US-15) to PA-74/N Baltimore St (US-15) due to roadwork.,,US-15 S,R,Dillsburg,York,PA,17019,US,US/Eastern,KCXY,2020-09-15 06:56:00,47.0,47.0,80.0,29.98,10.0,WSW,3.0,0.0,Fair,False,False,False,False,False,False,False,False,False,False,False,False,False,Night,Day,Day,Day
C-4936560,2,2021-06-29 08:35:40,2021-06-29 10:53:03,25.732202,-80.370633,25.733125,-80.367766,0.189499429804,Slow traffic on FL-976 - FL-985 from SW 109th Ave to SW 38th St due to roadwork.,,SW 40th St,R,Miami,Miami-Dade,FL,33165,US,US/Eastern,KMIA,2021-06-29 08:36:00,80.0,80.0,81.0,30.11,10.0,CALM,0.0,0.01,Thunder,False,False,False,False,False,False,False,False,False,False,False,False,False,Day,Day,Day,Day
C-4936561,2,2020-09-18 17:37:00,2020-09-18 21:17:58,26.103019,-80.13691899999998,26.100217,-80.136186,0.198870145943,Stationary traffic on US-1 S - FL-A1A - FL-5 from SE 15th St to Miami Rd due to roadwork.,598.0,SE 15th St,R,Fort Lauderdale,Broward,FL,33316-1944,US,US/Eastern,KFLL,2020-09-18 17:53:00,89.0,89.0,67.0,29.83,10.0,SSW,12.0,0.0,Mostly Cloudy,False,False,True,False,False,False,False,False,False,False,False,False,False,Day,Day,Day,Day
C-4936562,4,2019-05-14 16:33:00,2019-05-14 21:31:38,38.96498,-90.18486,38.96498,-90.18486,0.0,At Humbert Rd - Exit ramp closed. Construction work.,,IL-255 S,R,Godfrey,Madison,IL,62035,US,US/Central,KALN,2019-05-14 16:47:00,70.0,70.0,53.0,29.51,10.0,S,7.0,0.0,Mostly Cloudy,False,False,False,False,True,False,False,False,False,False,False,False,False,Day,Day,Day,Day
C-4936563,2,2021-11-13 15:35:43,2021-11-13 15:56:54,40.877362,-73.866342,40.878321,-73.870149,0.209632569712,Slow traffic from US-1/Boston Rd/Hering Ave (E Gun Hill Rd) to Bronx River Pkwy (E Gun Hill Rd) due to roadwork.,,White Plains Rd,R,Bronx,Bronx,NY,10467,US,US/Eastern,KLGA,2021-11-13 15:19:00,50.0,50.0,68.0,29.66,10.0,W,33.0,0.0,Mostly Cloudy / Windy,False,False,True,False,False,False,True,False,True,False,False,True,False,Day,Day,Day,Day
C-4936564,2,2020-05-18 07:00:00,2020-05-19 19:00:00,40.59016,-105.00146,40.59016,-105.00146,0.0,At CO-14/Mulberry St/Exit 269 - Construction work.,,I-25 S,R,Fort Collins,Larimer,CO,80524,US,US/Mountain,KFNL,2020-05-18 06:56:00,49.0,45.0,93.0,24.98,9.0,N,9.0,0.0,Fair,False,False,False,False,False,False,False,False,False,False,False,False,False,Day,Day,Day,Day
C-4936566,2,2021-06-23 13:37:15,2021-07-01 23:59:00,42.996899,-78.19093199999998,42.99816,-78.18994599999998,0.100368015513,Repaving on NY 98 from South Village of Alexander (Batavia) to South City Batavia Line () Alternating One Lane Closure Both Northbound and Southbound Not currently Scheduled,31.0,Walnut St,R,Batavia,Genesee,NY,14020-3011,US,US/Eastern,KROC,2021-06-23 13:54:00,70.0,70.0,39.0,29.58,10.0,W,12.0,0.0,Partly Cloudy,False,False,False,False,False,False,False,False,False,False,False,False,False,Day,Day,Day,Day
C-4936567,2,2021-06-24 21:12:30,2021-12-14 08:06:30,35.669831,-85.24012900000002,35.672788,-85.240668,0.206537088115,Roadwork on State Route 30 from TN-543 to TN-101.,32398.0,State Route 30,L,Pikeville,Bledsoe,TN,37367-7448,US,US/Central,KCSV,2021-08-24 19:53:00,74.0,74.0,93.0,28.12,6.0,CALM,0.0,0.0,Fair,False,False,False,False,False,False,False,False,False,False,False,False,False,Night,Night,Night,Day
C-4936568,2,2018-02-09 10:34:36,2018-02-09 16:36:57,39.81036,-76.99056999999998,39.8059,-76.98871,0.323584328617,At 3rd St - Roadwork. Lane blocked.,698.0,Carlisle St,L,Hanover,York,PA,17331-5101,US,US/Eastern,KTHV,2018-02-09 10:53:00,32.0,24.8,66.0,30.56,10.0,South,8.1,,Mostly Cloudy,False,False,False,False,False,False,False,False,False,False,False,True,False,Day,Day,Day,Day
C-4936569,3,2019-09-14 19:02:42,2019-09-18 19:02:03,39.44699,-77.98955,39.4035,-78.02638,3.59069971025,Between WV-45/Winchester Ave/Exit 12 and CR-32/Tablers Station Rd/Exit 8 - Construction work.,,I-81 S,R,Martinsburg,Berkeley,WV,25401,US,US/Eastern,KMRB,2019-09-14 18:53:00,75.0,75.0,79.0,29.54,10.0,SSE,5.0,0.0,Fair,False,False,False,False,False,False,False,False,False,False,False,False,False,Day,Day,Day,Day
C-4936570,2,2021-02-19 04:38:30,2021-02-19 18:01:08,33.491681,-112.168948,33.494867,-112.168886,0.2201606212229999,Stationary traffic from W Clarendon Ave to W Indian School Rd due to roadwork.,3672.0,N 51st Ave,L,Phoenix,Maricopa,AZ,85031-3005,US,US/Mountain,KGEU,2021-02-19 04:58:00,43.0,38.0,37.0,29.08,10.0,NNW,7.0,0.0,Fair,False,False,True,False,False,False,False,False,False,False,False,True,False,Night,Night,Night,Night
C-4936571,2,2021-11-10 14:09:00,2021-11-10 15:07:30,33.581989,-112.10728600000002,33.582061,-112.116379,0.523429171791,Stationary traffic from N 19th Ave (W Peoria Ave) to I-17/Black Canyon Fwy (W Peoria Ave) due to roadwork.,2258.0,W Peoria Ave,R,Phoenix,Maricopa,AZ,85029-4919,US,US/Mountain,KDVT,2021-11-10 13:53:00,80.0,80.0,22.0,28.36,10.0,WSW,10.0,0.0,Fair,True,False,True,False,False,False,False,False,True,True,False,True,False,Day,Day,Day,Day
C-4936572,2,2017-09-21 12:00:00,2017-09-26 00:01:00,41.253754,-95.94725,,,0.0,Right lane closed due to fiber optic repairs on Saint Marys Ave Westbound at 24th Ave.,622.0,S 24th Ave,R,Omaha,Douglas,NE,68105,US,US/Central,KOMA,2017-09-21 11:52:00,84.9,,65.0,29.81,10.0,SSE,17.3,,Scattered Clouds,False,False,True,False,False,False,False,False,False,False,False,True,False,Day,Day,Day,Day
C-4936573,2,2019-05-17 09:02:21,2019-05-21 09:02:16,26.18241,-80.15254,26.18754,-80.15137,0.361796581202,Ramp to SR-870/W Commercial Blvd - Construction work. Lane blocked.,,I-95 N,R,Fort Lauderdale,Broward,FL,33309,US,US/Eastern,KFXE,2019-05-17 08:53:00,81.0,81.0,56.0,30.02,10.0,ENE,7.0,0.0,Fair,False,False,False,False,False,False,False,False,False,False,False,False,False,Day,Day,Day,Day
C-4936574,2,2021-07-13 08:19:00,2021-07-13 15:00:00,38.715885,-77.637367,38.71908,-77.63804,0.2237150214869999,On Rt. 604 (Burwell Rd) in the County of Fauquier at Burwell Rd; Rt. 604N/S (Prince William County); County/City/Town Line: PR WILLIAM/FAUQUIER CL motorists can expect potential delays in this area from 07/13/21 at 8:19 AM until 07/13/21 at 3:00 PM due to roadside maintenance. All north lanes are alternating closures. All south lanes are alternating closures.,11076.0,Burwell Rd,L,Nokesville,Prince William,VA,20181-1926,US,US/Eastern,KHEF,2021-07-13 07:56:00,79.0,79.0,84.0,29.98,10.0,SSW,8.0,0.0,Fair,False,False,False,False,False,False,False,False,False,False,False,False,False,Day,Day,Day,Day
C-4936575,2,2021-09-24 15:33:30,2021-09-24 18:29:30,42.071906,-88.335625,42.064625,-88.334909,0.504407872234,Stationary traffic on County Hwy-34 from Fox Ln to White Oak Ln due to roadwork.,1552.0,N Randall Rd,R,Elgin,Kane,IL,60123-7876,US,US/Central,KDPA,2021-09-24 15:52:00,79.0,79.0,32.0,29.03,10.0,S,22.0,0.0,Fair / Windy,False,False,False,False,False,False,False,False,False,False,False,False,False,Day,Day,Day,Day
C-4936576,2,2016-11-30 08:00:00,2016-11-30 17:00:00,38.953239,-75.564392,,,0.0,Intermittent lane closures due to maintenance work on Hopkins Cemetery Rd both ways between Pine Pitch Rd and US-13 Dupont Hwy.,14698.0,S Dupont Hwy,L,Harrington,Kent,DE,19952-3107,US,US/Eastern,KDOV,2016-11-30 07:58:00,58.6,,100.0,29.88,1.0,Calm,,0.02,Scattered Clouds,False,False,False,False,False,False,False,False,False,False,False,False,False,Day,Day,Day,Day
C-4936577,2,2021-07-02 15:02:30,2021-07-02 16:10:00,33.459995,-112.134474,33.46642,-112.134479,0.443925314157,Slow traffic from W Van Buren St (N 35th Ave) to W Thomas Rd (N 35th Ave) due to roadwork.,1085.0,N 35th Ave,R,Phoenix,Maricopa,AZ,85009,US,US/Mountain,KPHX,2021-07-02 14:51:00,100.0,100.0,29.0,28.63,10.0,VAR,5.0,0.0,Mostly Cloudy,False,False,False,False,False,False,False,False,True,False,False,False,False,Day,Day,Day,Day
C-4936578,2,2021-06-18 16:37:30,2021-06-18 18:52:07,33.465941,-112.13588,33.46642,-112.134479,0.0872705255736999,Stationary traffic from N 36th Ave to W Almeria Rd due to roadwork.,3550.0,W McDowell Rd,R,Phoenix,Maricopa,AZ,85009-2315,US,US/Mountain,KPHX,2021-06-18 16:51:00,116.0,116.0,6.0,28.38,10.0,WNW,13.0,0.0,Fair,False,False,False,False,False,False,False,False,True,False,False,False,False,Day,Day,Day,Day
C-4936579,2,2021-02-10 18:00:00,2021-02-11 00:15:00,38.800175,-77.60113199999998,38.799592,-77.598191,0.163407343087,Construction on I-66 EB near MM 44 Expect delays.,,I-66 E,R,Gainesville,Prince William,VA,20155,US,US/Eastern,KHEF,2021-02-10 18:03:00,34.0,34.0,87.0,30.07,3.0,CALM,0.0,0.0,Light Rain,False,False,False,False,True,False,False,False,False,False,False,False,False,Night,Day,Day,Day
C-4936580,1,2019-12-10 00:01:00,2019-12-13 23:59:00,27.77923,-97.394424,,,0.119999997318,Road closed intermittently due to utility work on Morgan Ave Eastbound between 2nd St and Ocean Dr.,,Morgan Ave,R,Corpus Christi,Nueces,TX,78404,US,US/Central,KCRP,2019-12-10 00:51:00,72.0,72.0,93.0,29.8,6.0,ESE,8.0,0.0,Cloudy,False,False,False,False,False,False,False,False,False,False,False,False,False,Night,Night,Night,Night
C-4936582,2,2020-05-26 11:59:07,2020-05-26 13:59:07,42.86563,-71.33835,42.91192,-71.36811999999998,3.53561053079,Between RT-102/Nashua Rd/Exit 4 and I-293 Southern Split - Roadwork. Left lane closed.,,I-93 N,R,Londonderry,Rockingham,NH,03053,US,US/Eastern,KMHT,2020-05-26 11:53:00,76.0,76.0,60.0,29.94,10.0,W,3.0,0.0,Fair,False,False,False,False,True,False,False,False,False,False,False,False,False,Day,Day,Day,Day
C-4936583,2,2021-06-09 17:30:00,2021-06-10 08:56:57,38.298989,-102.71983,38.346118,-102.715225,3.26585727551,Roadwork on 7th St (US-287) from CO-96 (US-287) to US-287 S - US-287 N.,4146.0,US Highway 287,R,Eads,Kiowa,CO,81036-9674,US,US/Mountain,KLAA,2021-06-09 17:53:00,86.0,86.0,49.0,26.19,10.0,ESE,5.0,0.0,Fair,False,False,False,False,False,False,False,False,False,False,False,False,False,Day,Day,Day,Day
