ID,Severity,Start_Time,End_Time,Start_Lat,Start_Lng,End_Lat,End_Lng,Distance(mi),Description,Number,Street,Side,City,County,State,Zipcode,Country,Timezone,Airport_Code,Weather_Timestamp,Temperature(F),Wind_Chill(F),Humidity(%),Pressure(in),Visibility(mi),Wind_Direction,Wind_Speed(mph),Precipitation(in),Weather_Condition,Amenity,Bump,Crossing,Give_Way,Junction,No_Exit,Railway,Roundabout,Station,Stop,Traffic_Calming,Traffic_Signal,Turning_Loop,Sunrise_Sunset,Civil_Twilight,Nautical_Twilight,Astronomical_Twilight
C-5091364,2,2021-03-31 06:44:40.000000000,2021-09-27 10:00:30.000000000,34.91688,-95.745387,34.902624,-95.749818,1.01648850359,Slow traffic on US-69 S from US-270 (US-69) to US-69 (McAlester) (US-69) due to roadwork.,,S US Highway 69,R,McAlester,Pittsburg,OK,74501,US,US/Central,KMLC,2021-03-31 06:53:00,53.0,53.0,30.0,29.42,10.0,NNE,13.0,0.0,Mostly Cloudy,False,False,False,False,False,False,False,False,False,True,False,False,False,Night,Night,Day,Day
C-5091365,4,2019-08-18 05:03:40.000000000,2019-08-18 10:02:18.000000000,32.949188,-97.03993,32.965142,-97.036092,1.12454917994,Closed between I-635 and TX-26/Grapevine Mills Pky - Closed due to roadwork.,,TX-121 N,R,Dallas,Tarrant,TX,75261,US,US/Central,KDFW,2019-08-18 04:53:00,82.0,82.0,71.0,29.18,10.0,S,13.0,0.0,Partly Cloudy,False,False,False,False,False,False,False,False,False,False,False,False,False,Night,Night,Night,Night
C-5091366,2,2020-10-30 16:25:00.000000000,2020-10-31 04:37:30.000000000,40.146969,-74.95270699999998,40.141933,-74.957627,0.4342787583519999,Slow traffic on US-1 from Fairhill Ave/Highland Ave (US-1) to Rockhill Rd (US-1) due to roadwork.,,New Lincoln Hwy S,R,Langhorne,Bucks,PA,19047,US,US/Eastern,KTTN,2020-10-30 16:27:00,46.0,44.0,73.0,29.8,10.0,NW,5.0,0.0,Cloudy,False,False,False,False,True,False,False,False,False,False,False,False,False,Day,Day,Day,Day
C-5091367,2,2021-08-31 07:33:30.000000000,2021-08-31 08:01:00.000000000,25.846986,-80.211189,25.848433,-80.207176,0.268816132223,Slow traffic on FL-934 from NW 8th Ave to NW 81st St due to roadwork.,7899.0,NW 8th Ave,R,Miami,Miami-Dade,FL,33150-3220,US,US/Eastern,KOPF,2021-08-31 07:53:00,79.0,79.0,82.0,29.94,10.0,CALM,0.0,0.0,Fair,False,False,True,False,False,False,False,False,True,True,False,False,False,Day,Day,Day,Day
C-5091368,2,2019-07-01 10:56:39.000000000,2019-07-05 10:57:51.000000000,40.455393,-79.997831,40.49185,-80.01017,2.60108615238,Between PA-28/Exit 7 and US-19-TRUCK/Evergreen Rd/Exit 11 - Roadwork. Open.,,US-19 Trk S,R,Pittsburgh,Allegheny,PA,15212,US,US/Eastern,KAGC,2019-07-01 10:53:00,73.0,73.0,61.0,28.73,10.0,CALM,0.0,0.0,Fair,False,False,False,False,True,False,False,False,False,False,False,False,False,Day,Day,Day,Day
C-5091369,2,2021-01-25 14:00:30.000000000,2021-01-25 16:26:30.000000000,30.540437,-87.326183,30.534506,-87.326883,0.411904921708,Stationary traffic on US-90 Alt W - US-90 Alt E - County Hwy-99 - County Hwy-97 - FL-10 from Highway 297A to US-90 Alt due to roadwork.,9634.0,Pinecone Dr,L,Cantonment,Escambia,FL,32533-9792,US,US/Central,KPNS,2021-01-25 13:53:00,73.0,73.0,81.0,29.76,10.0,SSE,15.0,0.0,Cloudy,False,False,False,False,False,False,False,False,False,False,False,False,False,Day,Day,Day,Day
C-5091370,4,2020-08-27 13:18:52.000000000,2020-09-04 06:59:00.000000000,26.063273,-80.284025,26.06379200000001,-80.284032,0.0358621166464,Closed road from Davie to Griffin Rd due to roadwork.,4801.0,SW 103rd Ave,R,Cooper City,Broward,FL,33328-3330,US,US/Eastern,KHWO,2020-08-27 12:53:00,93.0,93.0,59.0,30.05,10.0,ESE,13.0,0.0,Fair,False,False,True,False,False,False,False,False,False,False,False,False,False,Day,Day,Day,Day
C-5091371,2,2021-06-26 22:49:00.000000000,2021-06-26 23:28:30.000000000,25.802006,-80.126227,25.80587,-80.124578,0.286003886228,Stationary traffic on FL-A1A from FL-A1A/5th St (FL-A1A) to Arthur Godfrey Rd/41st St (FL-A1A) due to roadwork.,2582.0,Collins Ave,L,Miami Beach,Miami-Dade,FL,33140,US,US/Eastern,KMIA,2021-06-26 22:53:00,79.0,79.0,79.0,30.04,5.0,ESE,13.0,0.0,Light Rain with Thunder,False,False,False,False,False,False,False,False,False,False,False,True,False,Night,Night,Night,Night
C-5091372,2,2021-08-09 04:48:36.000000000,2021-08-12 02:05:22.000000000,38.83031,-97.686656,38.827099,-97.695743,0.537076926946,Roadwork on Burma Rd (KS-140) from Schilling Rd (KS-40/KS-140) to KS-140.,443.0,S Burma Rd,R,Salina,Saline,KS,67401-9478,US,US/Central,KSLN,2021-08-09 04:53:00,73.0,73.0,96.0,28.47,10.0,S,6.0,0.0,Fair,False,False,False,False,False,False,False,False,False,False,False,False,False,Night,Night,Night,Night
C-5091373,3,2019-04-29 21:30:00.000000000,2019-04-30 05:00:00.000000000,38.893257,-77.067299,,,0.709999978542,Intermittent lane closures due to bridge maintenance work on I-66 Eastbound between I-66 Exit 73 / US-29 Lynn St / US-29 Lee Hwy and I-66 Exit 75 / VA-110 Jefferson Davis Hwy / Jefferson Davis Hwy.,,I-66 E,R,Arlington,Arlington,VA,22209,US,US/Eastern,KDCA,2019-04-29 21:31:00,56.0,56.0,77.0,30.22,10.0,SSE,10.0,0.0,Cloudy,False,False,False,False,False,False,False,False,False,False,False,False,False,Night,Night,Night,Day
C-5091374,2,2019-05-20 09:04:32.000000000,2019-05-25 09:03:38.000000000,26.0654,-80.220377,26.06518,-80.228105,0.479888388128,At 62nd Ave - Construction work.,5501.0,Griffin Rd,L,Fort Lauderdale,Broward,FL,33314,US,US/Eastern,KFLL,2019-05-20 08:53:00,77.0,77.0,82.0,30.01,10.0,E,3.0,0.0,Partly Cloudy,False,False,True,False,False,False,False,False,False,False,False,True,False,Day,Day,Day,Day
C-5091375,2,2021-12-02 08:10:00.000000000,2021-12-02 10:14:04.000000000,30.510898,-84.246211,30.513224,-84.24526,0.170389767789,Stationary traffic on US-319 N - FL-61 from Capital Cir NE to Maclay State Park Access Rd due to roadwork.,3539.0,Thomasville Rd,R,Tallahassee,Leon,FL,32309-3405,US,US/Eastern,KTLH,2021-12-02 08:17:00,44.0,44.0,100.0,30.09,0.25,CALM,0.0,0.0,Fog,False,False,False,False,False,False,False,False,False,False,False,False,False,Day,Day,Day,Day
C-5091376,2,2019-09-03 22:02:36.000000000,2019-09-07 22:02:23.000000000,40.741922,-74.008987,40.72587,-74.0112,1.11512303053,Between 11th Ave and West St - Construction work. Lane blocked.,,West St,R,New York,New York,NY,10014,US,US/Eastern,KJRB,2019-09-03 21:51:00,72.0,72.0,57.0,29.88,10.0,VAR,3.0,0.0,Fair,False,False,False,False,False,False,False,False,False,False,False,True,False,Night,Night,Night,Night
C-5091377,2,2021-10-04 13:50:30.000000000,2021-10-04 16:05:14.000000000,42.068396,-87.980428,42.066568,-87.980711,0.1271341537799999,Slow traffic from E Orchard St to W Kirchhoff Rd due to roadwork.,898.0,S Arlington Heights Rd,R,Arlington Heights,Cook,IL,60005,US,US/Central,KPWK,2021-10-04 13:52:00,71.0,71.0,75.0,29.3,10.0,N,12.0,0.0,Cloudy,False,False,False,False,False,False,False,False,False,False,False,False,False,Day,Day,Day,Day
C-5091378,2,2020-12-30 00:24:00.000000000,2020-12-30 07:24:38.000000000,34.311605,-117.478165,34.345107,-117.524961,3.5337910271199995,Roadwork on I-15 (CA-138) from CA-2 (CA-138) to CA-138.,8300.0,US Highway 138,L,Phelan,San Bernardino,CA,92371-4810,US,US/Pacific,KGXA,,,,,,,,,,,False,False,False,False,False,False,False,False,False,False,False,False,False,Night,Night,Night,Night
C-5091379,2,2021-07-26 08:08:00.000000000,2021-07-26 08:31:30.000000000,29.762566,-96.18224,29.762919,-96.185333,0.187112082435,Stationary traffic on FM-3538 at I-10 W due to roadwork.,,I-10 W,R,Sealy,Austin,TX,77474,US,US/Central,KTME,2021-07-26 08:15:00,,,,29.82,,,,0.0,,False,False,False,False,False,False,False,False,False,False,False,False,False,Day,Day,Day,Day
C-5091380,2,2021-03-19 20:01:00.000000000,2021-03-20 05:46:00.000000000,37.863445,-122.035794,37.822746,-121.993713,3.63034128054,Construction on I-680 SB near LIVORNA RD Drive with caution.,,I-680 S,R,Alamo,Contra Costa,CA,94507,US,US/Pacific,KCCR,2021-03-19 19:53:00,53.0,53.0,57.0,30.09,10.0,W,9.0,0.0,Fair,False,False,False,False,False,False,False,False,False,False,False,False,False,Night,Night,Day,Day
C-5091381,2,2020-12-16 19:22:30.000000000,2020-12-16 20:06:30.000000000,40.356218,-79.900413,40.351969,-79.896753,0.351177094916,Stationary traffic from Camp Hollow Rd (Lebanon Church Rd) to 3rd St/Elizabeth Rd (Richland Ave) due to roadwork.,818.0,Pittsburgh McKeesport Blvd,R,West Mifflin,Allegheny,PA,15122-2849,US,US/Eastern,KAGC,2020-12-16 19:40:00,29.0,21.0,100.0,28.52,0.75,E,8.0,0.08,Light Snow,False,False,False,False,False,False,False,False,False,False,False,False,False,Night,Night,Night,Night
C-5091382,2,2021-11-03 14:32:30.000000000,2021-11-03 14:55:31.000000000,43.695641,-89.12745600000002,43.69416,-89.127738,0.103292554594,Stationary traffic on WI-44 from Park St to S South St / Pearl St due to roadwork.,293.0,N South St,R,Kingston,Green Lake,WI,53939,US,US/Central,KY50,2021-11-03 14:56:00,40.0,33.0,43.0,29.41,,NW,10.0,0.0,Cloudy,False,False,False,False,False,False,False,False,False,False,False,False,False,Day,Day,Day,Day
C-5091383,2,2020-09-04 21:05:00.000000000,2020-09-05 00:14:38.000000000,32.578778,-89.737515,32.573248,-89.740752,0.426040976958,Roadwork on MS-25 from Utah Rd (MS-25) to Lone Pine Church Rd (MS-25).,6974.0,Highway 25,L,Lena,Scott,MS,39094,US,US/Central,KJAN,2020-09-04 20:54:00,82.0,82.0,76.0,29.79,10.0,CALM,0.0,0.0,Partly Cloudy,False,False,False,False,False,False,False,False,False,False,False,False,False,Night,Night,Night,Night
C-5091384,4,2019-08-16 21:02:16.000000000,2019-08-20 21:02:08.000000000,39.941174,-75.29382700000002,39.95924,-75.33149,2.35324219537,Closed between Marshall Rd and Glendale Rd - Closed due to roadwork.,3774.0,Marshall Rd,L,Drexel Hill,Delaware,PA,19026-2119,US,US/Eastern,KPHL,2019-08-16 20:54:00,79.0,79.0,77.0,29.97,10.0,SE,7.0,0.0,Partly Cloudy,False,False,False,False,False,False,False,False,False,False,False,True,False,Night,Night,Night,Day
C-5091385,2,2021-07-05 21:40:30.000000000,2021-07-06 13:43:22.000000000,35.297049,-96.859951,35.304902,-96.859935,0.542591373834,Roadwork from Scotlyn Dr to Summit Dr.,18498.0,S Rock Creek Rd,L,Shawnee,Pottawatomie,OK,74801-9507,US,US/Central,KSNL,2021-07-05 21:35:00,76.0,76.0,54.0,28.85,10.0,ESE,6.0,0.0,Fair,False,False,False,False,False,False,False,False,False,False,False,False,False,Night,Night,Day,Day
C-5091386,2,2021-11-17 17:53:40.000000000,2021-11-17 19:00:35.000000000,29.749334,-95.41067,29.753973,-95.410758,0.320567838547,Stationary traffic from Westheimer Rd (S Shepherd Dr) to Kirby Dr (S Shepherd Dr) due to roadwork.,1857.0,S Shepherd Dr,L,Houston,Harris,TX,77019-7003,US,US/Central,KMCJ,2021-11-17 17:53:00,77.0,77.0,74.0,29.94,10.0,SSE,13.0,0.0,Fair,False,False,True,False,False,False,False,False,False,False,False,True,False,Night,Night,Day,Day
C-5091387,4,2021-10-21 23:01:00.000000000,2021-10-22 05:46:00.000000000,33.199986,-117.372425,33.199915999999995,-117.371535,0.0516821020560999,Construction on I-5 SB near MISSION AVE Take alternate route.,,Mission Ave,R,Oceanside,San Diego,CA,92054,US,US/Pacific,KOKB,2021-10-21 23:07:00,56.0,56.0,97.0,30.03,0.25,CALM,0.0,0.0,Fog,False,False,False,False,False,False,False,False,False,False,False,False,False,Night,Night,Night,Night
C-5091388,2,2020-05-06 05:26:11.000000000,2020-05-07 05:26:11.000000000,42.73807,-78.60067,42.71475,-78.58063,1.90545404906,At Olean Rd - Roadwork. Roadway reduced to 1 lane.,,Aurora Expy S,R,East Aurora,Erie,NY,14052,US,US/Eastern,KBUF,2020-05-06 05:54:00,39.0,33.0,53.0,29.12,10.0,NE,8.0,0.0,Cloudy,False,False,False,False,False,False,False,False,False,False,False,False,False,Night,Night,Day,Day
C-5091389,2,2020-10-16 05:01:00.000000000,2020-10-16 12:44:00.000000000,33.773894,-118.040531,33.771617,-118.03710900000002,0.251751439779,Construction on I-405 SB near VALLEY VIEW ST Drive with caution.,,I-405 S,R,Westminster,Orange,CA,92683,US,US/Pacific,KSLI,2020-10-16 05:03:00,64.0,64.0,100.0,29.87,0.25,CALM,0.0,0.0,Fog,False,False,False,False,False,False,False,False,False,False,False,False,False,Night,Night,Night,Night
C-5091390,2,2020-06-17 21:00:15.000000000,2020-06-18 06:59:59.000000000,28.62531,-81.3865,28.74861,-81.36582,8.610938811819999,Between SR-423/Lee Rd/Exit 88 and Lake Mary Blvd/Exit 98 - Roadwork. Two lanes closed.,,I-4 E,R,Maitland,Orange,FL,32751,US,US/Eastern,KORL,2020-06-17 20:53:00,76.0,76.0,85.0,29.92,7.0,ESE,6.0,0.03,Light Rain,False,False,False,False,False,False,False,False,False,False,False,False,False,Night,Night,Day,Day
C-5091391,2,2020-08-27 07:00:00.000000000,2020-09-05 07:45:00.000000000,39.674855,-104.959377,39.676609,-104.959366,0.121191269676,Construction on S UNIVERSITY BLVD NB near E ILIFF AVE Expect delays.,2298.0,S University Blvd,L,Denver,Denver,CO,80210-4708,US,US/Mountain,KAPA,2020-08-27 06:53:00,68.0,68.0,47.0,24.19,10.0,WSW,15.0,0.0,Fair,False,False,False,False,False,False,False,False,False,False,False,True,False,Day,Day,Day,Day
C-5091392,2,2021-10-26 03:11:29.000000000,2021-10-26 05:01:00.000000000,34.0424,-118.221649,,,0.649999976158,Entry ramp to US-101 Southbound from 4th St closed due to bridge maintenance work.,,Eagle St,R,Los Angeles,Los Angeles,CA,90033,US,US/Pacific,KCQT,2021-10-26 02:52:00,52.0,52.0,93.0,29.81,5.0,CALM,0.0,0.0,Fair,False,False,False,False,False,False,False,False,False,False,False,False,False,Night,Night,Night,Night
C-5091393,2,2020-10-16 16:35:00.000000000,2020-10-16 17:54:30.000000000,40.522685,-75.518713,40.518684,-75.521591,0.315071702978,Stationary traffic on PA-29 from I-476 (Chestnut St/PA-29) to PA-100/Kings Hwy (Chestnut St/PA-29) due to roadwork.,3898.0,Chestnut St,R,Emmaus,Lehigh,PA,18049-1847,US,US/Eastern,KXLL,2020-10-16 16:35:00,52.0,52.0,82.0,29.69,10.0,CALM,0.0,0.0,Mostly Cloudy,True,False,False,False,False,False,False,False,False,False,False,True,False,Day,Day,Day,Day
C-5091394,2,2018-10-17 08:03:12.000000000,2018-10-22 08:02:41.000000000,42.08205,-72.580669,42.08086,-72.58613000000003,0.291864215034,At RT-57/Meadow St - Bridge maintenance work.,,S End Brg W,R,Agawam,Hampden,MA,01001,US,US/Eastern,KBAF,2018-10-17 07:53:00,35.1,,100.0,29.92,10.0,Calm,,,Partly Cloudy,False,False,False,False,False,False,False,False,False,False,False,False,False,Day,Day,Day,Day
C-5091395,2,2019-05-17 07:03:03.000000000,2019-05-23 07:01:14.000000000,32.846336,-96.936732,32.84435,-96.91604,1.20894156934,At Tom Braniff Dr - Construction work. Left lane blocked.,,E Northgate Dr,R,Irving,Dallas,TX,75062,US,US/Central,KDFW,2019-05-19 06:53:00,67.0,67.0,81.0,29.15,10.0,NNW,16.0,0.0,Fair,False,False,False,False,False,False,False,False,False,False,False,False,False,Day,Day,Day,Day
C-5091396,2,2021-04-02 06:17:30.000000000,2021-12-09 01:59:35.000000000,46.84698,-95.438062,46.845703,-95.440299,0.137696564741,Roadwork on County Highway 38 from 180th St to County Hwy-39.,18603.0,County Highway 39,R,Osage,Becker,MN,56570,US,US/Central,KPKD,2021-12-07 18:53:00,7.0,-3.0,84.0,28.29,10.0,SW,6.0,0.0,Fair,False,False,False,False,False,False,False,False,False,False,False,False,False,Night,Night,Day,Day
C-5091397,4,2021-10-19 21:12:00.000000000,2021-10-27 23:59:00.000000000,42.33222,-71.03988000000003,42.33226,-71.03732,0.130787521718,Closed road from I St to L St due to roadwork.,513.0,E 7th St,R,Boston,Suffolk,MA,02127-4150,US,US/Eastern,KBOS,2021-10-19 20:54:00,58.0,58.0,49.0,29.79,10.0,W,9.0,0.0,Fair,False,False,False,False,False,False,False,False,False,False,False,False,False,Night,Night,Night,Night
C-5091398,2,2020-03-26 08:46:21.000000000,2020-03-26 15:00:00.000000000,41.561081,-72.646362,,,0.0,Right lane closed due to construction on CT-9 Northbound at Harbor Dr.,,CT-17 S,R,Middletown,Middlesex,CT,06457,US,US/Eastern,KMMK,2020-03-26 08:53:00,39.0,32.0,67.0,29.95,10.0,N,10.0,0.0,Fair,False,False,False,False,False,False,False,False,False,False,False,False,False,Day,Day,Day,Day
C-5091399,2,2019-05-17 07:00:00.000000000,2019-05-17 15:00:00.000000000,40.40366,-76.04547099999998,,,2.98000001907,Lane closed due to maintenance work on PA-183 Bernville Rd both ways between Mt Pleasant Rd and Old State Rd.,5307.0,Bernville Rd,L,Bernville,Berks,PA,19506-8226,US,US/Eastern,KRDG,2019-05-17 06:54:00,61.0,61.0,81.0,29.44,10.0,CALM,0.0,0.0,Fair,False,False,False,False,False,False,False,False,False,False,False,False,False,Day,Day,Day,Day
C-5091400,2,2017-01-26 07:40:09.000000000,2017-01-26 13:41:49.000000000,41.077,-76.87364000000002,41.07025,-76.87193,0.4748095893389999,At End Freeway - Roadwork. Lane blocked.,,US-15 S,R,New Columbia,Union,PA,17856,US,US/Eastern,KIPT,2017-01-26 07:54:00,37.0,34.5,96.0,29.44,4.0,SE,3.5,,Scattered Clouds,False,False,False,False,False,False,False,False,False,False,False,False,False,Day,Day,Day,Day
C-5091401,3,2019-07-09 09:02:38.000000000,2019-07-13 09:02:13.000000000,41.82434,-88.029,41.81624,-88.02727,0.566701701504,Ramp to I-88/Ronald Reagan Meml Tollway WB - Roadwork.,,I-355 S,R,Downers Grove,DuPage,IL,60515,US,US/Central,KMDW,2019-07-09 08:53:00,77.0,77.0,56.0,29.38,10.0,S,6.0,0.0,Partly Cloudy,False,False,False,False,True,False,False,False,False,False,False,False,False,Day,Day,Day,Day
C-5091402,4,2020-04-26 23:06:41.000000000,2020-04-27 04:04:15.000000000,41.51182,-88.10226,41.51182,-88.10226,0.0,At Center St/Exit 131 - Exit ramp closed. Incident. Bridge maintenance work.,,I-80 E,R,Joliet,Will,IL,60436,US,US/Central,KJOT,2020-04-26 23:15:00,44.0,44.0,74.0,29.55,10.0,CALM,0.0,0.0,Fair,False,False,False,False,True,False,False,False,False,False,False,False,False,Night,Night,Night,Night
C-5091403,2,2019-10-22 16:05:31.000000000,2020-01-26 21:35:26.000000000,40.12857,-74.92246999999998,40.1467,-75.01168,4.875889034030001,Between Bensalem Blvd and PA-232/2nd St Pike - Roadwork. Right lane closed.,,I-276 W,R,Bensalem,Bucks,PA,19020,US,US/Eastern,KPNE,2019-10-22 15:54:00,65.0,65.0,87.0,29.75,1.0,SE,12.0,0.01,Fog,False,False,False,False,False,False,False,False,False,False,False,False,False,Day,Day,Day,Day
C-5091405,2,2018-06-23 21:54:27.000000000,2018-06-24 06:02:53.000000000,40.70647,-74.01601,40.743955,-74.008391,2.62051287715,Between South St and 11th Ave - Construction work.,19.0,West St,R,New York,New York,NY,10004,US,US/Eastern,KJRB,2018-06-23 21:55:00,66.2,,88.0,30.42,10.0,North,,,Overcast,True,False,True,False,False,False,False,False,False,False,False,True,False,Night,Night,Night,Day
C-5091406,2,2021-09-16 14:24:00.000000000,2021-09-16 14:44:00.000000000,42.21851,-97.553307,42.235826,-97.601172,2.72553681477,Slow traffic on NE-13 from NE-98 (NE-13) to NE-121 (NE-13) due to roadwork.,,NE-13,R,Pierce,Pierce,NE,68767,US,US/Central,KOFK,2021-09-16 13:56:00,90.0,90.0,42.0,28.13,10.0,S,24.0,0.0,Fair / Windy,False,False,False,False,False,False,False,False,False,False,False,False,False,Day,Day,Day,Day
C-5091407,2,2020-09-15 07:09:32.000000000,2020-09-27 06:59:59.000000000,40.809847,-73.903085,40.8085,-73.90499100000002,0.136371567858,Construction on Bruckner Boulevard westbound between East 144th Street (New York) and Cypress Avenue (New York) Subject to change without notice. Monday September 14th 2020 thru Friday October 2nd 2020 Monday/Tuesday/Wednesday/Thursday/Friday/Saturday 10:00 AM thru 04:00 PM 1 lane closed,918.0,E 149th St,R,Bronx,Bronx,NY,10455-5020,US,US/Eastern,KLGA,2020-09-15 06:51:00,55.0,55.0,57.0,30.3,10.0,N,12.0,0.0,Cloudy,False,False,False,False,False,False,False,False,False,True,False,True,False,Day,Day,Day,Day
C-5091408,2,2021-04-05 07:51:00.000000000,2021-12-31 11:25:30.000000000,47.756806,-120.739713,47.764876,-120.782513,2.06462517406,Stationary traffic on US-2 W - US-2 E from Winton Rd (US-2) to White Pine Rd (US-2) due to roadwork.,18324.0,W US Highway 2,R,Leavenworth,Chelan,WA,98826-9275,US,US/Pacific,KEAT,2021-12-31 11:55:00,19.0,19.0,62.0,28.68,10.0,CALM,0.0,0.0,Fair,False,False,False,False,False,False,False,False,False,False,False,False,False,Day,Day,Day,Day
C-5091409,2,2019-05-14 22:03:29.000000000,2019-05-19 22:01:08.000000000,33.774502000000005,-118.322084,33.773168,-118.326339,0.261181858317,At Palos Verdes Dr E - Construction work.,2319.0,Palos Verdes Dr N,R,Palos Verdes Peninsula,Los Angeles,CA,90274,US,US/Pacific,KTOA,2019-05-14 19:47:00,61.0,61.0,88.0,29.84,10.0,WSW,9.0,,Mostly Cloudy,False,False,False,False,False,False,False,False,False,False,False,True,False,Night,Night,Night,Night
C-5091410,2,2020-07-29 16:14:00.000000000,2020-07-29 19:13:22.000000000,41.205203,-76.00495,41.197831,-76.011641,0.616793649121,Roadwork on RIVER RD / MAIN ST / LOWER BROADWAY / ALDEN MTN RD / ROBERT ST both directions between CHURCH ST and MAIN ST MARKET ST. There is a lane restriction.,1.0,N Market St,L,Nanticoke,Luzerne,PA,18634-1410,US,US/Eastern,KAVP,2020-07-29 15:54:00,89.0,89.0,34.0,28.88,10.0,VAR,6.0,0.0,Fair,False,False,False,False,False,False,False,False,False,False,False,True,False,Day,Day,Day,Day
C-5091411,2,2018-01-10 21:00:57.000000000,2018-01-11 03:00:57.000000000,28.52306,-82.23824,28.52305,-82.23602,0.13477177397,At I-75 - Construction work. Lane blocked.,30386.0,Cortez Blvd,L,Brooksville,Hernando,FL,34602-7501,US,US/Eastern,KBKV,2018-01-10 20:53:00,66.0,,93.0,30.05,10.0,NE,6.9,,Scattered Clouds,False,False,False,False,False,False,False,False,False,False,False,False,False,Night,Night,Night,Night
C-5091412,2,2020-10-10 02:30:30.000000000,2020-10-12 19:01:49.000000000,41.438158,-73.247555,41.429957,-73.251098,0.5956160019,Roadwork on I-84 from River Rd/Exit 13 (I-84) to CT-34/Exit 11 (I-84).,,I-84 W,R,Sandy Hook,Fairfield,CT,06482,US,US/Eastern,KOXC,2020-10-10 02:51:00,54.0,54.0,75.0,29.27,10.0,VAR,5.0,0.0,Fair,False,False,False,False,False,False,False,False,False,False,False,False,False,Night,Night,Night,Night
C-5091413,2,2018-08-06 22:00:00.000000000,2018-08-07 05:00:00.000000000,40.088257,-75.38208,,,0.0,Intermittent lane closures due to construction work on US-202 Dekalb Pike both ways at Allendale Rd.,,Allendale Rd,R,King of Prussia,Montgomery,PA,19406,US,US/Eastern,KLOM,2018-08-06 21:55:00,75.2,,94.0,30.07,10.0,Calm,,,Clear,False,False,False,False,False,False,False,False,False,False,False,True,False,Night,Night,Night,Night
C-5091414,2,2021-06-22 12:45:16.000000000,2021-06-22 13:08:20.000000000,40.817433,-73.930723,40.81909,-73.929537,0.130204773218,Slow traffic from E 149 St exit [4] to Grand Concourse due to roadwork.,434.0,Exterior St,R,Bronx,Bronx,NY,10451-2107,US,US/Eastern,KLGA,2021-06-22 12:51:00,71.0,71.0,68.0,29.7,10.0,N,14.0,0.0,Cloudy,False,False,False,False,True,False,False,False,False,True,False,True,False,Day,Day,Day,Day
C-5091415,2,2020-09-08 16:00:00.000000000,2020-09-09 00:00:00.000000000,33.823009000000006,-84.35705,33.815819,-84.36389,0.633208468317,Lane closed on I-85 S - GA-403 S from Peachtree St exit [86] to exit [85] due to maintenance work.,,GA-403 S,R,Atlanta,Fulton,GA,30324,US,US/Eastern,KPDK,2020-09-08 15:53:00,85.0,85.0,43.0,28.97,10.0,CALM,0.0,0.0,Fair,False,False,False,False,True,False,False,False,False,False,False,False,False,Day,Day,Day,Day
C-5091416,2,2020-11-06 10:00:00.000000000,2020-11-06 15:00:00.000000000,40.809898,-73.378662,,,16.6499996185,One lane closed due to construction work on Northern Pkwy both ways between CR-4 Commack Rd and Wolf Hill Rd.,343.0,Wolf Hill Rd,L,Dix Hills,Suffolk,NY,11746-5633,US,US/Eastern,KFRG,2020-11-06 09:53:00,61.0,61.0,75.0,30.21,10.0,SW,6.0,0.0,Fair,False,False,False,False,False,False,False,False,False,False,False,False,False,Day,Day,Day,Day
C-5091417,3,2020-05-21 01:18:57.000000000,2020-05-21 04:30:00.000000000,47.118546,-122.556694,,,5.92999982834,Intermittent lane closures due to construction during the night on I-5 Northbound between Barksdale Ave and Jackson Ave .,,I-5 N,R,Tacoma,Pierce,WA,98433,US,US/Pacific,KGRF,2020-05-21 00:58:00,51.0,51.0,96.0,29.72,10.0,S,10.0,0.0,Cloudy,False,False,False,False,False,False,False,False,False,False,False,False,False,Night,Night,Night,Night
C-5091418,4,2018-11-08 21:34:26.000000000,2018-11-09 03:33:59.000000000,40.389361,-74.656369,40.381666,-74.661837,0.604558121716,Closed at Ewing St - Closed. Bridge maintenance work.,819.0,State Rd,R,Princeton,Mercer,NJ,08540-1435,US,US/Eastern,KTTN,2018-11-08 21:53:00,45.0,41.8,58.0,30.32,10.0,NNE,5.8,,Clear,False,False,True,False,False,False,False,False,False,True,False,False,False,Night,Night,Night,Night
C-5091419,2,2020-11-10 13:23:30.000000000,2020-11-10 16:14:35.000000000,41.579096,-73.051908,41.546513,-73.044697,2.2819278131900003,Slow traffic on CT-8 from Colonial Ave/Huntingdon Ave/Exit 36 (CT-8) to Washington Ave/Exit 30 (CT-8) due to roadwork.,,CT-8 S,R,Waterbury,New Haven,CT,06708,US,US/Eastern,KOXC,2020-11-10 13:51:00,72.0,72.0,59.0,29.34,10.0,WSW,10.0,0.0,Fair,False,False,False,False,True,False,False,False,False,False,False,False,False,Day,Day,Day,Day
C-5091420,3,2021-06-10 03:22:11.000000000,2021-06-10 05:59:00.000000000,34.322868,-118.476791,,,0.959999978542,Entry ramp to I-210 Eastbound from Yarnell St closed due to paving repairs.,,Foothill Fwy E,R,Sylmar,Los Angeles,CA,91342,US,US/Pacific,KWHP,2021-06-10 08:00:00,63.0,63.0,32.0,29.04,10.0,WNW,23.0,,Fair / Windy,False,False,False,False,False,False,False,False,False,False,False,False,False,Night,Night,Night,Night
C-5091421,2,2018-01-09 20:15:48.000000000,2018-01-10 14:28:07.000000000,42.1157,-80.030214,42.117867,-80.024332,0.336598696471,Between Burton Ave and McClelland Ave - Roadwork. Lane blocked. Open.,1683.0,E 38th St,R,Erie,Erie,PA,16510-3409,US,US/Eastern,KERI,2018-01-09 20:07:00,30.0,,85.0,30.35,4.0,Calm,,,Overcast,False,False,True,False,False,False,False,False,True,False,False,True,False,Night,Night,Night,Night
C-5091422,2,2021-08-27 13:48:06.000000000,2021-08-27 15:49:26.000000000,26.03165,-80.149501,26.033509,-80.150692,0.148207199705,Slow traffic on FL-822 from Thomas St to N 22nd Ave / SW 12th Ave due to roadwork.,2299.0,N 21st Ave,R,Hollywood,Broward,FL,33020,US,US/Eastern,KFLL,2021-08-27 13:53:00,88.0,88.0,67.0,29.96,10.0,ESE,15.0,0.0,Mostly Cloudy,False,False,False,False,False,False,False,False,False,False,False,False,False,Day,Day,Day,Day
C-5091423,2,2017-04-11 21:46:09.000000000,2017-04-12 04:01:09.000000000,40.70647,-74.01601,40.743951,-74.008392,2.6202317552200003,Between South St and 11th Ave - Construction work.,19.0,West St,R,New York,New York,NY,10004,US,US/Eastern,KJRB,2017-04-11 21:55:00,60.8,,68.0,30.42,10.0,NNE,8.1,,Clear,True,False,True,False,False,False,False,False,False,False,False,True,False,Night,Night,Night,Night
C-5091424,2,2021-02-13 00:32:30.000000000,2021-02-15 15:54:58.000000000,30.70943,-99.771223,30.963237,-99.786233,17.55898792,Roadwork on Tillman Ranch Rd (US-83) from Whitehead West (US-83) to US-83 N - US-190 W - US-83 S - US-190 E.,,US-83 N,R,Menard,Kimble,TX,76859,US,US/Central,KJCT,2021-02-13 00:51:00,25.0,15.0,88.0,28.31,4.0,NE,10.0,0.0,Cloudy,False,False,False,False,False,False,False,False,False,False,False,False,False,Night,Night,Night,Night
C-5091425,2,2019-07-23 07:59:56.000000000,2019-07-25 23:59:00.000000000,35.084999,-85.21788000000002,,,0.0,Road closed due to construction work on Harrison Pike both ways between Forest Rd and Benton Dr.,4200.0,Benton Dr,R,Chattanooga,Hamilton,TN,37406-1256,US,US/Eastern,KCHA,2019-07-23 07:53:00,74.0,74.0,93.0,29.19,10.0,SW,3.0,0.0,Cloudy,False,False,False,False,False,False,False,False,False,False,False,False,False,Day,Day,Day,Day
C-5091426,2,2020-04-17 16:33:53.000000000,2020-04-21 16:32:30.000000000,34.73543,-97.2596,34.743590000000005,-97.26665,0.69144689941,Between Airport Rd/Exit 70 and Kimberlin Rd/Exit 74 - Construction work. Roadway reduced to 1 lane.,,I-35 N,R,Pauls Valley,Garvin,OK,73075,US,US/Central,KPVJ,2020-04-17 16:35:00,50.0,50.0,61.0,29.1,10.0,N,12.0,0.0,Mostly Cloudy,False,False,False,False,False,False,False,False,False,False,False,False,False,Day,Day,Day,Day
C-5091427,2,2018-08-09 19:02:35.000000000,2018-08-10 01:02:35.000000000,42.520779,-72.62485600000002,42.522547,-72.625425,0.125546590855,At RT-2/Exit 26 - Construction work.,,I-91 N,R,Deerfield,Franklin,MA,01342,US,US/Eastern,KORE,2018-08-09 18:52:00,82.0,,52.0,29.77,10.0,West,5.8,,Clear,False,False,False,False,False,False,False,False,False,False,False,False,False,Day,Day,Day,Day
C-5091428,4,2019-02-15 10:32:46.000000000,2019-02-15 12:32:06.000000000,38.90104,-86.5318,38.90984,-86.54493000000002,0.931707072978,At IN-54/IN-58 - Work on buried services.,,State Road 37,R,Oolitic,Lawrence,IN,47451,US,US/Eastern,KBMG,2019-02-15 10:53:00,27.0,17.3,,29.92,10.0,West,10.4,,Mostly Cloudy,False,False,False,False,False,False,False,False,False,False,False,True,False,Day,Day,Day,Day
C-5091429,2,2021-05-11 05:42:00.000000000,2021-05-11 14:45:00.000000000,39.842401,-75.11862099999998,39.859001,-75.078351,2.42453549155,Construction on NEW JERSEY TPKE NB near NJ-168 Construction. Left lane closed.,,New Jersey Tpke N,R,Woodbury,Gloucester,NJ,08096,US,US/Eastern,KPHL,2021-05-11 05:54:00,49.0,49.0,61.0,30.06,10.0,NNW,3.0,0.0,Mostly Cloudy,False,False,False,False,False,False,False,False,False,False,False,False,False,Night,Day,Day,Day
C-5091430,2,2021-09-07 10:34:30.000000000,2021-09-07 12:26:00.000000000,42.855325,-106.285198,42.85389,-106.272753,0.638103433125,Stationary traffic on I-25 S from North Beverly Street exit [186] to Wyoming Blvd exit [185] due to roadwork.,,I-25 S,R,Casper,Natrona,WY,82609,US,US/Mountain,KCPR,2021-09-07 10:53:00,69.0,69.0,25.0,24.87,6.0,SSW,5.0,0.0,Smoke,False,False,False,False,False,False,False,False,False,False,False,False,False,Day,Day,Day,Day
C-5091431,2,2020-09-08 13:14:00.000000000,2020-09-09 00:45:12.000000000,33.524016,-112.119923,33.524037,-112.116258,0.211109082391,Queuing traffic from N 35th Ave (W Bethany Home Rd) to I-17/N Black Canyon Hwy (W Bethany Home Rd) due to roadwork.,5999.0,N 28th Dr,R,Phoenix,Maricopa,AZ,85017,US,US/Mountain,KPHX,2020-09-08 12:51:00,95.0,95.0,31.0,28.4,10.0,SW,14.0,0.0,Mostly Cloudy,False,False,False,False,False,False,False,False,False,True,False,False,False,Day,Day,Day,Day
C-5091432,2,2021-09-30 14:29:26.000000000,2021-09-30 18:24:44.000000000,30.009177,-90.235359,30.00823,-90.263036,1.6572460649,Slow traffic on I-10 W from exit [223B] to Loyola Drive exit [221] due to roadwork.,,I-10 W,R,Kenner,Jefferson,LA,70062,US,US/Central,KMSY,2021-09-30 14:19:00,83.0,83.0,67.0,29.99,10.0,SE,8.0,0.0,Mostly Cloudy,False,False,False,False,False,False,False,False,False,False,False,False,False,Day,Day,Day,Day
C-5091433,2,2021-09-27 12:22:30.000000000,2021-09-27 13:25:00.000000000,25.685064,-80.427401,25.684984,-80.429912,0.156448411263,Stationary traffic on FL-94 from 137th Ave (N Kendall Dr) to 147th Ave (N Kendall Dr) due to roadwork.,,SW 88th St,R,Miami,Miami-Dade,FL,33186,US,US/Eastern,KTMB,2021-09-27 11:53:00,88.0,88.0,43.0,30.06,10.0,ENE,15.0,0.0,Fair,False,False,False,False,False,False,False,False,False,False,False,True,False,Day,Day,Day,Day
C-5091434,2,2021-06-14 10:03:00.000000000,2021-06-14 10:54:30.000000000,40.760326,-78.39223199999998,40.764497,-78.385974,0.4362440006899999,Stationary traffic on PA-153 from Srock St to Fernwood Rd / Hunt Club Dr due to roadwork.,780.0,Ginter Morann Hwy,R,Smithmill,Clearfield,PA,16680-9710,US,US/Eastern,KFIG,2021-06-14 09:54:00,70.0,70.0,73.0,28.29,10.0,CALM,0.0,0.0,Fair,False,False,False,False,False,False,False,False,False,False,False,False,False,Day,Day,Day,Day
C-5091435,2,2021-12-04 18:40:30.000000000,2021-12-04 20:45:24.000000000,26.276177,-80.113517,26.275128,-80.11269399999998,0.0886172793578999,Stationary traffic on FL-834 - FL-811 from NE 37th St to NE 36th St due to roadwork.,3667.0,N Dixie Hwy,L,Pompano Beach,Broward,FL,33064-4413,US,US/Eastern,KPMP,2021-12-04 18:53:00,72.0,72.0,68.0,30.09,10.0,CALM,0.0,0.0,Mostly Cloudy,False,False,False,False,False,False,False,False,False,False,False,False,False,Night,Night,Night,Day
C-5091436,2,2017-12-14 07:39:40.000000000,2017-12-21 03:01:02.000000000,35.59655,-80.53546,35.434126,-80.659899,13.2257279383,Between Webb Rd/Exit 70 and NC-73/Exit 55 - Construction work.,,US-601 S,R,Salisbury,Rowan,NC,28146,US,US/Eastern,KRUQ,2017-12-14 07:45:00,34.7,30.6,55.0,29.76,10.0,SW,4.6,,Clear,False,False,False,False,False,False,False,False,False,False,False,False,False,Day,Day,Day,Day
C-5091437,2,2020-06-16 19:00:28.000000000,2020-06-23 05:59:59.000000000,39.99514,-84.00088000000002,40.00492,-84.02914,1.64131690006,At CR-301/Addison-New Carlisle Rd - Roadwork. Single alternate lane traffic.,,Troy Rd,R,New Carlisle,Clark,OH,45344,US,US/Eastern,KFFO,2020-06-16 18:56:00,80.0,80.0,40.0,29.32,10.0,E,6.0,0.0,Fair,False,False,False,False,False,False,False,False,False,False,False,False,False,Day,Day,Day,Day
C-5091438,2,2021-08-28 20:50:30.000000000,2021-08-28 23:02:53.000000000,26.244578000000004,-80.187688,26.24564,-80.186295,0.113297095489,Slow traffic from Banks Rd to NW 15th St due to roadwork.,4682.0,Coconut Creek Pkwy,R,Coconut Creek,Broward,FL,33063-3918,US,US/Eastern,KFXE,2021-08-28 20:53:00,84.0,84.0,74.0,30.04,10.0,ESE,8.0,0.0,Fair,False,False,False,False,False,False,False,False,False,False,False,False,False,Night,Night,Night,Day
C-5091439,2,2020-11-16 13:21:30.000000000,2020-11-17 02:15:28.000000000,33.476712,-112.203303,33.480407,-112.204212,0.2606193979,Slow traffic from W Virginia Ave to N 69th Ave due to roadwork.,6698.0,W Virginia Ave,R,Phoenix,Maricopa,AZ,85035-1518,US,US/Mountain,KGEU,2020-11-16 12:58:00,83.0,83.0,9.0,28.88,10.0,CALM,0.0,0.0,Fair,False,False,False,False,False,False,False,False,False,False,False,False,False,Day,Day,Day,Day
C-5091440,2,2019-08-14 23:32:05.000000000,2019-08-18 23:31:42.000000000,42.37287,-71.03905999999998,42.36261,-71.05504,1.0807389496,Between Porter St/Havre St and I-93/US-1/RT-3 - Construction work. Right lane blocked.,,William F McClellan Hwy S,R,Boston,Suffolk,MA,02128,US,US/Eastern,KBOS,2019-08-14 23:28:00,64.0,64.0,90.0,29.94,0.5,E,3.0,0.0,Fog,True,False,False,False,True,False,False,False,False,False,False,False,False,Night,Night,Night,Night
C-5091441,2,2020-07-15 16:00:00.000000000,2020-07-15 22:45:00.000000000,37.100915,-76.39344200000002,37.100298,-76.393383,0.042754445726,Construction on WYTHE CREEK RD SB near CARY'S CHAPEL RD Drive with caution.,55.0,Wythe Creek Rd,R,Hampton,Hampton,VA,23666-1368,US,US/Eastern,KLFI,2020-07-15 15:56:00,86.0,86.0,64.0,30.13,9.0,E,10.0,0.0,Fair,False,False,False,False,False,False,False,False,False,False,False,True,False,Day,Day,Day,Day
C-5091442,2,2016-10-19 07:02:02.000000000,2016-10-19 13:02:02.000000000,40.744452,-73.979058,40.747008,-73.977171,0.202349849951,Between 33rd St and 35th St - Construction work.,200.0,E 32nd St,R,New York,New York,NY,10016-6521,US,US/Eastern,KNYC,2016-10-19 06:51:00,69.1,,78.0,29.91,9.0,Variable,5.8,,Clear,True,False,True,False,False,False,False,False,False,False,False,True,False,Night,Day,Day,Day
C-5091443,2,2021-11-20 12:22:30.000000000,2021-11-20 13:10:00.000000000,25.685995,-80.416675,25.685394,-80.417583,0.0701486055511,Roadwork on SW 86th St from SW 137th Ct to FL-94.,8734.0,SW 137th Ave,R,Miami,Miami-Dade,FL,33183,US,US/Eastern,KTMB,2021-11-20 12:07:00,76.0,76.0,87.0,30.06,3.0,E,12.0,0.03,Light Rain,False,False,True,False,False,False,False,False,True,False,False,False,False,Day,Day,Day,Day
C-5091444,2,2021-05-13 03:49:00.000000000,2021-05-13 18:11:52.000000000,25.685158,-80.419893,25.684322,-80.41662099999998,0.21176584671,Slow traffic on FL-825 - FL-94 from SW 139th Ave to SW 90th St due to roadwork.,13888.0,SW 88th St,L,Miami,Miami-Dade,FL,33186-1304,US,US/Eastern,KTMB,2021-05-13 03:53:00,77.0,77.0,88.0,30.0,10.0,WSW,3.0,0.0,Fair,False,False,True,False,False,False,False,False,False,False,False,True,False,Night,Night,Night,Night
C-5091445,2,2021-05-05 04:37:30.000000000,2021-05-05 13:19:06.000000000,40.785206,-73.949329,40.786926,-73.95215400000002,0.189642864666,Slow traffic from 3rd Ave to E 97th St due to roadwork.,198.0,E 96th St,R,New York,New York,NY,10128-2505,US,US/Eastern,KNYC,2021-05-05 04:51:00,53.0,53.0,89.0,29.64,4.0,VAR,3.0,0.0,Cloudy,True,False,True,False,False,False,False,False,False,False,False,True,False,Night,Night,Night,Day
C-5091446,2,2021-06-21 16:49:35.000000000,2021-06-21 18:51:54.000000000,25.732467,-80.364517,25.732427,-80.36718,0.16577219294,Stationary traffic on FL-976 from SW 97th Ave (SW 40th St/Bird Rd/FL-976) to FL-985/SW 107th Ave (SW 40th St/Bird Rd/FL-976) due to roadwork.,3898.0,SW 104th Ct,R,Miami,Miami-Dade,FL,33165-3724,US,US/Eastern,KMIA,2021-06-21 16:53:00,89.0,89.0,61.0,30.02,10.0,SSE,14.0,0.0,Mostly Cloudy,False,False,False,False,False,False,False,False,True,False,False,False,False,Day,Day,Day,Day
C-5091447,2,2021-04-21 07:03:30.000000000,2021-04-21 10:19:00.000000000,35.016449,-107.327294,35.038437,-107.359112,2.35560635478,Slow traffic on I-40 W from Indian Service Rte 491/Exit 117 (I-40) to NM-124/Exit 114 (I-40) due to roadwork.,,I-40 W,R,Casa Blanca,Cibola,NM,87007,US,US/Mountain,KGNT,2021-04-21 06:53:00,31.0,31.0,38.0,23.62,10.0,CALM,0.0,0.0,Fair,False,False,False,False,True,False,False,False,False,False,False,False,False,Day,Day,Day,Day
C-5091448,4,2017-08-14 14:03:41.000000000,2017-08-15 02:23:59.000000000,42.005569,-96.234673,42.00683,-96.24182,0.377139108299,Closed at NE-51/Iowa/Nebraska State Line - Closed due to roadwork.,15430.0,Highway 175,R,Onawa,Monona,IA,51040,US,US/Central,KTQE,2017-08-14 19:54:00,75.0,,69.0,29.78,10.0,NNW,3.5,,Clear,False,False,False,False,False,False,False,False,False,False,False,False,False,Day,Day,Day,Day
C-5091449,2,2020-04-20 10:16:24.000000000,2020-04-20 12:16:24.000000000,26.08409,-80.19263000000002,26.08409,-80.19263000000002,0.0,At US-441/Florida's Tpke/Exit 8 - Roadwork. Right lane closed.,,I-595 W,R,Fort Lauderdale,Broward,FL,33312,US,US/Eastern,KFLL,2020-04-20 09:53:00,86.0,86.0,67.0,29.86,10.0,WSW,18.0,0.0,Mostly Cloudy,False,False,False,False,False,False,False,False,False,False,False,False,False,Day,Day,Day,Day
C-5091450,2,2020-10-08 10:46:00.000000000,2020-10-09 05:33:00.000000000,39.032769,-95.590857,39.033959,-95.598339,0.409892623763,Slow traffic on I-70 from I-470/Kansas Tpke (I-70) to I-470/KS-4/Exit 366 (I-70) due to roadwork.,,I-70 W,R,Tecumseh,Shawnee,KS,66542,US,US/Central,KTOP,2020-10-08 10:53:00,76.0,76.0,64.0,29.14,10.0,E,6.0,0.0,Fair,False,False,False,False,True,False,False,False,False,False,False,False,False,Day,Day,Day,Day
C-5091451,2,2020-09-15 13:37:51.000000000,2020-09-16 07:28:32.000000000,34.37713,-80.59625600000003,34.360526,-80.593347,1.15916095004,Roadwork on US-601 from Fletcher Dr/Damascus Church Rd (US-601) to McLeod Rd (US-601).,2059.0,Dekalb School Rd,L,Camden,Kershaw,SC,29020-9216,US,US/Eastern,KCDN,2020-09-15 13:35:00,79.0,79.0,47.0,29.88,10.0,ENE,12.0,0.0,Fair,False,False,False,False,False,False,False,False,False,False,False,False,False,Day,Day,Day,Day
C-5091452,2,2020-10-25 01:19:00.000000000,2020-10-25 03:16:30.000000000,44.608687,-106.847652,44.563587,-106.815052,3.50479135507,Queuing traffic on I-90 from Upper Prairie Dog Rd/Exit 37 (I-90) to Lower Piney Creek Rd/Exit 44 (I-90) due to resurfacing work.,,I-90 E,R,Banner,Sheridan,WY,82832,US,US/Mountain,KPIN,2020-10-25 01:11:00,13.0,-2.0,81.0,26.21,1.0,NW,13.0,0.0,Light Snow,False,False,False,False,False,False,False,False,False,False,False,False,False,Night,Night,Night,Night
C-5091453,3,2019-03-05 18:56:10.000000000,2019-03-10 19:54:55.000000000,41.47757,-81.66044000000002,41.48033,-81.66433,0.277332734499,Ramp to I-490 Westbound - Roadwork.,,I-77 N,R,Cleveland,Cuyahoga,OH,44127,US,US/Eastern,KBKL,2019-03-06 18:53:00,19.9,5.2,55.0,30.27,10.0,SSW,17.3,,Overcast,False,False,False,False,True,False,False,False,False,False,False,False,False,Night,Night,Day,Day
C-5091454,4,2018-10-19 15:27:02.000000000,2018-10-19 20:26:26.000000000,41.081659,-73.818578,41.07866,-73.81801,0.209312196701,Closed at RT-100C/Grasslands Rd/Saw Mill Rd - Closed. Accident investigation work.,,Saw Mill River Rd,R,Valhalla,Westchester,NY,10595,US,US/Eastern,KHPN,2018-10-19 15:56:00,57.0,,40.0,30.07,10.0,SSW,5.8,,Clear,False,False,False,False,False,False,False,False,False,False,False,False,False,Day,Day,Day,Day
C-5091455,2,2020-12-08 13:28:30.000000000,2020-12-11 03:01:14.000000000,40.718984000000006,-73.989297,40.719564,-73.991248,0.1097461510689999,Slow traffic from Williamsburg Bridge (Delancey St) to Bowery (Delancey St) due to roadwork.,90.0,Delancey St,R,New York,New York,NY,10002-3108,US,US/Eastern,KJRB,2020-12-08 13:51:00,34.0,30.0,56.0,29.65,10.0,VAR,5.0,0.0,Cloudy,True,False,True,False,False,False,True,False,False,False,False,True,False,Day,Day,Day,Day
C-5091456,2,2021-07-28 08:01:00.000000000,2021-07-28 15:46:00.000000000,36.403817,-121.909846,36.39935300000001,-121.904614,0.424015314022,One-Way Traffic closure due to Tree Work between Ribera Road and Palo Colorado,36603.0,Highway 1,R,Carmel,Monterey,CA,93923,US,US/Pacific,KMRY,2021-07-28 07:54:00,59.0,59.0,87.0,29.83,10.0,CALM,0.0,0.0,Cloudy,False,False,False,False,False,False,False,False,False,False,False,False,False,Day,Day,Day,Day
C-5091457,2,2021-02-03 13:45:30.000000000,2021-02-04 03:45:57.000000000,33.334305,-111.84166,33.335185,-111.842396,0.0741753549533,Stationary traffic on AZ-87 from E Highland St to N Grace Blvd due to roadwork.,1915.0,N Arizona Ave,R,Chandler,Maricopa,AZ,85225-7011,US,US/Mountain,KCHD,2021-02-03 12:47:00,77.0,77.0,29.0,28.64,10.0,VAR,5.0,,Mostly Cloudy,False,False,False,False,False,False,False,False,False,False,False,False,False,Day,Day,Day,Day
C-5091458,2,2020-12-09 18:00:55.000000000,2020-12-10 01:15:00.000000000,44.545381,-124.073107,44.548672,-124.072617,0.228662990037,Construction on US-101 NB near MP 146 Allow extra time.,12769.0,S Coast Hwy,R,South Beach,Lincoln,OR,97366,US,US/Pacific,KONP,2020-12-09 17:55:00,41.0,41.0,93.0,30.22,10.0,CALM,0.0,0.0,Fair,False,False,False,False,False,False,False,False,False,False,False,False,False,Night,Night,Night,Day
C-5091459,1,2020-11-14 00:00:00.000000000,2020-11-15 00:00:00.000000000,40.75956,-73.999229,,,0.540000021458,Road blocked due to construction on 40th St both ways from 12th Ave to 11th Ave.,605.0,W 40th St,R,New York,New York,NY,10018-1181,US,US/Eastern,KNYC,2020-11-14 00:51:00,48.0,46.0,66.0,29.93,10.0,VAR,5.0,0.0,Fair,False,False,True,False,False,False,False,False,False,False,False,True,False,Night,Night,Night,Night
C-5091460,4,2018-10-18 10:37:27.000000000,2018-10-18 14:00:00.000000000,34.1216,-117.69487,34.12223,-117.69517,0.0467890304441999,Ramp closed to Base Line Rd/Exit 52 - Closed. Accident investigation work.,,E Baseline Rd,R,Claremont,Los Angeles,CA,91711,US,US/Pacific,KPOC,2018-10-18 09:47:00,69.8,,31.0,30.11,10.0,SSE,4.6,,Clear,False,False,False,False,False,False,False,False,False,False,False,True,False,Day,Day,Day,Day
C-5091461,2,2021-03-01 08:30:00.000000000,2021-03-15 05:45:00.000000000,33.612056,-112.133773,33.612077,-112.134527,0.0434104130049,Construction on CALAVAR RD near GELDING DR Allow extra time.,3465.0,W Calavar Rd,L,Phoenix,Maricopa,AZ,85053-5622,US,US/Mountain,KDVT,2021-03-01 08:53:00,50.0,50.0,13.0,28.68,10.0,NE,5.0,0.0,Fair,True,False,False,False,False,True,False,False,False,True,False,False,False,Day,Day,Day,Day
C-5091462,2,2020-11-10 11:43:47.000000000,2020-11-12 01:48:19.000000000,48.160454,-106.450715,48.136124,-106.37201,3.99877084181,Roadwork on MT-24 (US-2) from MT-117/Sargent St (US-2) to US-2 W - US-2 E.,55149.0,US Highway 2,L,Nashua,Valley,MT,59248-9142,US,US/Mountain,KGGW,2020-11-10 11:44:00,18.0,8.0,88.0,27.31,0.5,SE,8.0,0.0,Fog,False,False,False,False,False,False,False,False,False,False,False,False,False,Day,Day,Day,Day
C-5091463,2,2021-06-21 06:36:00.000000000,2021-07-31 18:45:00.000000000,36.633597,-82.553464,36.638112,-82.564752,0.6992868929780001,Construction on US-58 WB near US-23 Construction. Shoulder closed.,3230.0,US Highway 23 N,L,Weber City,Scott,VA,24290,US,US/Eastern,KTRI,2021-06-21 06:53:00,74.0,74.0,82.0,28.31,10.0,WSW,3.0,0.0,Partly Cloudy,False,False,False,False,False,False,False,False,False,False,False,False,False,Day,Day,Day,Day
C-5091464,2,2021-08-13 17:30:59.000000000,2021-08-13 18:34:28.000000000,40.604165,-73.997517,40.601468,-73.993055,0.299187234262,Slow traffic from 18th Ave (86th St) to Stillwell Ave (86th St) due to roadwork.,2027.0,86th St,L,Brooklyn,Kings,NY,11214-3203,US,US/Eastern,KJRB,2021-08-13 17:51:00,89.0,89.0,53.0,29.89,10.0,VAR,3.0,0.0,Fair,True,False,False,False,False,False,True,False,True,False,False,False,False,Day,Day,Day,Day
C-5091465,2,2021-10-17 17:34:00.000000000,2021-10-17 17:46:30.000000000,29.93644500000001,-95.412505,29.927291,-95.411997,0.633212182235,Slow traffic on I-45 N - I-45 S from I-45/North Fwy Frontage/FM-1960 (I-45 HOV) to West Rd (I-45 HOV) due to roadwork.,,I-45 N,R,Houston,Harris,TX,77060,US,US/Central,KIAH,2021-10-17 17:53:00,69.0,69.0,47.0,30.08,10.0,NNE,5.0,0.0,Mostly Cloudy,False,False,False,False,False,False,False,False,False,False,False,False,False,Day,Day,Day,Day
C-5091466,2,2020-05-07 23:39:35.000000000,2020-05-09 05:00:00.000000000,34.39473,-119.50992,34.40845,-119.54958,2.45165607206,Between Bailard Ave/Exit 85 and Padaro Ln/Santa Claus Ln/Exit 88 - Roadwork. Left lane closed.,,US-101 N,R,Carpinteria,Santa Barbara,CA,93013,US,US/Pacific,KSBA,2020-05-07 23:53:00,61.0,61.0,90.0,29.83,6.0,ESE,5.0,0.0,Fair,False,False,False,False,False,False,False,False,False,False,False,False,False,Night,Night,Night,Night
C-5091467,2,2016-08-29 07:01:05.000000000,2016-08-29 13:01:05.000000000,41.985907,-88.006847,41.984718,-88.004041,0.1658825776019999,Between Pierce Rd and Arlington Heights Rd - Roadwork.,,E Pierce Rd,R,Itasca,DuPage,IL,60143,US,US/Central,KORD,2016-08-29 06:51:00,72.0,,91.0,30.22,10.0,NE,5.8,,Scattered Clouds,False,False,False,False,False,False,False,False,False,False,False,True,False,Day,Day,Day,Day
C-5091468,4,2021-06-14 00:00:00.000000000,2021-11-14 23:59:59.000000000,28.06227800000001,-81.990093,28.054841,-81.990167,0.513867570128,Closed road from 10th St W to W Memorial Blvd due to roadwork.,,N Wabash Ave,R,Lakeland,Polk,FL,33805,US,US/Eastern,KLAL,2021-06-14 00:15:00,72.0,72.0,100.0,29.66,10.0,SSW,6.0,0.0,Rain,False,False,True,False,False,False,False,False,False,False,False,True,False,Night,Night,Night,Night
C-5091469,2,2019-09-19 09:26:44.000000000,2019-09-24 09:03:56.000000000,33.98317,-118.09706,33.98317,-118.09706,0.0,At Washington Blvd - Construction work.,,Washington Blvd,R,Pico Rivera,Los Angeles,CA,90660,US,US/Pacific,KEMT,2019-09-19 09:29:00,71.0,71.0,61.0,29.79,10.0,SSW,5.0,0.0,Mostly Cloudy,False,False,False,False,False,False,False,False,False,False,False,True,False,Day,Day,Day,Day
C-5091470,3,2019-07-09 21:03:22.000000000,2019-07-13 21:02:45.000000000,25.78687,-80.3213,25.7736,-80.32066,0.917733905704,At SR-836 - Construction work.,,Palmetto Expy S,R,Miami,Miami-Dade,FL,33122,US,US/Eastern,KMIA,2019-07-09 20:53:00,86.0,86.0,59.0,30.0,10.0,WSW,5.0,0.0,Mostly Cloudy,False,False,False,False,False,False,False,False,False,False,False,False,False,Night,Night,Day,Day
C-5091471,2,2019-04-29 12:51:25.000000000,2019-05-03 12:48:34.000000000,39.98651,-78.26171,40.01472,-78.20205,3.71081093005,Between I-70/Exit 161 and US-522/Fort Littleton Intr/Exit 180 - Roadwork. Left lane blocked.,,I-70 E,R,Breezewood,Bedford,PA,15533,US,US/Eastern,KHMZ,2019-04-29 12:53:00,56.0,56.0,42.0,28.67,10.0,S,8.0,0.0,Fair,False,False,False,False,True,False,False,False,False,False,False,False,False,Day,Day,Day,Day
C-5091472,2,2021-02-10 19:01:00.000000000,2021-02-11 05:46:00.000000000,33.218299,-117.344042,33.243552,-117.289664,3.5946138604300004,Construction on CA-76 EB near RANCHO DEL ORO DR Expect delays.,369.0,N Foussat Rd,L,Oceanside,San Diego,CA,92058,US,US/Pacific,KNFG,2021-02-10 18:55:00,56.0,56.0,69.0,29.93,10.0,SSW,3.0,0.0,Fair,False,False,False,False,False,False,False,False,True,False,False,True,False,Night,Night,Night,Night
C-5091473,4,2021-08-26 14:09:00.000000000,2021-09-02 21:14:29.000000000,41.05268,-76.210287,41.052373,-76.213308,0.158828634749,Roadwork on PA 93 both directions between MAPLE ST and WALL ST. All lanes closed.,,3rd St,R,Nescopeck,Luzerne,PA,18635,US,US/Eastern,KAVP,2021-08-26 13:54:00,91.0,91.0,50.0,29.1,10.0,W,7.0,0.0,Fair,False,False,True,False,False,False,True,False,False,False,False,False,False,Day,Day,Day,Day
C-5091474,2,2021-10-04 13:21:30.000000000,2021-10-04 15:24:13.000000000,45.226068,-93.39771,45.22492,-93.396255,0.106324980527,Stationary traffic on County Hwy-116 - MN-47 from Industry Ave NW to Castle Field Blvd / Parkview Ln due to roadwork.,14084.0,Saint Francis Blvd,L,Anoka,Anoka,MN,55303-5987,US,US/Central,KANE,2021-10-04 13:45:00,68.0,68.0,64.0,29.14,10.0,VAR,5.0,0.0,Mostly Cloudy,False,False,True,False,False,False,False,False,False,True,False,False,False,Day,Day,Day,Day
C-5091475,2,2019-08-21 07:13:22.000000000,2019-12-01 23:59:00.000000000,38.59153,-90.33544,38.597135,-90.319996,0.919537517683,Between Elm Ave/Exit 280 and Jamieson Ave/Exit 284 - Construction work. Lane blocked.,,Murdoch Ave,R,Saint Louis,St. Louis County,MO,63119,US,US/Central,KCPS,2019-08-23 06:53:00,69.0,69.0,90.0,29.61,10.0,NNE,5.0,0.0,Partly Cloudy,False,False,False,False,True,False,False,False,False,False,False,False,False,Day,Day,Day,Day
C-5091476,2,2021-11-10 12:47:00.000000000,2021-11-10 15:02:34.000000000,41.72083,-87.69923399999998,41.71986,-87.70188399999998,0.15221338181,Stationary traffic on US-20 W - US-12 W from S Troy Ave to W 96th St due to roadwork.,3094.0,W 95th St,R,Evergreen Park,Cook,IL,60805-2410,US,US/Central,KMDW,2021-11-10 12:53:00,57.0,57.0,64.0,29.4,8.0,E,9.0,0.0,Cloudy,False,False,False,False,False,False,False,False,False,False,False,False,False,Day,Day,Day,Day
C-5091477,2,2017-10-04 10:55:43.000000000,2017-10-04 16:00:00.000000000,43.200851,-89.197838,,,0.0,One lane closed due to construction work on US-151 Northbound between WI-19 Windsor St and Columbus St.,,Columbus St,R,Sun Prairie,Dane,WI,53590,US,US/Central,KMSN,2017-10-04 10:53:00,64.0,,56.0,30.33,10.0,NW,9.2,,Partly Cloudy,False,False,False,False,False,False,False,False,False,False,False,False,False,Day,Day,Day,Day
C-5091478,2,2021-11-28 20:32:30.000000000,2021-11-28 20:55:00.000000000,41.710535,-86.351175,41.708793,-86.347172,0.238994932973,Stationary traffic on US-20 W - US-20 E from Quince Rd (US-20) to US-31 (US-20) due to roadwork.,24999.0,US Highway 20,R,South Bend,St. Joseph,IN,46628-5911,US,US/Eastern,KSBN,2021-11-28 20:54:00,36.0,31.0,57.0,29.24,9.0,NNE,6.0,0.0,Light Snow,False,False,False,False,False,False,False,False,False,False,False,False,False,Night,Night,Night,Night
C-5091479,2,2018-06-20 00:35:56.000000000,2020-02-13 22:43:27.000000000,39.95813,-76.68535,39.95813,-76.68535,0.0,At I-83 - Roadwork. Traffic problem.,,Mount Rose Ave,R,York,York,PA,17402,US,US/Eastern,KTHV,2018-06-20 00:53:00,66.0,,90.0,29.9,10.0,Calm,,,Clear,False,False,False,False,False,False,False,False,False,False,False,False,False,Night,Night,Night,Night
C-5091480,2,2021-03-02 11:40:30.000000000,2021-03-02 12:29:00.000000000,41.22004,-81.489356,41.18457,-81.477852,2.52265568625,Slow traffic on 2ndLt David E. Rylander Memorial Hwy - 2nd Lt. David E. Rylander Memorial Highway - OH-8 S from OH-303/W Streetsboro St (OH-8) to E Steels Corners Rd (OH-8) due to roadwork.,,Barlow Rd,R,Hudson,Summit,OH,44236,US,US/Eastern,KPOV,2021-03-02 11:35:00,28.0,28.0,41.0,28.97,10.0,CALM,0.0,0.0,Fair,False,False,False,False,False,False,False,False,False,False,False,False,False,Day,Day,Day,Day
C-5091481,2,2021-11-13 11:17:30.000000000,2021-11-13 11:40:30.000000000,40.72546,-111.895701,40.725409,-111.90195,0.327229659086,Slow traffic from US-89/S State St (E 2100 S) to I-80/I-15 (W 2100 S) due to roadwork.,159.0,W 2100 S,R,Salt Lake City,Salt Lake,UT,84115-1828,US,US/Mountain,KSLC,2021-11-13 10:54:00,56.0,56.0,55.0,25.99,10.0,CALM,0.0,0.0,Partly Cloudy,False,False,True,False,False,False,False,False,False,False,False,True,False,Day,Day,Day,Day
C-5091482,2,2021-08-11 15:49:00.000000000,2021-08-11 16:09:30.000000000,37.268658,-107.884776,37.273931,-107.883329,0.3729154126039999,Slow traffic on US-550 S - US-550 N from US-160/Million Dollar Hwy (US-160/US-550) to Park Ave/W 17th St (Main Ave/US-550) due to roadwork.,,Highway 160,R,Durango,La Plata,CO,81301,US,US/Mountain,KDRO,2021-08-11 15:53:00,84.0,84.0,20.0,23.58,10.0,WSW,10.0,0.0,Fair,False,False,False,False,False,False,False,False,False,False,False,True,False,Day,Day,Day,Day
C-5091483,2,2021-09-08 07:18:30.000000000,2021-09-08 07:32:30.000000000,37.592632,-122.056734,37.584625,-122.051032,0.635236190235,Slow traffic on Nimitz Fwy S - I-880 S from Alvarado Niles Rd (I-880) to Alvarado Blvd/Fremont Blvd (I-880) due to roadwork.,,I-880 S,R,Union City,Alameda,CA,94587,US,US/Pacific,KHWD,2021-09-08 06:54:00,63.0,63.0,84.0,29.85,9.0,CALM,0.0,0.0,Fair,False,False,False,False,False,False,False,False,False,False,False,False,False,Day,Day,Day,Day
C-5091484,2,2021-03-15 00:00:00.000000000,2021-03-17 12:59:50.000000000,39.12650900000001,-77.116416,39.119579,-77.080606,1.97831294588,Construction on MD-200 EB near MP 7 Expect delays.,,Inter County Connector E,R,Derwood,Montgomery,MD,20855,US,US/Eastern,KGAI,2021-03-15 00:56:00,39.0,33.0,28.0,29.69,10.0,NNW,9.0,0.0,Fair,False,False,False,False,False,False,False,False,False,False,False,False,False,Night,Night,Night,Night
C-5091485,2,2021-08-10 12:21:00.000000000,2021-08-10 12:50:30.000000000,39.834849,-75.44190400000002,39.831992,-75.440725,0.207074447321,Stationary traffic from Larkin Rd/Bethel Ave (Chichester Ave) to I-95 (Chichester Ave) due to roadwork.,3143.0,Chichester Ave,R,Upper Chichester,Delaware,PA,19061-3117,US,US/Eastern,KPHL,2021-08-10 11:56:00,82.0,82.0,74.0,30.13,10.0,WSW,3.0,0.0,Partly Cloudy,False,False,False,False,False,False,False,False,False,False,False,False,False,Day,Day,Day,Day
C-5091486,2,2021-05-11 06:18:30.000000000,2021-05-11 07:57:00.000000000,34.998589,-80.977467,34.993769,-80.97925699999998,0.348100465899,Stationary traffic from Sutton Rd S to I-77 S due to roadwork.,,Sutton Rd S,R,Fort Mill,York,SC,29708,US,US/Eastern,KUZA,2021-05-11 05:54:00,60.0,60.0,67.0,29.34,10.0,NNE,5.0,0.0,Fair,False,False,False,False,False,False,False,False,False,False,False,False,False,Night,Day,Day,Day
C-5091487,2,2021-08-13 20:00:00.000000000,2021-08-19 00:45:00.000000000,42.197298,-83.277503,42.19600000000001,-83.305961,1.45945020403,Construction on EUREKA RD WB near BEECH DALY RD Allow extra time.,25000.0,Eureka Rd,R,Taylor,Wayne,MI,48180-5065,US,US/Eastern,KDTW,2021-08-13 19:53:00,79.0,79.0,56.0,29.35,10.0,WNW,8.0,0.0,Mostly Cloudy,False,False,True,False,False,False,False,False,True,False,False,True,False,Day,Day,Day,Day
C-5091488,2,2020-10-16 12:17:30.000000000,2020-10-17 04:22:26.000000000,42.240562,-87.985493,42.242256,-87.9777,0.415449265828,Stationary traffic on IL-60 - County Hwy-57 - County Hwy-W11 from Oak Creek Plz to W Hawthorn Pkwy due to roadwork.,1255.0,Townline Rd,R,Mundelein,Lake,IL,60060-4429,US,US/Central,KPWK,2020-10-16 11:52:00,50.0,50.0,50.0,29.48,10.0,WNW,14.0,0.0,Cloudy,False,False,True,False,False,False,False,False,False,False,False,True,False,Day,Day,Day,Day
C-5091489,2,2021-06-17 23:05:30.000000000,2021-06-17 23:30:00.000000000,40.609827,-75.530008,40.612892,-75.514093,0.861212512304,Slow traffic on US-22 E from PA-309 (US-22) to 15th St (US-22) due to roadwork.,,US-22 E,R,Allentown,Lehigh,PA,18104,US,US/Eastern,KXLL,2021-06-17 22:55:00,63.0,63.0,55.0,29.62,10.0,CALM,0.0,0.0,Fair,False,False,False,True,False,False,False,False,False,False,False,False,False,Night,Night,Night,Night
C-5091490,4,2020-12-16 19:11:00.000000000,2020-12-17 20:31:44.000000000,40.195723,-74.80903,40.194413,-74.80145,0.410162087139,Construction on US-1 NB near US-13 Use alternate exit ramp.,,New Lincoln Hwy N,R,Fairless Hills,Bucks,PA,19030,US,US/Eastern,KTTN,2020-12-16 19:16:00,25.0,11.0,92.0,29.77,1.0,NE,21.0,0.0,Light Snow / Windy,False,False,False,False,False,False,False,False,False,False,False,False,False,Night,Night,Night,Night
C-5091491,2,2021-10-21 16:10:30.000000000,2021-10-21 18:22:51.000000000,41.953975,-87.691513,41.954551,-87.68839,0.16533150872,Slow traffic on IL-19 from N Rockwell St to W Cuyler Ave due to roadwork.,2525.0,W Irving Park Rd,L,Chicago,Cook,IL,60618-3715,US,US/Central,KORD,2021-10-21 15:51:00,54.0,54.0,77.0,29.21,10.0,WNW,12.0,0.0,Cloudy,False,False,False,False,False,False,False,False,True,False,False,False,False,Day,Day,Day,Day
C-5091492,2,2016-06-05 06:56:09.000000000,2016-06-05 15:56:09.000000000,32.84053,-116.89287,32.84053,-116.89287,0.0,At I-8-BR - Roadwork.,13699.0,Highway 8 Business,R,El Cajon,San Diego,CA,92021-1920,US,US/Pacific,KSEE,2016-06-05 06:47:00,59.0,,,29.92,1.0,North,,,Overcast,False,False,False,False,False,False,False,False,False,False,False,False,False,Day,Day,Day,Day
C-5091493,2,2021-03-16 06:03:00.000000000,2021-03-16 09:03:30.000000000,41.179946,-73.758985,41.181417,-73.758247,0.108640726038,Stationary traffic on Saw Mill River Pkwy - Saw Mill River Pkwy N from Hunts Pl (Saw Mill River Pkwy) to Readers Digest Rd (Saw Mill River Pkwy) due to roadwork.,,Saw Mill River Pkwy,R,Chappaqua,Westchester,NY,10514,US,US/Eastern,KHPN,2021-03-16 05:56:00,23.0,23.0,37.0,29.81,10.0,NNE,3.0,0.0,Fair,False,False,False,False,True,False,False,False,False,False,False,False,False,Night,Night,Night,Day
C-5091494,2,2021-05-24 08:00:00.000000000,2021-05-28 23:59:59.000000000,40.944032,-73.094755,40.943241,-73.10206099999998,0.385197241801,NYSDOT - Region 10: roadwork on NY 25A eastbound area of Old Coach Road (Brookhaven) from 8:00 A.M. until 4:00 P.M. Monday May 24th 2021 thru Friday May 28th 2021 Monday thru Friday 08:00 AM thru 04:00 PM 1 lane closed,348.0,Main St,R,Setauket,Suffolk,NY,11733-3842,US,US/Eastern,KISP,2021-05-24 07:56:00,62.0,62.0,52.0,30.17,10.0,ESE,13.0,0.0,Mostly Cloudy,False,False,True,False,False,False,False,False,False,False,False,False,False,Day,Day,Day,Day
C-5091495,2,2018-07-06 02:50:42.000000000,2018-07-06 08:50:43.000000000,40.72539,-73.894971,40.72582,-73.89966,0.2473162309120001,At Maurice Ave/Exit 18 - Construction work.,,69th St,R,Maspeth,Queens,NY,11378,US,US/Eastern,KLGA,2018-07-06 02:51:00,81.0,,77.0,30.1,10.0,SW,8.1,,Overcast,False,False,False,False,False,False,False,False,False,False,False,True,False,Night,Night,Night,Night
C-5091497,2,2020-10-09 04:58:08.000000000,2020-10-09 13:45:00.000000000,40.557675,-74.319519,40.560454,-74.32105899999998,0.208333856774,Roadwork roadwork on Garden State Parkway northbound South of Exit 131 - Wood Avenue South (Woodbridge Twp) to North of Exit 131 -A - Wood Avenue South (Woodbridge Twp) 1 Right lane of 5 lanes closed to traffic until 6:00 A.M.,,Garden State Pkwy N,R,Iselin,Middlesex,NJ,08830,US,US/Eastern,KLDJ,2020-10-09 04:55:00,49.0,49.0,70.0,30.15,10.0,CALM,0.0,0.0,Mostly Cloudy,False,False,False,False,False,False,False,False,False,False,False,False,False,Night,Night,Night,Night
C-5091498,2,2021-06-07 09:29:00.000000000,2021-11-05 15:54:41.000000000,39.696857,-75.651682,39.696992,-75.651426,0.0164993256699,Roadwork on DE-58/Churchmans Rd (Ogletown Stanton Rd/DE-4) from DE-7/Stanton Christiana Rd (DE-4) to DE-7 - DE-4.,,DE-4,R,Newark,New Castle,DE,19713,US,US/Eastern,KILG,2021-06-07 09:51:00,83.0,83.0,74.0,30.03,9.0,SSE,6.0,0.0,Fair,False,False,True,False,False,False,False,False,False,False,False,True,False,Day,Day,Day,Day
C-5091500,2,2021-03-15 05:46:30.000000000,2021-03-15 08:55:30.000000000,40.338438,-104.98006200000002,40.374238,-104.991182,2.54189160106,Slow traffic on US-87 N - I-25 N from CO-60/Exit 252 (I-25) to E CR-16/Exit 254 (I-25) due to roadwork.,,I-25 N,R,Johnstown,Weld,CO,80534,US,US/Mountain,KFNL,2021-03-15 05:56:00,17.0,4.0,92.0,24.8,2.0,SW,12.0,0.0,Light Snow,False,False,False,False,False,False,False,False,False,False,False,False,False,Night,Night,Night,Day
C-5091501,2,2019-05-31 19:00:00.000000000,2019-06-01 06:00:00.000000000,38.82544,-104.72424,38.829943,-104.721494,0.344452108684,At US-24-BL/E Platte Ave/N Powers Blvd - Road marking work.,,Powers Blvd,R,Colorado Springs,El Paso,CO,80916,US,US/Mountain,KCOS,2019-05-31 18:54:00,66.0,66.0,36.0,23.98,10.0,NNE,15.0,0.0,Cloudy,False,False,False,False,False,False,False,False,False,False,False,False,False,Day,Day,Day,Day
C-5091502,2,2020-12-03 13:26:30.000000000,2020-12-03 21:44:40.000000000,26.100761,-80.136889,26.100218,-80.135918,0.0709747866833,Slow traffic on US-1 S - FL-A1A - FL-5 from SE 16th Ct to Miami Rd due to roadwork.,1677.0,S Federal Hwy,L,Fort Lauderdale,Broward,FL,33316-2963,US,US/Eastern,KFLL,2020-12-03 13:53:00,77.0,77.0,46.0,30.13,10.0,E,14.0,0.0,Mostly Cloudy,True,False,True,False,False,False,False,False,False,False,False,False,False,Day,Day,Day,Day
C-5091503,2,2021-03-09 07:53:00.000000000,2021-11-24 23:59:59.000000000,40.697261,-73.813342,40.698579,-73.814227,0.1021864467909999,Construction on VAN WYCK EXPY northbound from ATLANTIC AVE (New York) to ARCHER AVE (New York) Subject to change without notice. Tuesday November 23rd 2021 thru Wednesday November 24th 2021 Tuesday/Wednesday 12:01 AM thru 05:00 AM 2 Right lanes of 3 lanes closed service road Friday November 26th 2021 10:00 AM thru 02:00 PM 1 Right lane of 3 lanes closed service road Friday November 26th 2021 thru Saturday November 27th 2021 09:00 PM thru 12:01 AM 1 Right lane of 3 lanes closed service road Saturday November 27th 2021 thru Sunday November 28th 2021 Saturday/ Sunday 12:01 AM thru 06:00 AM 2 Right lanes of 3 lanes closed service road Saturday November 27th 2021 thru Sunday November 28th 2021 11:00 PM thru 01:00 AM 1 Right lane of 3 lanes closed service road Sunday November 28th 2021 01:00 AM thru 08:00 AM 2 Right lanes of 3 lanes closed service road Sunday November 28th 2021 08:00 AM thru 10:00 AM 1 Right lane of 3 lanes closed service road,,94th Ave,R,Jamaica,Queens,NY,11435,US,US/Eastern,KJFK,2021-11-23 00:51:00,35.0,24.0,48.0,29.92,10.0,NW,20.0,0.0,Fair,False,False,True,False,False,False,True,False,False,False,False,True,False,Day,Day,Day,Day
C-5091504,2,2021-04-01 11:45:53.000000000,2021-04-01 12:46:08.000000000,33.546484,-86.635147,33.544314,-86.594507,2.34508428278,Slow traffic on I-20 E from I-459/Exit 136 (I-20) to AL-78/Exit 140 (I-20) due to roadwork.,,I-20 E,R,Birmingham,Jefferson,AL,35210,US,US/Central,KBHM,2021-04-01 11:53:00,51.0,51.0,31.0,29.72,10.0,NNW,22.0,0.0,Fair / Windy,False,False,False,False,True,False,False,False,False,False,False,False,False,Day,Day,Day,Day
C-5091505,2,2021-05-10 09:21:30.000000000,2021-05-10 13:18:14.000000000,27.127923,-81.330187,27.107511,-81.33225300000002,1.41604642254,Stationary traffic on US-27 S - FL-25 from Hickory Branch Rd (US-27) to FL-731 (US-27) due to roadwork.,,Horn Rd,R,Venus,Highlands,FL,33960,US,US/Eastern,KOBE,2021-05-10 09:15:00,79.0,79.0,78.0,30.04,,S,12.0,0.0,Cloudy,False,False,False,False,False,False,False,False,False,False,False,False,False,Day,Day,Day,Day
C-5091506,2,2017-10-24 11:53:50.000000000,2017-10-24 17:56:37.000000000,41.84381,-79.14498,41.84383,-79.14539,0.0211488163611999,At Market St - Roadwork. Lane blocked.,201.0,Pennsylvania Ave W,L,Warren,Warren,PA,16365-2412,US,US/Eastern,KJHW,2017-10-24 11:56:00,52.0,,80.0,29.69,10.0,SW,13.8,,Overcast,False,False,True,False,False,False,False,False,False,False,False,True,False,Day,Day,Day,Day
C-5091507,2,2021-09-10 11:33:00.000000000,2021-09-10 13:43:30.000000000,41.690823,-87.741516,41.691956,-87.73969,0.122491172126,Slow traffic on IL-50 from S Lawler Ave to W 110th St due to roadwork.,4839.0,W 111th St,L,Alsip,Cook,IL,60803-2865,US,US/Central,KMDW,2021-09-10 11:53:00,78.0,78.0,36.0,29.42,10.0,W,10.0,0.0,Partly Cloudy,False,False,False,False,False,False,False,False,False,False,False,False,False,Day,Day,Day,Day
C-5091508,2,2020-04-07 05:50:45.000000000,2020-04-08 05:50:45.000000000,42.76755,-78.59346,42.71509,-78.58149,3.6751818741300006,Between US-20a/RT-78 and RT-16/Olean Rd/Richardson Rd - Roadwork. Left lane closed.,1037.0,Main St,R,East Aurora,Erie,NY,14052,US,US/Eastern,KBUF,2020-04-07 05:54:00,41.0,38.0,55.0,29.17,10.0,ESE,5.0,0.0,Partly Cloudy,False,False,False,False,False,False,False,False,False,False,False,False,False,Night,Night,Day,Day
C-5091509,2,2020-10-15 14:00:00.000000000,2020-10-17 06:59:00.000000000,42.703494,-73.715057,42.703716,-73.714872,0.0179864328459,Construction on NY 32 southbound from Earl Ave (Menands) to Cemetery (Menands) Thursday October 15th 2020 thru Friday October 16th 2020 Thursday/Friday 07:00 AM thru 05:00 PM right lane closed,573.0,Broadway,R,Menands,Albany,NY,12204-2804,US,US/Eastern,KALB,2020-10-15 13:51:00,69.0,69.0,53.0,29.52,10.0,S,17.0,0.0,Partly Cloudy,False,False,False,False,False,False,False,False,False,False,False,False,False,Day,Day,Day,Day
C-5091510,2,2021-10-27 17:17:31.000000000,2021-10-27 19:53:57.000000000,34.298227000000004,-118.440637,34.299868,-118.439706,0.125217510702,Slow traffic from Herrick Ave to Aztec St due to roadwork.,14122.0,Hubbard St,L,Sylmar,Los Angeles,CA,91342-4712,US,US/Pacific,KWHP,2021-10-27 16:50:00,82.0,82.0,23.0,29.01,10.0,SE,6.0,,Fair,False,False,False,False,False,False,False,False,False,False,False,False,False,Day,Day,Day,Day
C-5091511,4,2019-05-28 15:09:18.000000000,2019-05-28 20:08:51.000000000,43.61169,-116.59445,43.609199,-116.597652,0.235121158389,Closed at I-84/US-30 - Closed due to roadwork.,,Midland Blvd,R,Nampa,Canyon,ID,83687,US,US/Mountain,KMAN,2019-05-28 15:15:00,77.0,77.0,32.0,27.22,10.0,NW,13.0,0.0,Mostly Cloudy,False,False,False,False,False,False,False,False,False,False,False,True,False,Day,Day,Day,Day
C-5091512,2,2019-06-18 20:02:11.000000000,2019-06-22 20:01:34.000000000,30.4559,-81.65038,30.48526,-81.64275,2.0788466370400003,Between SR-104/Busch Dr/Dunn Av/Exit 360 and Duval Rd/SR-102/Exit 363 - Construction work. Lane blocked.,,I-95 N,R,Jacksonville,Duval,FL,32218,US,US/Eastern,KJAX,2019-06-18 19:56:00,80.0,80.0,85.0,29.91,10.0,WSW,5.0,0.0,Thunder,False,False,False,False,True,False,False,False,False,False,False,False,False,Day,Day,Day,Day
C-5091513,2,2020-12-28 08:31:30.000000000,2020-12-28 09:17:00.000000000,39.442553,-81.12835799999998,39.440487,-81.146909,1.00010272918,Slow traffic on WV-2 from CR-5/Bens Run Rd (WV-2) to High St (WV-2) due to roadwork.,5443.0,N Pleasants Hwy,L,Saint Marys,Pleasants,WV,26170,US,US/Eastern,KPKB,2020-12-28 08:53:00,47.0,44.0,56.0,29.17,10.0,SW,7.0,0.0,Fair,False,False,False,False,False,False,False,False,False,False,False,False,False,Day,Day,Day,Day
C-5091514,2,2021-05-04 10:20:00.000000000,2021-05-04 11:03:30.000000000,42.073291,-122.605952,42.015351,-122.614132,4.025215302019999,Slow traffic on OR-99 S - Pacific Highway 1 S - I-5 S from Old Siskiyou Hwy/Exit 6 (I-5) to OR-99/Exit 1 (I-5) due to roadwork.,,I-5 S,R,Ashland,Jackson,OR,97520,US,US/Pacific,KMFR,2021-05-04 09:53:00,61.0,61.0,54.0,28.74,10.0,CALM,0.0,0.0,Partly Cloudy,False,False,False,False,False,False,False,False,False,False,False,False,False,Day,Day,Day,Day
C-5091515,4,2021-04-15 06:00:00.000000000,2021-08-10 17:45:00.000000000,42.453591,-92.382352,42.453415,-92.370218,0.618697206598,Construction on US-20 EB near ANSBOROUGH AVE Take alternate route.,,IA-27 S,R,Waterloo,Black Hawk,IA,50701,US,US/Central,KALO,2021-04-15 05:54:00,39.0,32.0,82.0,29.21,10.0,NW,10.0,0.0,Cloudy,False,False,False,False,False,False,False,False,False,False,False,False,False,Night,Day,Day,Day
C-5091516,3,2019-06-15 06:30:00.000000000,2019-06-16 00:01:00.000000000,32.691582000000004,-97.062607,,,0.0,Intermittent lane closures due to construction work on I-20 Northbound between I-20 and Sh 360.,,TX-360 N,R,Grand Prairie,Tarrant,TX,75052,US,US/Central,KGPM,2019-06-15 06:35:00,75.0,75.0,78.0,29.24,10.0,SSE,12.0,0.0,Partly Cloudy,False,False,False,False,False,False,False,False,False,False,False,False,False,Day,Day,Day,Day
C-5091517,2,2021-11-11 16:56:27.000000000,2021-11-11 21:16:27.000000000,29.734299,-95.409328,29.733405,-95.410808,0.108166489524,Slow traffic from McDuffie St to Farnham St / Portsmouth St due to roadwork.,2052.0,Richmond Ave,R,Houston,Harris,TX,77098-3424,US,US/Central,KMCJ,2021-11-11 16:53:00,72.0,72.0,61.0,29.99,10.0,NNE,12.0,0.0,Fair,False,False,False,False,False,False,False,False,False,True,False,False,False,Day,Day,Day,Day
C-5091518,2,2020-10-16 12:55:30.000000000,2020-10-16 22:12:20.000000000,33.493409,-112.073714,33.494796,-112.074765,0.113363229756,Stationary traffic from E Indianola Ave / W Clarendon Ave to N 1st Ave due to roadwork.,4033.0,N Central Ave,R,Phoenix,Maricopa,AZ,85012-1948,US,US/Mountain,KPHX,2020-10-16 12:51:00,95.0,95.0,8.0,28.72,10.0,NE,5.0,0.0,Partly Cloudy,True,False,False,False,False,False,False,False,True,False,False,False,False,Day,Day,Day,Day
C-5091519,2,2021-10-06 06:57:00.000000000,2021-10-06 07:36:30.000000000,41.81035900000001,-87.72359399999998,41.822957,-87.72393100000002,0.8706118664650001,Slow traffic from W 47th St (S Pulaski Rd) to I-55/Adlai E Stevenson Expy (S Pulaski Rd) due to roadwork.,4555.0,S Pulaski Rd,L,Chicago,Cook,IL,60632-4035,US,US/Central,KMDW,2021-10-06 06:53:00,65.0,65.0,81.0,29.58,4.0,E,6.0,0.0,Cloudy,False,False,False,False,False,False,False,False,False,False,False,True,False,Day,Day,Day,Day
C-5091520,2,2018-03-19 08:00:00.000000000,2018-03-19 17:00:00.000000000,42.957832,-115.451395,42.94701,-115.42758,1.4175840271,At I-84-BL/Exit 114 - Bridge maintenance work.,,Vietnam Veterans Memorial Hwy,R,Hammett,Elmore,ID,83627,US,US/Mountain,KMUO,2018-03-19 07:58:00,29.1,20.6,100.0,30.23,10.0,East,9.2,,Mostly Cloudy,False,False,False,False,False,False,False,False,False,False,False,False,False,Day,Day,Day,Day
C-5091521,2,2021-08-24 17:31:30.000000000,2021-08-24 18:32:00.000000000,33.422005,-111.934376,33.421916,-111.942375,0.4613266092399999,Stationary traffic from S Rural Rd (E University Dr) to S Priest Dr (W University Dr) due to roadwork.,308.0,E University Dr,R,Tempe,Maricopa,AZ,85281,US,US/Mountain,KPHX,2021-08-24 17:51:00,103.0,103.0,18.0,28.61,10.0,NW,8.0,0.0,Fair,False,False,True,False,False,False,True,False,True,False,False,True,False,Day,Day,Day,Day
C-5091522,4,2019-09-25 14:03:02.000000000,2019-09-25 19:02:44.000000000,25.787924,-80.255961,25.78521,-80.25586,0.187624787423,Closed at NW 15th St - Closed due to roadwork.,3699.0,NW 15th St,R,Miami,Miami-Dade,FL,33125-1717,US,US/Eastern,KMIA,2019-09-25 13:53:00,88.0,88.0,46.0,29.89,10.0,NE,9.0,0.0,Fair,False,False,True,False,False,False,False,False,False,False,False,False,False,Day,Day,Day,Day
C-5091523,4,2020-06-29 00:48:30.000000000,2020-06-29 02:47:50.000000000,39.66174,-84.09964000000002,39.65822,-84.103,0.301815040419,At Wilmington Pike/Exit 7 - Roadwork.,,I-675 S,R,Dayton,Greene,OH,45440,US,US/Eastern,KMGY,2020-06-29 00:53:00,73.0,73.0,87.0,28.89,10.0,S,3.0,0.0,Fair,False,False,False,False,False,False,False,False,False,False,False,False,False,Night,Night,Night,Night
C-5091524,2,2021-02-21 07:51:30.000000000,2021-02-22 00:41:07.000000000,33.59760900000001,-111.980775,33.599074,-111.981364,0.1067468378659999,Slow traffic from S Paradise Village Pkwy to S Paradise Valley Mall due to roadwork.,12211.0,N Tatum Blvd,R,Phoenix,Maricopa,AZ,85032-7707,US,US/Mountain,KSDL,2021-02-21 07:53:00,50.0,50.0,32.0,28.56,10.0,NNE,7.0,0.0,Fair,False,False,False,False,False,False,False,False,False,False,False,False,False,Day,Day,Day,Day
C-5091525,2,2021-01-12 14:01:24.000000000,2021-01-19 15:19:52.000000000,30.629043,-81.613698,30.618765000000003,-81.652415,2.409040932,Roadwork on US-17/FL-5 (FL-A1A) from Griffin Rd (FL-A1A) to Nassau County Deputy Sheriff's Memorial Hwy - FL-200 - FL-A1A.,463001.0,State Road 200,R,Yulee,Nassau,FL,32097-5500,US,US/Eastern,KFHB,2021-01-12 13:55:00,54.0,54.0,95.0,30.15,10.0,NNW,10.0,0.0,Cloudy,False,False,False,False,False,False,False,False,False,False,False,False,False,Day,Day,Day,Day
C-5091526,2,2021-10-18 07:00:00.000000000,2021-10-29 19:00:00.000000000,43.627602,-89.77904000000002,43.627702,-89.77673100000001,0.1156853977,Maintenance - Mainline Single Lane Closed from WISCONSIN RIVER 16 to EDDY ST,,County Hwy-16,R,Wisconsin Dells,Columbia,WI,53965,US,US/Central,KDLL,2021-10-18 06:55:00,36.0,36.0,97.0,29.05,10.0,CALM,0.0,0.0,Fair,True,False,False,False,False,False,False,False,False,False,False,True,False,Night,Day,Day,Day
C-5091527,2,2020-11-22 12:52:30.000000000,2020-11-23 02:52:00.000000000,41.668411,-84.858576,41.6657,-84.852962,0.345033309077,Slow traffic on I-90 E - I-80 E - Indiana East-West Toll Rd E from Eastpoint Barrier Toll Plaza (I-90/I-80) to IN--OH State Border (I-90/I-80) due to roadwork.,1784.0,N 700 E,R,Angola,Steuben,IN,46703,US,US/Eastern,KANQ,2020-11-22 12:55:00,34.0,28.0,93.0,29.05,8.0,NNE,7.0,0.0,Light Snow,False,False,False,False,True,False,False,False,False,False,False,False,False,Day,Day,Day,Day
C-5091528,2,2020-10-22 04:00:00.000000000,2020-10-22 14:05:47.000000000,40.492562,-74.297658,40.491433,-74.29797099999998,0.0797214078548,Construction paving operations on NJ 35 southbound CR 684/Main St (Sayreville) 1 Right lane of 4 lanes closed for repairs Until 5:00 AM,7082.0,State Route 35,L,South Amboy,Middlesex,NJ,08879-1127,US,US/Eastern,KLDJ,2020-10-22 03:55:00,65.0,65.0,95.0,30.18,0.75,CALM,0.0,0.0,Fog,False,False,False,False,False,False,False,False,False,False,False,False,False,Night,Night,Night,Night
C-5091529,2,2021-05-28 14:11:00.000000000,2021-05-28 14:35:49.000000000,43.656106,-116.279742,43.663664,-116.279273,0.522734015244,Slow traffic on ID-44 from US-20/US-26/W Chinden Blvd (N Glenwood St/ID-44) to W State St/N Gary Ln (N Glenwood St/ID-44) due to roadwork.,5416.0,N Glenwood St,R,Garden City,Ada,ID,83714-1336,US,US/Mountain,KBOI,2021-05-28 13:53:00,64.0,64.0,22.0,27.16,10.0,WNW,13.0,0.0,Fair,False,False,True,False,False,False,False,False,True,False,False,True,False,Day,Day,Day,Day
C-5091530,3,2019-10-30 00:56:02.000000000,2019-10-30 06:01:00.000000000,34.00581,-118.17337,,,0.519999980927,Entry ramp to I-710 Southbound from E Washington Blvd Westbound closed due to bridge maintenance work.,2326.0,Connor Ave,L,Commerce,Los Angeles,CA,90040-1013,US,US/Pacific,KCQT,2019-10-30 00:52:00,61.0,61.0,72.0,29.78,10.0,CALM,0.0,0.0,Fair,False,False,False,False,False,False,False,False,False,False,False,True,False,Night,Night,Night,Night
C-5091531,2,2016-06-13 07:15:20.000000000,2016-06-13 13:15:20.000000000,41.335251,-75.715257,41.28247,-75.76760999999998,4.54776192249,Between Keyser Avenue Toll Plaza and Wyoming Valley Toll Plaza - Construction work.,,NE Extension Penn Tpke N,R,Pittston,Luzerne,PA,18640,US,US/Eastern,KAVP,2016-06-13 06:54:00,54.0,,69.0,29.94,10.0,NW,10.4,,Overcast,False,False,False,False,False,False,False,False,False,False,False,False,False,Day,Day,Day,Day
C-5091532,2,2021-01-29 01:38:00.000000000,2021-02-01 09:15:18.000000000,38.177744,-120.386232,38.343733,-120.21435,14.781312778,Roadwork on Strawberry Hill Rd (CA-4) from Ramsey Rd (CA-4) to CA-4.,101.0,Red Apple Dr,L,Murphys,Calaveras,CA,95247,US,US/Pacific,KO22,2021-01-29 01:35:00,37.0,34.0,100.0,27.56,5.0,VAR,5.0,0.0,Mostly Cloudy,False,False,False,False,False,False,False,False,False,False,False,False,False,Night,Night,Night,Night
C-5091533,2,2021-06-08 17:10:06.000000000,2021-06-08 17:43:41.000000000,40.820565,-73.94921,40.82465,-73.94622199999998,0.322599957312,Stationary traffic from W 135th St to W 145th St due to roadwork.,202.0,Convent Ave,L,New York,New York,NY,10031-9112,US,US/Eastern,KNYC,2021-06-08 16:51:00,72.0,72.0,93.0,29.94,4.0,CALM,0.0,0.33,Rain,False,False,False,False,False,False,False,False,False,False,False,True,False,Day,Day,Day,Day
C-5091534,2,2021-09-22 13:03:30.000000000,2021-09-22 13:23:30.000000000,38.524106,-105.994851,38.524105,-105.999115,0.230490415449,Stationary traffic on US-50 W - US-50 E from CO-291/Oak St (E Rainbow Blvd/US-50) to Holman Ave (US-50) due to roadwork.,689.0,E Rainbow Blvd,L,Salida,Chaffee,CO,81201-2903,US,US/Mountain,KANK,2021-09-22 12:55:00,74.0,74.0,12.0,23.07,10.0,CALM,0.0,,Fair,False,False,False,False,False,False,False,False,False,False,False,False,False,Day,Day,Day,Day
C-5091535,2,2021-09-08 12:43:00.000000000,2021-09-08 13:21:30.000000000,35.043871,-81.81713,35.032599,-81.852007,2.1211962151700003,Slow traffic on I-85 S from Green River Road exit [87] to exit [80] due to roadwork.,,Battleground Rd,R,Cowpens,Spartanburg,SC,29330,US,US/Eastern,KSPA,2021-09-08 12:35:00,81.0,81.0,70.0,29.06,10.0,S,6.0,0.0,Partly Cloudy,False,False,False,False,True,False,False,False,False,False,False,False,False,Day,Day,Day,Day
C-5091536,4,2021-08-15 20:30:18.000000000,2021-08-22 23:59:00.000000000,41.89479,-87.634157,41.895617,-87.634163,0.0571410912170999,Closed road from W Huron St (N Wells St) to W Chicago Ave (N Wells St) due to roadwork.,199.0,W Huron St,L,Chicago,Cook,IL,60654,US,US/Central,KMDW,2021-08-15 20:53:00,73.0,73.0,57.0,29.47,10.0,E,8.0,0.0,Fair,True,False,True,False,False,False,False,False,True,True,False,True,False,Night,Night,Day,Day
C-5091537,2,2021-08-28 13:40:00.000000000,2021-08-28 16:01:45.000000000,33.378126,-111.96863,33.381847,-111.967498,0.265262655603,Stationary traffic from S Wendler Dr to Phoenix due to roadwork.,1991.0,W Baseline Rd,R,Tempe,Maricopa,AZ,85283,US,US/Mountain,KPHX,2021-08-28 13:51:00,101.0,101.0,24.0,28.58,10.0,W,3.0,0.0,Mostly Cloudy,False,False,True,False,False,False,False,False,False,False,False,True,False,Day,Day,Day,Day
C-5091538,2,2021-09-15 14:45:30.000000000,2021-12-17 12:29:05.000000000,25.679974,-80.416524,25.685394,-80.417583,0.3802476474319999,Slow traffic on FL-825 - FL-94 from SW 96th St to SW 137th Ct due to roadwork.,,FL-825,R,Miami,Miami-Dade,FL,33186,US,US/Eastern,KTMB,2021-12-17 09:53:00,82.0,82.0,67.0,30.18,10.0,ESE,14.0,0.0,Partly Cloudy,False,False,True,False,False,False,False,False,True,False,False,False,False,Day,Day,Day,Day
C-5091539,2,2020-09-11 12:31:30.000000000,2020-09-12 03:54:18.000000000,27.997807,-82.583027,27.996669,-82.581225,0.135159912355,Stationary traffic on FL-580 - County Hwy-589 from Mohr Rd to Standish Bend Dr due to roadwork.,5426.0,Sheldon Rd,L,Tampa,Hillsborough,FL,33615,US,US/Eastern,KTPA,2020-09-11 12:53:00,90.0,90.0,57.0,29.91,10.0,VAR,3.0,0.0,Mostly Cloudy,False,False,False,False,False,False,False,False,False,False,False,False,False,Day,Day,Day,Day
C-5091540,4,2020-10-01 00:07:00.000000000,2020-10-08 06:59:00.000000000,34.025213,-118.39351200000002,34.025074,-118.393605,0.0109817174207,Closed road from Venice Blvd (Culver Blvd) to Duquesne Ave (Culver Blvd) due to roadwork.,,Culver Blvd,R,Culver City,Los Angeles,CA,90232,US,US/Pacific,KSMO,,,,,,,,,,,True,False,True,False,False,False,False,False,False,False,False,True,False,Night,Night,Night,Night
C-5091541,2,2019-12-05 07:00:00.000000000,2019-12-06 17:00:00.000000000,37.22069000000001,-108.67395,37.22069000000001,-108.67395,0.0,At US-491/CO-789 - Construction work.,461.0,Highway 160-491,L,Cortez,Montezuma,CO,81321-8626,US,US/Mountain,KCEZ,2019-12-05 06:53:00,40.0,40.0,83.0,24.15,10.0,NW,3.0,0.0,Cloudy,False,False,False,False,False,False,False,False,False,False,False,False,False,Night,Day,Day,Day
C-5091542,2,2020-09-21 23:41:00.000000000,2020-09-22 00:50:00.000000000,34.614538,-92.518953,34.615376,-92.516103,0.172092412699,Queuing traffic on AR-5 from Hurricane Lake Rd to Springhill Rd due to construction work.,3271.0,Highway 5 N,L,Bryant,Saline,AR,72019-9005,US,US/Central,KLIT,2020-09-21 23:53:00,69.0,69.0,78.0,29.9,10.0,ESE,8.0,0.0,Light Rain,False,False,False,False,False,False,False,False,False,False,False,False,False,Night,Night,Night,Night
C-5091543,2,2021-05-24 04:58:00.000000000,2021-05-24 16:55:58.000000000,25.862622,-80.122174,25.856078,-80.12232900000002,0.452250029047,Slow traffic on FL-A1A from FL-922/96th St/Kane Concourse (FL-A1A) to FL-934/71st St (FL-A1A) due to roadwork.,7719.0,Harding Ave,R,Miami Beach,Miami-Dade,FL,33141-2130,US,US/Eastern,KOPF,2021-05-24 04:53:00,72.0,72.0,68.0,30.12,10.0,E,5.0,0.0,Fair,False,False,True,False,False,False,False,False,True,False,False,True,False,Night,Night,Night,Night
C-5091544,2,2021-07-22 10:16:25.000000000,2021-07-22 19:00:00.000000000,42.261959,-73.74170699999998,,,1.12999999523,Single alternate line traffic due to construction work on NY-66 both ways from CR-18 Fish And Game Rd to Humane Society Rd.,,Route 66,R,Hudson,Columbia,NY,12534,US,US/Eastern,KPSF,2021-07-22 09:54:00,68.0,68.0,70.0,28.81,10.0,WNW,9.0,0.0,Fair,False,False,False,False,False,False,False,False,False,False,False,False,False,Day,Day,Day,Day
C-5091545,2,2021-10-20 16:29:40.000000000,2021-10-20 16:51:16.000000000,34.903496999999994,-85.130797,34.910693,-85.12628199999997,0.559153839234,Slow traffic on GA-151 from Evitt Pkwy to Boynton Dr / Lafayette St due to roadwork.,6085.0,Alabama Hwy,R,Ringgold,Catoosa,GA,30736-2881,US,US/Eastern,KCHA,2021-10-20 16:53:00,77.0,77.0,46.0,29.45,10.0,CALM,0.0,0.0,Mostly Cloudy,False,False,False,False,False,False,False,False,False,False,False,False,False,Day,Day,Day,Day
C-5091546,2,2021-01-19 18:30:30.000000000,2021-01-30 00:00:00.000000000,39.329114,-118.782062,39.291954,-118.782399,2.5675746763,Roadwork - on US-95 in both directions from mile marker 13 to mile marker 16 in Churchill County Nevada. Shoulder and lane closures with traffic control. Speed limit reduced to 55 miles per hour. Estimated End Time is 4:00 PM on 01/29/21,10971.0,Schurz Hwy,R,Fallon,Churchill,NV,89406,US,US/Pacific,KNFL,2021-01-19 18:56:00,29.0,22.0,43.0,26.18,10.0,NNW,7.0,0.0,Fair,False,False,False,False,False,False,False,False,False,False,False,False,False,Night,Night,Night,Day
C-5091547,2,2018-04-05 10:02:24.000000000,2018-04-05 16:02:24.000000000,40.76761,-73.901557,40.767678,-73.902027,0.0250393130466,At 49th St - Construction work.,,Grand Central Pkwy W,R,East Elmhurst,Queens,NY,11370,US,US/Eastern,KLGA,2018-04-05 09:51:00,37.0,27.7,37.0,30.07,10.0,WNW,16.1,,Scattered Clouds,False,False,True,False,False,False,False,False,True,False,False,True,False,Day,Day,Day,Day
C-5091548,2,2021-07-28 06:29:00.000000000,2021-07-28 08:45:00.000000000,39.540605,-119.78801599999998,39.533472,-119.787687,0.493155062429,Slow traffic on I-580 S - US-395 S from Oddie Blvd/Exit 69 (US-395) to I-80/Exit 68 (I-580/US-395) due to roadwork.,,Martin Luther King Jr Memorial Fwy,R,Reno,Washoe,NV,89512,US,US/Pacific,KRNO,2021-07-28 06:55:00,61.0,61.0,42.0,25.75,10.0,CALM,0.0,0.0,Partly Cloudy,False,False,False,False,True,False,False,False,False,False,False,False,False,Day,Day,Day,Day
C-5091549,4,2021-02-17 19:34:00.000000000,2021-02-18 20:28:35.000000000,37.139333,-104.520255,37.089124,-104.522116,3.47062650198,Construction on I-25 SB near TRINIDAD Road closed. Take alternate route.,,I-25 S,R,Trinidad,Las Animas,CO,81082,US,US/Mountain,KTAD,2021-02-17 19:42:00,22.0,10.0,85.0,24.23,1.0,NE,13.0,0.01,Light Snow,False,False,False,False,True,False,False,False,False,False,False,False,False,Night,Night,Night,Night
C-5091550,4,2021-09-23 21:01:00.000000000,2021-09-24 04:59:00.000000000,38.49559,-121.516241,38.495591,-121.51671,0.0253619180976,Full closure due to Highway Construction between Route 5 and Florin Rd,,Florin Rd,R,Sacramento,Sacramento,CA,95831,US,US/Pacific,KSAC,2021-09-23 20:53:00,74.0,74.0,45.0,29.79,10.0,CALM,0.0,0.0,Fair,False,False,False,False,False,False,False,False,False,False,False,False,False,Night,Night,Night,Night
C-5091551,4,2020-08-10 14:54:00.000000000,2020-09-10 19:50:00.000000000,38.614504,-90.221158,38.614153,-90.225315,0.225731088764,Construction on I-44 WB near JEFFERSON AVE Take alternate route.,,S Jefferson Ave,R,Saint Louis,St. Louis City,MO,63104,US,US/Central,KCPS,2020-08-10 14:53:00,93.0,93.0,57.0,29.49,10.0,VAR,7.0,0.0,Fair,False,False,False,False,False,False,False,False,False,False,False,False,False,Day,Day,Day,Day
C-5091552,2,2017-04-15 10:01:15.000000000,2017-04-15 16:01:15.000000000,40.84522,-73.92452,40.84752,-73.92954,0.306752193078,Between University Ave and I-95/US-1/Transmanhattan Expy - Construction work.,,Undercliff Ave,R,Bronx,Bronx,NY,10452,US,US/Eastern,KLGA,2017-04-15 09:51:00,59.0,,42.0,30.38,10.0,South,8.1,,Scattered Clouds,False,False,False,False,True,False,False,False,False,False,False,False,False,Day,Day,Day,Day
C-5091553,2,2021-04-27 21:01:00.000000000,2021-04-28 06:44:00.000000000,38.969695,-121.017666,39.041845,-120.973795,5.513570412769999,Lane closure due to Guardrail Work between Clipper Gap (Placer Hills Rd) and Weimar Cross Rd,,Placer Hills Rd,R,Applegate,Placer,CA,95703,US,US/Pacific,KAUN,2021-04-27 20:55:00,61.0,61.0,36.0,28.45,10.0,ENE,5.0,0.0,Fair,False,False,False,False,True,False,False,False,False,False,False,False,False,Night,Night,Night,Day
C-5091554,4,2021-03-20 06:07:30.000000000,2021-03-20 10:12:01.000000000,32.914491,-97.31787,32.914501,-97.3165,0.0794667172357,Bridge closure from Harmon Rd (Heritage Trace Pkwy) to I-35W (Heritage Trace Pkwy).,9598.0,North Fwy,L,Fort Worth,Tarrant,TX,76177-7624,US,US/Central,KAFW,2021-03-20 05:53:00,42.0,38.0,73.0,29.54,10.0,N,6.0,0.0,Fair,False,False,False,False,False,False,False,False,False,False,False,True,False,Night,Night,Night,Night
C-5091555,2,2021-11-03 15:04:30.000000000,2021-11-03 15:35:30.000000000,40.924451,-80.557613,40.922651,-80.5527,0.2850496871469999,Slow traffic on Ohio Tpke E - I-76 E from I-680/Exit 234 (I-76) to OH--PA State Border (I-76) due to roadwork.,,Ohio Tpke E,R,Petersburg,Mahoning,OH,44454,US,US/Eastern,KUCP,2021-11-03 14:56:00,43.0,38.0,47.0,29.16,10.0,NW,8.0,0.0,Cloudy,False,False,False,False,True,False,False,False,False,False,False,False,False,Day,Day,Day,Day
C-5091556,2,2021-09-17 16:39:30.000000000,2021-09-17 16:52:30.000000000,38.579703,-81.170736,38.579213,-81.226886,3.0330398077,Stationary traffic on I-79 S from WV-36/Exit 34 (I-79) to CR-29/Exit 25 (I-79) due to roadwork.,,I-79 S,R,Newton,Roane,WV,25266,US,US/Eastern,KCRW,2021-09-17 16:54:00,83.0,83.0,53.0,29.06,10.0,S,3.0,0.0,Partly Cloudy,False,False,False,False,False,False,False,False,False,False,False,False,False,Day,Day,Day,Day
C-5091557,2,2020-11-25 20:31:54.000000000,2020-11-25 21:13:38.000000000,40.712903,-73.98693,40.715921,-73.986746,0.208746473899,Slow traffic from South St (Clinton St) to Grand St (Clinton St) due to roadwork.,248.0,Madison St,R,New York,New York,NY,10002-7536,US,US/Eastern,KJRB,2020-11-25 20:51:00,53.0,53.0,59.0,30.11,10.0,VAR,3.0,0.0,Cloudy,True,False,True,False,False,False,False,False,False,False,False,True,False,Night,Night,Night,Night
C-5091558,2,2021-07-06 15:52:20.000000000,2021-07-06 16:13:07.000000000,28.260728000000004,-81.48618,28.256882,-81.486181,0.265733298556,Slow traffic from US-192/W Irlo Bronson Memorial Hwy (Poinciana Blvd) to US-17/US-92/S Orange Blossom Trl (Poinciana Blvd) due to roadwork.,1566.0,S Poinciana Blvd,L,Kissimmee,Osceola,FL,34746,US,US/Eastern,KISM,2021-07-06 15:56:00,83.0,83.0,85.0,29.96,10.0,SE,7.0,0.0,Fair,False,False,True,False,False,False,False,False,False,False,False,False,False,Day,Day,Day,Day
C-5091559,2,2016-12-08 09:00:00.000000000,2016-12-08 16:00:00.000000000,41.506744,-74.07968100000002,,,0.38,Right hand shoulder closed due to construction work on NY-17K Eastbound between Corporate Blvd and Orr Ave.,115.0,Route 17K,L,Newburgh,Orange,NY,12550-5041,US,US/Eastern,KSWF,2016-12-08 08:45:00,33.8,28.6,87.0,29.95,15.0,West,5.8,,Mostly Cloudy,False,False,False,False,False,False,False,False,False,False,False,False,False,Day,Day,Day,Day
C-5091560,2,2020-10-06 22:55:30.000000000,2020-10-07 01:23:39.000000000,40.754854,-73.872591,40.746309,-73.868253,0.632560406039,Queuing traffic from NY-25A/Northern Blvd (Junction Blvd) to Corona Ave (Junction Blvd) due to resurfacing work.,3372.0,Junction Blvd,R,Jackson Heights,Queens,NY,11372-2032,US,US/Eastern,KLGA,2020-10-06 22:51:00,64.0,64.0,60.0,29.93,10.0,SW,8.0,0.0,Partly Cloudy,False,False,True,False,False,False,False,False,True,False,False,True,False,Night,Night,Night,Night
C-5091561,4,2019-04-05 21:06:44.000000000,2019-04-05 23:06:35.000000000,43.610631,-116.595789,43.60812,-116.59906,0.238491683026,At I-84/US-30 - Roadwork.,,ID-55,R,Nampa,Canyon,ID,83687,US,US/Mountain,KMAN,2019-04-05 21:15:00,54.0,54.0,67.0,27.2,10.0,WNW,7.0,0.0,,False,False,False,False,False,False,False,False,False,False,False,False,False,Night,Night,Day,Day
C-5091562,4,2020-06-29 06:00:00.000000000,2020-08-01 18:00:00.000000000,41.35515,-83.49620999999998,41.35552,-83.4749,1.10550345511,Closed at Sr 199 - Closed due to roadwork.,4926.0,Grand Army of the Republic Hwy,L,Pemberville,Wood,OH,43450-9845,US,US/Eastern,KTDZ,2020-06-29 05:53:00,66.0,,90.0,29.26,5.0,,,0.0,Fair,False,False,False,False,False,False,False,False,False,False,False,False,False,Night,Day,Day,Day
C-5091563,2,2018-07-19 12:30:53.000000000,2018-07-23 12:30:47.000000000,42.745066,-83.398981,42.739662,-83.385722,0.769465312523,At Sashabaw Rd/Exit 89 - Roadwork.,,Chrysler Expy S,R,Clarkston,Oakland,MI,48348,US,US/Eastern,KPTK,2018-07-19 12:53:00,79.0,,47.0,30.04,10.0,South,11.5,,Mostly Cloudy,False,False,False,False,False,False,False,False,False,False,False,False,False,Day,Day,Day,Day
C-5091564,2,2021-10-27 15:05:00.000000000,2021-10-27 17:10:22.000000000,39.969744,-75.30108299999998,39.96824,-75.296194,0.278963017042,Stationary traffic on PA-3 from Gilmore Rd to Township Line Rd / Lansdowne Ave due to roadwork.,346.0,W Chester Pike,L,Havertown,Delaware,PA,19083-5125,US,US/Eastern,KPHL,2021-10-27 14:54:00,66.0,66.0,59.0,29.7,10.0,NNW,13.0,0.0,Mostly Cloudy,False,False,True,False,False,False,False,False,False,True,False,False,False,Day,Day,Day,Day
C-5091565,2,2021-12-09 13:55:30.000000000,2021-12-09 14:08:30.000000000,35.159890000000004,-81.474609,35.159097,-81.462355,0.694362672952,Slow traffic on I-85 N from Exit 104 (I-85) to US-29/Exit 106 (I-85) due to roadwork.,,I-85 N,R,Blacksburg,Cherokee,SC,29702,US,US/Eastern,KEHO,2021-12-09 12:55:00,44.0,44.0,59.0,29.31,10.0,CALM,0.0,0.0,Fair,False,False,False,False,False,False,False,False,False,False,False,False,False,Day,Day,Day,Day
C-5091566,2,2021-12-01 16:37:33.000000000,2021-12-01 16:57:33.000000000,34.91688,-95.745387,34.909783000000004,-95.745589,0.490489542126,Slow traffic on US-69 S from US-270 (US-69) to US-69 (McAlester) (US-69) due to roadwork.,,S US Highway 69,R,McAlester,Pittsburg,OK,74501,US,US/Central,KMLC,2021-12-01 16:53:00,67.0,67.0,42.0,29.22,10.0,CALM,0.0,0.0,Fair,False,False,False,False,False,False,False,False,False,False,False,False,False,Day,Day,Day,Day
C-5091567,2,2020-03-29 06:06:00.000000000,2020-03-29 08:06:00.000000000,43.13859,-70.84233,43.12863,-70.83823000000002,0.7185509429979999,At US-4/Boston Harbor Rd/Exit 6 - Roadwork. Left lane closed.,,Spaulding Tpke S,R,Dover,Strafford,NH,03820,US,US/Eastern,KDAW,2020-03-29 05:51:00,40.0,40.0,93.0,29.83,10.0,CALM,0.0,0.0,Cloudy,False,False,False,False,False,False,False,False,False,False,False,False,False,Night,Day,Day,Day
C-5091568,2,2021-04-13 08:00:00.000000000,2021-12-28 17:39:44.000000000,40.758479,-111.888318,40.758481,-111.890995,0.140103753081,Stationary traffic on UT-269 from US-89/S State St (W 6th South/E 5th South St/W 500 S/600/UT-269) to UT-270/S West Temple (W 6th South/W 600 S/E 5th South St/W 500 S/UT-269) due to roadwork.,100.0,E 500 S,R,Salt Lake City,Salt Lake,UT,84111,US,US/Mountain,KSLC,2021-08-31 16:54:00,89.0,89.0,21.0,25.49,9.0,SSE,22.0,0.0,Mostly Cloudy / Windy,False,False,True,False,False,False,True,False,False,False,False,True,False,Day,Day,Day,Day
C-5091569,2,2021-01-07 17:00:00.000000000,2021-01-07 21:45:00.000000000,37.594483,-77.799035,37.613865,-77.905007,5.9533668880900015,Construction on HUGUENOT TRL WB near THREE BRIDGE RD Expect delays.,2220.0,Huguenot Trl,L,Powhatan,Powhatan,VA,23139-4401,US,US/Eastern,KFCI,2021-01-07 16:56:00,42.0,42.0,55.0,29.9,10.0,SW,3.0,0.0,Fair,False,False,False,False,False,False,False,False,False,False,False,False,False,Day,Day,Day,Day
C-5091570,4,2020-05-29 19:34:57.000000000,2020-05-30 00:33:55.000000000,38.61891,-90.06826,38.66192,-90.03016,3.6137029755,Closed between State St/Exit 19 and I-64/I-255/US-50/Exit 20 - Closed due to roadwork.,,I-64 W,R,Caseyville,St. Clair,IL,62232,US,US/Central,KCPS,2020-05-29 19:53:00,70.0,70.0,47.0,29.65,10.0,NW,12.0,0.0,Fair,False,False,False,False,False,False,False,False,False,False,False,False,False,Day,Day,Day,Day
C-5091571,2,2016-10-24 08:41:00.000000000,2021-04-04 14:45:00.000000000,39.130459,-75.49310899999998,39.130724,-75.49241500000002,0.0414582154659,Construction on DE-10 EB near DE-1 Right shoulder closed.,1746.0,E Lebanon Rd,R,Dover,Kent,DE,19901-5845,US,US/Eastern,KDOV,2016-10-24 08:58:00,60.6,,70.0,29.99,9.0,West,6.9,,Clear,False,False,False,False,False,False,False,False,False,False,False,False,False,Day,Day,Day,Day
C-5091572,2,2021-10-04 16:22:30.000000000,2021-10-04 17:33:00.000000000,33.428161,-111.926278,33.422038,-111.926299,0.42306074108,Stationary traffic from E Rio Salado Pkwy/N Scottsdale Rd (S Rural Rd) to E University Dr (S Rural Rd) due to roadwork.,162.0,S Rural Rd,L,Tempe,Maricopa,AZ,85281,US,US/Mountain,KPHX,2021-10-04 16:51:00,96.0,96.0,18.0,28.67,10.0,VAR,3.0,0.0,Mostly Cloudy,False,False,True,False,False,False,False,False,False,False,False,True,False,Day,Day,Day,Day
C-5091573,2,2020-04-16 08:51:29.000000000,2020-04-17 08:51:29.000000000,42.06093,-86.45091,42.12083,-86.38852,5.23086156805,Between M-63/Niles Ave/Exit 27 and I-94-BR/Exit 33 - Construction work.,,I-94 E,R,Saint Joseph,Berrien,MI,49085,US,US/Eastern,KBEH,2020-04-16 08:53:00,32.0,24.0,52.0,29.57,10.0,NW,10.0,0.0,Mostly Cloudy,False,False,False,False,True,False,False,False,False,False,False,False,False,Day,Day,Day,Day
C-5091574,2,2021-12-11 08:58:00.000000000,2021-12-11 09:18:30.000000000,47.781997,-120.837603,47.784827,-120.893253,2.59101161805,Slow traffic on US-2 W - US-2 E from Winton Rd (US-2) to NFD-6700 (US-2) due to roadwork.,21948.0,US Highway 2,R,Leavenworth,Chelan,WA,98826,US,US/Pacific,KEAT,2021-12-11 08:55:00,34.0,34.0,96.0,28.15,10.0,CALM,0.0,0.0,Partly Cloudy,False,False,False,False,False,False,False,False,False,False,False,False,False,Day,Day,Day,Day
C-5091575,2,2019-10-21 08:03:06.000000000,2019-10-25 08:02:29.000000000,42.39617,-86.26921,42.40322000000001,-86.27111,0.4966616039060001,At I-196-BL/Phoenix St/Phoenix Rd - Roadwork. Lane blocked.,,Phillips St,R,South Haven,Van Buren,MI,49090,US,US/Eastern,KLWA,2019-10-21 07:59:00,58.0,58.0,67.0,29.05,10.0,ESE,13.0,0.0,Cloudy,False,False,True,False,False,False,False,False,False,False,True,False,False,Night,Day,Day,Day
C-5091576,2,2016-08-30 14:19:33.000000000,2016-08-30 20:19:33.000000000,33.393881,-111.68901,33.393341,-111.680056,0.517872795745,Between Mall Entrance E and Clearview Ave - Construction work.,,E Southern Ave,R,Mesa,Maricopa,AZ,85206,US,US/Mountain,KFFZ,2016-08-30 14:25:00,,,,29.8,40.0,SW,13.8,,Mostly Cloudy,False,False,True,False,False,False,False,False,True,False,False,True,False,Day,Day,Day,Day
C-5091577,4,2018-08-22 03:05:39.000000000,2018-08-22 08:54:28.000000000,42.49073,-83.28260999999998,42.49336,-83.28936,0.3889534169560001,Closed at US-24/Telegraph Rd - Closed due to roadwork.,,Northwestern Hwy N,R,Southfield,Oakland,MI,48034,US,US/Eastern,KVLL,2018-08-22 03:35:00,66.9,,73.0,29.89,10.0,WNW,12.7,,Overcast,False,False,False,False,False,False,False,False,False,False,False,False,False,Night,Night,Night,Night
C-5091578,2,2020-07-31 08:00:00.000000000,2021-12-30 11:05:21.000000000,34.110522,-118.334418,34.154540999999995,-118.387669,4.3041093839199975,Construction on US-101 NB near HIGHLAND AVE Expect delays.,6573.0,Odin St,R,Los Angeles,Los Angeles,CA,90068,US,US/Pacific,KBUR,2021-05-21 22:53:00,55.0,55.0,67.0,29.19,10.0,SSE,7.0,0.0,Cloudy,False,False,False,False,False,False,False,False,False,False,False,False,False,Day,Day,Day,Day
C-5091579,2,2021-03-27 10:34:30.000000000,2021-03-27 10:54:23.000000000,32.877176,-96.685727,32.884036,-96.696837,0.800150076118,Stationary traffic on I-635 W - LBJ Fwy W from Kingsley Rd/Exit 13 (I-635) to New Church Rd/Plano Rd/Exit 14 (I-635) due to roadwork.,,I-635 W,R,Dallas,Dallas,TX,75238,US,US/Central,KDAL,2021-03-27 10:53:00,73.0,73.0,61.0,29.38,10.0,SSW,10.0,0.0,Mostly Cloudy,False,False,False,False,True,False,False,False,False,False,False,False,False,Day,Day,Day,Day
C-5091580,2,2021-09-10 12:00:30.000000000,2021-11-17 14:15:10.000000000,41.72068,-87.70549100000002,41.720307,-87.70190500000002,0.186721932492,Slow traffic on US-12 E - US-20 W - US-12 W - US-20 E from S Turner Ave to W 96th St due to roadwork.,3329.0,W 95th St,L,Evergreen Park,Cook,IL,60805-2234,US,US/Central,KMDW,2021-09-10 11:53:00,78.0,78.0,36.0,29.42,10.0,W,10.0,0.0,Partly Cloudy,False,False,False,False,False,False,False,False,False,False,False,False,False,Day,Day,Day,Day
C-5091581,2,2021-11-18 08:32:30.000000000,2021-11-18 10:37:09.000000000,25.684325,-80.41642900000002,25.685397,-80.417449,0.0975696201671,Stationary traffic on FL-825 - FL-94 from SW 96th St to SW 137th Ct due to roadwork.,8903.0,SW 137th Ave,L,Miami,Miami-Dade,FL,33186,US,US/Eastern,KTMB,2021-11-18 08:53:00,80.0,80.0,71.0,30.13,10.0,E,10.0,0.0,Partly Cloudy,False,False,True,False,False,False,False,False,True,False,False,False,False,Day,Day,Day,Day
C-5091582,2,2021-04-09 06:55:00.000000000,2021-10-22 17:21:30.000000000,32.894366999999995,-96.650166,32.894316,-96.648256,0.110866408764,Slow traffic from S Shiloh Rd (Miller Rd) to S 1st St (Miller Rd) due to roadwork.,1508.0,W Miller Rd,L,Garland,Dallas,TX,75041-1521,US,US/Central,KHQZ,2021-09-15 10:50:00,79.0,79.0,65.0,29.48,10.0,ENE,7.0,0.0,Partly Cloudy,False,False,False,False,False,False,False,False,False,False,False,True,False,Night,Day,Day,Day
C-5091583,2,2021-05-06 09:13:30.000000000,2021-05-06 12:07:34.000000000,33.3166,-85.754711,33.320848,-85.753158,0.306899308368,Stationary traffic on AL-49 from AL-9/Main St (AL-49) to CR-31 (AL-49) due to roadwork.,60601.0,Highway 49,L,Lineville,Clay,AL,36266,US,US/Central,KANB,2021-05-06 08:53:00,62.0,62.0,58.0,29.5,10.0,N,7.0,0.0,Fair,False,False,False,False,False,False,False,False,False,False,False,False,False,Day,Day,Day,Day
C-5091584,4,2020-09-17 07:00:00.000000000,2020-10-08 18:27:52.000000000,33.7919,-80.39252900000002,33.80147,-80.408888,1.14869360576,Construction on POOLE RD WB near SC-S-43-77 Road closed. Take alternate route.,2300.0,Underwood Rd,R,Sumter,Sumter,SC,29154-8776,US,US/Eastern,KSSC,2020-09-17 06:56:00,74.0,74.0,97.0,29.63,6.0,E,6.0,0.03,Light Rain,False,False,False,False,False,False,False,False,False,False,False,False,False,Night,Day,Day,Day
C-5091585,2,2021-10-25 22:03:30.000000000,2021-10-25 22:37:30.000000000,45.588633,-118.641279,45.580182,-118.642885,0.589050124503,Slow traffic on Old Oregon Trail Hwy No 6 - I-84 E - US-30 E - Old Oregon Trl from OR-331/Market Rd/Exit 216 (I-84) to Poverty Flat Rd/Exit 224 (I-84) due to roadwork.,,I-84 E,R,Pendleton,Umatilla,OR,97801,US,US/Pacific,KPDT,2021-10-25 21:53:00,51.0,51.0,71.0,28.16,10.0,SE,6.0,0.0,Light Rain,False,False,False,False,False,False,False,False,False,False,False,False,False,Night,Night,Night,Night
C-5091586,2,2021-05-22 09:09:00.000000000,2021-05-22 18:41:01.000000000,40.717919,-73.993091,40.716959,-73.989948,0.1774563315199999,Slow traffic from Bowery (Grand St) to Pitt St/Samuel Dickstein Plz (Grand St) due to roadwork.,96.0,Forsyth St,R,New York,New York,NY,10002-5102,US,US/Eastern,KJRB,2021-05-22 08:51:00,75.0,75.0,50.0,30.14,10.0,CALM,0.0,0.0,Fair,True,False,True,False,False,False,False,False,False,False,False,True,False,Day,Day,Day,Day
C-5091587,2,2021-05-26 18:57:31.000000000,2021-11-22 09:43:30.000000000,27.895674,-82.787193,27.893521000000003,-82.787174,0.148762656896,Slow traffic on US-19 Alt S - FL-595 from 8th Ave (US-19 Alt) to Walsingham Rd (US-19 Alt) due to roadwork.,2286.0,Seminole Blvd,R,Largo,Pinellas,FL,33778-1720,US,US/Eastern,KPIE,2021-11-22 07:53:00,68.0,68.0,100.0,29.98,8.0,NNW,12.0,0.0,Cloudy,False,False,False,False,False,False,False,False,True,False,False,False,False,Day,Day,Day,Day
C-5091588,2,2021-06-03 14:23:30.000000000,2021-11-23 12:27:24.000000000,40.596699,-75.557103,40.602056,-75.560992,0.422638722387,Slow traffic on PA-309 N from Tilghman St (PA-309) to US-22 (PA-309) due to roadwork.,,PA-309 N,R,Allentown,Lehigh,PA,18104,US,US/Eastern,KXLL,2021-06-28 10:55:00,82.0,82.0,74.0,29.81,10.0,W,9.0,0.0,Partly Cloudy,False,False,False,False,True,False,False,False,False,False,False,False,False,Day,Day,Day,Day
