ID,Severity,Start_Time,End_Time,Start_Lat,Start_Lng,End_Lat,End_Lng,Distance(mi),Description,Number,Street,Side,City,County,State,Zipcode,Country,Timezone,Airport_Code,Weather_Timestamp,Temperature(F),Wind_Chill(F),Humidity(%),Pressure(in),Visibility(mi),Wind_Direction,Wind_Speed(mph),Precipitation(in),Weather_Condition,Amenity,Bump,Crossing,Give_Way,Junction,No_Exit,Railway,Roundabout,Station,Stop,Traffic_Calming,Traffic_Signal,Turning_Loop,Sunrise_Sunset,Civil_Twilight,Nautical_Twilight,Astronomical_Twilight
C-2608154,4,2019-04-04 23:31:56,2019-04-05 04:31:24,36.15675,-95.98048,36.14544,-95.99871,1.28260277651,Closed between I-244/US-412 and I-244/Exit A/Exit B - Closed due to roadwork.,,Cherokee Expy S,R,Tulsa,Tulsa,OK,74120,US,US/Central,KTUL,2019-04-04 23:53:00,55.0,55.0,83.0,29.33,10.0,SE,3.0,0.0,Fair,False,False,False,False,False,False,False,False,False,False,False,False,False,Night,Night,Night,Night
C-2608155,2,2020-12-01 04:01:00,2020-12-01 13:59:00,38.463504,-121.495902,38.466683,-121.496957,0.226942195217,Alternating Lanes closure due to Highway Construction between Laguna Blvd Oc and Florin Rd Oc,,I-5 N,R,Sacramento,Sacramento,CA,95832,US,US/Pacific,KSAC,2020-12-01 03:53:00,41.0,41.0,76.0,30.23,10.0,CALM,0.0,0.0,Fair,False,False,False,False,False,False,False,False,False,False,False,False,False,Night,Night,Night,Night
C-2608156,2,2021-09-20 08:15:30,2021-09-20 10:17:08,29.732558,-95.410621,29.735105,-95.41067,0.1760054933529999,Slow traffic from Southwest Fwy (S Shepherd Dr) to Westheimer Rd (S Shepherd Dr) due to roadwork.,3716.0,S Shepherd Dr,R,Houston,Harris,TX,77098-4210,US,US/Central,KMCJ,2021-09-20 07:53:00,79.0,79.0,84.0,29.84,10.0,CALM,0.0,0.0,Fair,False,False,False,False,False,False,False,False,False,False,False,False,False,Day,Day,Day,Day
C-2608157,2,2021-02-04 15:00:00,2021-02-05 02:00:00,32.100368,-83.39701,32.089399,-83.389824,0.8667845120469999,Lane closed on US-129 S - GA-11 - US-129 N from CR-197 (US-129) to GA-233 (US-129) due to roadwork.,701.0,Ed Rd,R,Abbeville,Wilcox,GA,31001-1729,US,US/Eastern,KEZM,2021-02-04 14:55:00,57.0,57.0,27.0,29.71,10.0,SSW,6.0,0.0,Fair,True,False,False,False,False,False,False,False,False,False,False,False,False,Day,Day,Day,Day
C-2608158,3,2017-11-27 09:20:16,2017-12-29 23:59:00,37.674095,-97.402611,,,0.0500000007451,Entry ramp to I-235 Southbound from US-400 Westbound closed due to construction work.,,I-235 S,R,Wichita,Sedgwick,KS,67209,US,US/Central,KICT,2017-11-27 08:53:00,51.1,,80.0,29.96,10.0,South,15.0,,Mostly Cloudy,False,False,False,False,False,False,False,False,False,False,False,False,False,Day,Day,Day,Day
C-2608159,2,2019-04-01 05:36:00,2020-09-18 20:35:13,47.257455,-121.206642,47.26875,-121.245749,1.99285242403,I-90 milepost 34 to 136 North Bend to Vantage: There are a number of maintenance and construction work zones between North Bend and Vantage. Motorists will experience minor delays this week due to lane closures. Pay attention and slow down as you enter and exit our work zones.,,I-90 W,R,Cle Elum,Kittitas,WA,98922,US,US/Pacific,KSMP,2019-04-01 05:53:00,37.0,37.0,82.0,28.13,10.0,CALM,0.0,0.0,Mostly Cloudy,False,False,False,False,False,False,False,False,False,False,False,False,False,Night,Night,Day,Day
C-2608160,2,2021-10-26 13:56:00,2021-10-26 14:10:00,38.798397,-90.601864,38.798208,-90.590948,0.587954253783,Slow traffic on I-70 E from Mid Rivers Mall Dr/Exit 222 (I-70) to MO-370/Exit 224 (I-70) due to roadwork.,,I-70 E,R,Saint Peters,St. Charles,MO,63376,US,US/Central,KSUS,2021-10-26 13:54:00,60.0,60.0,49.0,29.52,10.0,E,7.0,0.0,Fair,False,False,False,False,False,False,False,False,False,False,False,True,False,Day,Day,Day,Day
C-2608161,2,2018-11-30 10:00:00,2018-11-30 15:00:00,28.02038,-82.459503,,,0.310000002384,Intermittent lane closures due to maintenance work on US-41 Bus Florida Ave both ways from River Shore Dr to Stanley St.,8000.0,N Florida Ave,L,Tampa,Hillsborough,FL,33604-4112,US,US/Eastern,KTPA,2018-11-30 09:53:00,68.0,,61.0,30.19,10.0,Calm,,,Mostly Cloudy,False,False,False,False,False,False,False,False,False,False,False,False,False,Day,Day,Day,Day
C-2608162,2,2021-12-10 15:21:00,2021-12-10 15:45:00,44.755638,-122.401193,44.755022,-122.394861,0.3135789462909999,Stationary traffic on OR-22 from Gates Hill Rd (OR-22) to Breitenbush Rd (OR-22) due to roadwork.,32893.0,N Santiam Hwy,R,Gates,Marion,OR,97346-9506,US,US/Pacific,KSLE,2021-12-10 15:27:00,47.0,41.0,77.0,29.92,10.0,S,15.0,0.0,Cloudy,False,False,False,False,False,False,False,False,False,False,False,False,False,Day,Day,Day,Day
C-2608163,2,2019-08-21 07:00:00,2019-08-21 19:00:00,44.091862,-123.085114,,,0.0,Restrictions due to construction work on Calgary St both ways between Elanco Ave and Holly Ave.,1792.0,Holly Ave,L,Eugene,Lane,OR,97408-7149,US,US/Pacific,KEUG,2019-08-21 06:54:00,57.0,57.0,81.0,29.66,10.0,SW,5.0,0.0,Mostly Cloudy,False,False,False,False,False,False,False,False,False,False,False,False,False,Day,Day,Day,Day
C-2608164,2,2021-12-16 14:08:06,2021-12-16 14:28:06,40.878498,-73.870898,40.879867,-73.87595300000002,0.280507053283,Slow traffic from Bronx River Pkwy (E Gun Hill Rd) to Jerome Ave (Gun Hill Rd) due to roadwork.,,E Gun Hill Rd,R,Bronx,Bronx,NY,10467,US,US/Eastern,KLGA,2021-12-16 13:51:00,62.0,62.0,39.0,29.96,10.0,SW,8.0,0.0,Mostly Cloudy,False,False,False,False,False,False,True,False,True,False,False,True,False,Day,Day,Day,Day
C-2608165,2,2021-09-08 08:06:00,2021-12-07 17:44:42,25.897475,-80.180717,25.899849,-80.176793,0.293920057164,Slow traffic on FL-916 - FL-909 from NE 9th Ave to NE 11th Ave due to roadwork.,13249.0,W Dixie Hwy,R,North Miami,Miami-Dade,FL,33161-4132,US,US/Eastern,KOPF,2021-12-07 14:53:00,84.0,84.0,46.0,30.04,10.0,CALM,0.0,0.0,Fair,False,False,False,False,False,False,False,False,False,False,False,False,False,Day,Day,Day,Day
C-2608166,2,2019-04-23 07:00:00,2019-04-23 19:00:00,39.221304,-108.861039,39.221516,-108.861345,0.0219736398512,At I-70 - Construction work.,1039.0,Highway 6 and 50,R,Loma,Mesa,CO,81524,US,US/Mountain,KGJT,2019-04-23 06:53:00,47.0,,66.0,25.16,10.0,,,0.0,Fair,False,False,False,False,False,False,False,False,False,False,False,False,False,Day,Day,Day,Day
C-2608167,2,2021-08-10 12:09:00,2021-08-10 12:23:30,40.80586,-115.82784,40.821523,-115.809503,1.4459071198500002,Slow traffic on I-80 E from Exit 292 (I-80) to NV-225/Exit 301 (I-80) due to roadwork.,,I-80 E,R,Elko,Elko,NV,89801,US,US/Pacific,KEKO,2021-08-10 11:56:00,84.0,84.0,12.0,25.02,10.0,VAR,3.0,0.0,Fair,False,False,False,False,True,False,False,False,False,False,False,False,False,Day,Day,Day,Day
C-2608168,4,2020-11-23 05:26:06,2020-11-30 07:59:00,40.761319,-73.885471,40.761405,-73.88454,0.0490837734998,Closed road from 82nd St to 84th St due to roadwork.,2762.0,83rd St,R,East Elmhurst,Queens,NY,11370-1635,US,US/Eastern,KLGA,2020-11-23 05:22:00,61.0,61.0,83.0,29.85,1.0,SSW,8.0,0.06,Heavy Rain,False,False,True,False,False,False,False,False,False,True,False,False,False,Night,Night,Night,Day
C-2608169,3,2018-08-28 02:03:34,2018-08-28 06:40:00,41.769535,-72.668213,,,1.00999999046,Center lane closed due to construction work on I-91 Northbound from Exits 29A 32A-32B Whitehead Hwy to Exits 30 31 32A-32B I-84.,,I-91 N,R,Hartford,Hartford,CT,06120,US,US/Eastern,KHFD,2018-08-28 01:53:00,75.0,,90.0,30.01,8.0,Calm,,,Clear,False,False,False,False,True,False,False,False,False,False,False,False,False,Night,Night,Night,Night
C-2608170,2,2021-11-29 09:17:30,2021-12-07 02:47:58,34.099496,-117.813552,34.099484000000004,-117.814615,0.0608239897341999,Roadwork from S Cataract Ave (Covina Blvd) to CA-57/Orange Fwy (Covina Blvd).,405.0,W Covina Blvd,L,San Dimas,Los Angeles,CA,91773-2909,US,US/Pacific,KPOC,2021-11-29 09:47:00,73.0,73.0,16.0,29.06,10.0,VAR,5.0,,Fair,False,False,False,False,False,False,False,False,False,False,False,False,False,Day,Day,Day,Day
C-2608171,2,2021-08-11 15:55:30,2021-08-11 18:40:57,33.393056,-112.081941,33.392218,-112.081344,0.0673684869296999,Stationary traffic from W Sunland Ave to S 6th Ave due to roadwork.,5883.0,S 7th Ave,R,Phoenix,Maricopa,AZ,85041,US,US/Mountain,KPHX,2021-08-11 15:51:00,92.0,92.0,44.0,28.71,10.0,CALM,0.0,0.0,Mostly Cloudy,False,False,False,False,False,False,False,False,False,False,False,False,False,Day,Day,Day,Day
C-2608172,2,2021-08-26 16:55:00,2021-08-27 09:47:55,45.513234,-92.857626,45.513209,-92.849394,0.3985712073669999,Construction on MN-95 EB near 392ND ST Allow extra time.,12298.0,Saint Croix Trl,R,North Branch,Chisago,MN,55056-6883,US,US/Central,KROS,2021-08-26 17:04:00,70.0,70.0,64.0,29.09,7.0,ENE,7.0,0.0,Fair,False,False,False,False,False,False,False,False,False,False,False,False,False,Day,Day,Day,Day
C-2608173,2,2019-10-25 07:00:00,2019-10-25 19:00:00,37.23415,-107.86723,37.23371,-107.86673,0.0409970542879,At US-550 - Construction work.,25796.0,Highway 160,L,Durango,La Plata,CO,81301-7960,US,US/Mountain,KDRO,2019-10-25 06:53:00,22.0,16.0,55.0,23.75,10.0,N,5.0,0.0,Fair,False,False,False,False,False,False,False,False,False,False,False,True,False,Night,Night,Day,Day
C-2608174,2,2016-09-25 07:00:52,2016-09-25 13:00:52,28.18194,-82.7404,28.181896,-82.740404,0.00304985533733,At Bartelt Rd - Construction work.,,US Highway 19,R,Holiday,Pasco,FL,34691,US,US/Eastern,KPIE,2016-09-25 06:53:00,77.0,,94.0,30.02,10.0,SE,3.5,,Mostly Cloudy,False,False,False,False,False,False,False,False,False,False,False,False,False,Night,Day,Day,Day
C-2608175,2,2020-09-21 13:09:00,2020-09-21 23:33:09,41.997274,-87.713891,41.997774,-87.71171899999999,0.116756751041,Stationary traffic from N Lincoln Ave to W Pratt Ave due to resurfacing work.,3378.0,W Devon Ave,R,Lincolnwood,Cook,IL,60712-1317,US,US/Central,KORD,2020-09-21 12:51:00,72.0,72.0,40.0,29.61,10.0,SSE,6.0,0.0,Partly Cloudy,False,False,True,False,False,False,False,False,True,False,False,True,False,Day,Day,Day,Day
C-2608176,2,2020-10-11 18:28:00,2020-10-11 19:03:30,41.03702,-114.500041,41.02667,-114.4855,1.04200546922,Queuing traffic on I-80 from Exit 376 (I-80) to NV-233/Exit 378 (I-80) due to roadwork.,,I-80 E,R,Wells,Elko,NV,89835,US,US/Pacific,K9BB,2020-10-11 18:56:00,49.0,47.0,33.0,25.02,10.0,SW,6.0,0.0,Fair,False,False,False,False,False,False,False,False,False,False,False,False,False,Night,Day,Day,Day
C-2608177,3,2019-05-07 04:39:53,2019-05-13 18:00:00,39.886475,-75.104004,,,2.79999995232,Construction work on I-76 both ways from NJ-42 to Market St.,,I-76 W,R,Gloucester City,Camden,NJ,08030,US,US/Eastern,KPHL,2019-05-07 04:54:00,53.0,53.0,86.0,30.13,10.0,ESE,3.0,0.0,Cloudy,False,False,False,False,False,False,False,False,False,False,False,False,False,Night,Night,Night,Day
C-2608178,2,2021-10-26 18:25:02,2021-10-26 18:45:34,26.267942,-80.186277,26.27379,-80.186263,0.404059248547,Slow traffic from NW 24th St/W Copans Rd (Lyons Rd) to FL-834/W Sample Rd/NW 36th St (Lyons Rd) due to roadwork.,3304.0,Lyons Rd,L,Pompano Beach,Broward,FL,33066,US,US/Eastern,KFXE,2021-10-26 18:53:00,86.0,86.0,61.0,29.81,10.0,W,9.0,0.0,Fair,False,False,False,False,False,False,False,False,False,False,False,True,False,Day,Day,Day,Day
C-2608179,2,2021-06-22 11:41:35,2021-06-22 12:27:48,25.734183,-80.28104599999998,25.734075,-80.286514,0.3404135822599999,Stationary traffic on FL-976 from Granada Blvd (Bird Rd/FL-976) to FL-959/S Red Rd/SW 57th Ave (SW 40th St/Bird Rd/FL-976) due to roadwork.,1323.0,Bird Rd,R,Coral Gables,Miami-Dade,FL,33146-1111,US,US/Eastern,KMIA,2021-06-22 11:35:00,87.0,87.0,74.0,30.08,10.0,SE,12.0,0.0,Mostly Cloudy,False,False,True,False,False,False,False,False,True,False,False,True,False,Day,Day,Day,Day
C-2608180,4,2020-07-14 05:00:00,2020-07-14 12:45:00,47.636674,-122.141734,47.636648,-122.14303999999998,0.0608302365886,Construction on WA-520 WB near MP 10 Use alternate exit ramp.,14929.0,NE 31st Cir,R,Redmond,King,WA,98052-5320,US,US/Pacific,KBFI,2020-07-14 04:53:00,56.0,56.0,75.0,30.11,10.0,CALM,0.0,0.0,Fair,False,False,True,False,False,False,False,False,False,False,False,True,False,Night,Day,Day,Day
C-2608181,2,2021-07-06 12:00:30,2021-08-24 17:27:34,39.883143,-75.53732600000002,39.88479,-75.531177,0.345300730894,Stationary traffic on US-322 E - US-1 N from Wilmington Pike to Evergreen Dr due to roadwork.,1008.0,Baltimore Pike,R,Glen Mills,Delaware,PA,19342-1013,US,US/Eastern,KOQN,2021-08-24 12:15:00,84.0,84.0,70.0,29.33,10.0,W,7.0,0.0,Fair,False,False,False,True,False,False,False,False,False,False,False,True,False,Day,Day,Day,Day
C-2608182,2,2019-05-26 20:01:32,2019-05-30 20:01:13,29.243922,-94.867189,29.26628,-94.82672,2.88748018857,Between San Luis Pass Rd and TX-342-SPUR/61st St - Construction work.,10368.0,Termini San Luis Pass Rd,L,Galveston,Galveston,TX,77554-8763,US,US/Central,KGLS,2019-05-26 19:52:00,80.0,80.0,76.0,30.0,10.0,ESE,13.0,0.0,Fair,True,False,False,False,False,False,False,False,True,False,False,False,False,Day,Day,Day,Day
C-2608183,2,2021-06-01 04:00:04,2021-12-27 12:25:47,38.664647,-121.2923,38.6636,-121.291342,0.0889067146011,Stationary traffic from Kalamazoo Dr to Highview Ln due to roadwork.,5420.0,San Juan Ave,L,Citrus Heights,Sacramento,CA,95610-7419,US,US/Pacific,KMCC,2021-06-30 20:55:00,73.0,73.0,53.0,29.67,10.0,SSW,13.0,,Fair,False,False,False,False,False,False,False,False,False,False,False,False,False,Night,Night,Night,Day
C-2608184,2,2018-02-26 08:32:48,2018-02-26 14:35:04,39.85955,-75.47572,39.85776,-75.47731999999998,0.149991396114,At Garnet Mine Rd - Roadwork. Traffic problem.,2180.0,Foulk Rd,L,Garnet Valley,Delaware,PA,19060-2111,US,US/Eastern,KOQN,2018-02-26 08:35:00,45.0,39.0,66.0,29.45,10.0,NNW,12.0,0.0,Partly Cloudy,False,False,False,False,False,False,False,False,False,False,False,True,False,Day,Day,Day,Day
C-2608185,2,2021-08-20 15:28:17,2021-08-20 16:05:58,45.459052,-98.48361,45.459058,-98.474691,0.4322454671600001,Stationary traffic on US-12 E - US-12 W from S 2nd St (US-12) to CR-12/S Roosevelt St (US-12) due to roadwork.,598.0,S Jay St,L,Aberdeen,Brown,SD,57401-4344,US,US/Central,KABR,2021-08-20 15:39:00,69.0,69.0,84.0,28.28,9.0,W,21.0,0.0,Light Rain / Windy,False,False,True,False,False,False,False,False,False,False,False,True,False,Day,Day,Day,Day
C-2608186,2,2020-12-21 20:07:53,2020-12-21 22:15:02,45.532662,-122.687157,45.527343,-122.686946,0.367649777644,Slow traffic on I-405 S from I-5 (Portland) (North) (I-405) to Everett St/Exit 2 (I-405) due to roadwork.,,Fremont Bridge,R,Portland,Multnomah,OR,97209,US,US/Pacific,KPDX,2020-12-21 19:53:00,46.0,40.0,83.0,29.83,10.0,WSW,13.0,0.0,Cloudy,False,False,False,False,True,False,False,False,False,False,False,True,False,Night,Night,Night,Night
C-2608188,2,2021-04-26 08:41:58,2021-10-08 21:19:39,39.636836,-75.6534,39.633916,-75.653712,0.202434677721,Stationary traffic on US-40 W at DE-1 S due to roadwork.,,DE-1 S,R,Bear,New Castle,DE,19701,US,US/Eastern,KILG,2021-10-08 18:51:00,70.0,70.0,73.0,30.03,10.0,S,8.0,0.0,,False,False,False,False,False,False,False,False,False,False,False,False,False,Day,Day,Day,Day
C-2608189,4,2016-06-30 05:41:44,2016-06-30 11:41:44,41.96013,-70.67026,41.955122,-70.680925,0.6480781502,Closed between RT-3A/Court St and US-44/Exit 6 - Closed due to roadwork.,109.0,Court St,R,Plymouth,Plymouth,MA,02360-3805,US,US/Eastern,KPYM,2016-06-30 05:52:00,61.0,,97.0,29.93,10.0,Calm,,,Clear,False,False,True,False,False,False,False,False,False,False,False,True,False,Day,Day,Day,Day
C-2608191,2,2021-09-24 07:00:00,2021-10-08 17:00:00,44.300091,-73.928802,,,8.699999809269999,Single alternate line traffic due to drainage works on NY-86 Eastbound from CR-31 Whiteface Inn Ln to CR-21 River Rd. Look out for flagman.,899.0,River Rd,L,Lake Placid,Essex,NY,12946-3225,US,US/Eastern,KSLK,2021-09-24 06:51:00,54.0,54.0,90.0,28.2,10.0,SW,12.0,0.0,Mostly Cloudy,False,False,False,False,False,False,False,False,False,False,False,False,False,Day,Day,Day,Day
C-2608192,2,2019-09-25 21:03:44,2019-09-30 21:02:32,33.810083,-84.39284,33.809594,-84.39304200000002,0.0357214395288,At Collier Rd - Construction work.,2035.0,Peachtree Rd NE,R,Atlanta,Fulton,GA,30309-1464,US,US/Eastern,KFTY,2019-09-25 20:53:00,78.0,78.0,62.0,29.0,10.0,CALM,0.0,0.0,Fair,False,False,False,False,False,False,False,False,False,False,False,False,False,Night,Night,Night,Night
C-2608193,3,2017-08-14 19:17:17,2017-08-15 01:17:19,41.98638,-87.8366,41.9811,-87.80695,1.5658989978100002,Between N East River Rd/S Dee Rd and IL-43/N Harlem Ave - Roadwork.,,N Cumberland Ave,R,Chicago,Cook,IL,60631,US,US/Central,KORD,2017-08-14 18:51:00,79.0,,56.0,29.8,10.0,Variable,3.5,,Mostly Cloudy,True,False,True,False,False,False,False,False,True,False,False,True,False,Day,Day,Day,Day
C-2608194,2,2021-09-10 17:27:27,2021-09-10 19:30:10,28.079114,-80.603123,28.079726,-80.604054,0.0707750989219,Stationary traffic on US-192 E - US-1 N - US-192 W - US-1 S - FL-5 from E New Haven Ave to Depot Dr due to roadwork.,1915.0,S Harbor City Blvd,L,Melbourne,Brevard,FL,32901-4747,US,US/Eastern,KMLB,2021-09-10 17:21:00,80.0,80.0,76.0,29.93,10.0,ENE,14.0,0.0,Thunder in the Vicinity,False,False,True,False,False,False,False,False,False,False,False,False,False,Day,Day,Day,Day
C-2608195,2,2021-07-21 04:46:00,2021-07-26 02:05:31,45.421198,-93.881007,45.420774,-93.877991,0.149169329766,Roadwork from Jackson St to County Road 23 SE.,13398.0,Jackson St,R,Becker,Sherburne,MN,55308-4601,US,US/Central,KMGG,2021-07-21 04:55:00,64.0,64.0,88.0,29.04,10.0,ENE,6.0,0.0,Fair,False,False,False,False,False,False,False,False,False,False,False,False,False,Night,Night,Day,Day
C-2608196,2,2020-10-02 14:47:24,2020-10-10 06:59:00,42.964061,-73.791612,42.972801,-73.792199,0.6046052903279999,Construction and safety improvements on US 9 both directions between Stonebreak Road (Malta) and Dunning Street; NY 67; CR 108 (Malta) Thursday October 8th 2020 thru Friday October 9th 2020 Thursday/Friday 06:00 AM thru 05:00 PM left lane closed,2415.0,State Route 9,L,Ballston Spa,Saratoga,NY,12020-4486,US,US/Eastern,KSCH,2020-10-02 14:45:00,61.0,61.0,63.0,29.54,10.0,WNW,3.0,0.0,Mostly Cloudy,False,False,False,False,False,False,False,False,False,False,False,False,False,Day,Day,Day,Day
C-2608197,2,2021-06-23 08:17:00,2021-06-23 16:52:03,41.532418,-76.95481099999998,41.531177,-76.954334,0.0892237804613,Roadwork on PA 14 both directions between POST RD and ABBOTTS HOLLOW RD. There is a lane restriction.,13000.0,State Route 14,R,Roaring Branch,Lycoming,PA,17765-9226,US,US/Eastern,KIPT,2021-06-23 07:54:00,53.0,53.0,80.0,29.61,10.0,NW,6.0,0.0,Fair,False,False,False,False,False,False,False,False,False,False,False,False,False,Day,Day,Day,Day
C-2608198,2,2021-09-07 07:25:30,2021-09-07 08:36:30,40.684468,-73.977705,40.694822,-73.983824,0.783936477948,Slow traffic from Atlantic Ave (Flatbush Ave) to Tillary St (Flatbush Ave) due to roadwork.,125.0,Flatbush Ave,L,Brooklyn,Kings,NY,11217-1403,US,US/Eastern,KJRB,2021-09-07 07:51:00,66.0,66.0,65.0,29.89,10.0,WNW,5.0,0.0,Fair,True,False,True,False,False,False,True,False,True,False,False,True,False,Day,Day,Day,Day
C-2608199,2,2019-03-19 22:02:53,2019-03-24 22:01:13,40.742387,-74.00878900000002,40.742383,-74.008781,0.000501764355425,At RT-9A/11th Ave/W Side Hwy/10th Ave - Construction work.,,West St,R,New York,New York,NY,10014,US,US/Eastern,KJRB,2019-03-20 21:56:00,43.0,40.3,74.0,30.31,10.0,SSE,4.6,,Clear,False,False,True,False,False,False,False,False,False,False,False,True,False,Night,Night,Night,Night
C-2608200,2,2020-05-04 08:49:54,2020-05-23 20:34:48,40.15663,-76.13327,40.16545,-76.15961,1.51849513695,Between N Railroad Ave and State St - Roadwork. Lane blocked. Traffic problem.,1469.0,Division Hwy,R,Ephrata,Lancaster,PA,17522,US,US/Eastern,KLNS,2020-05-04 08:53:00,65.0,65.0,47.0,29.31,10.0,WNW,6.0,0.0,Fair,False,False,False,False,False,False,False,False,False,False,False,False,False,Day,Day,Day,Day
C-2608201,2,2020-06-17 13:55:00,2020-08-12 02:39:03,41.002087,-77.98434300000002,40.967907,-78.08584599999998,5.79698013114,Roadwork on I-80 westbound between Exit 147: PA 144 - SNOW SHOE and Exit 111: PA 153 - PENFIELD. There is a traffic disruption.,,I-80 W,R,Snow Shoe,Centre,PA,16874,US,US/Eastern,KUNV,2020-06-17 13:53:00,75.0,75.0,41.0,28.87,10.0,ENE,7.0,0.0,Fair,False,False,False,False,False,False,False,False,False,False,False,False,False,Day,Day,Day,Day
C-2608202,2,2020-04-21 08:18:32,2020-04-21 15:00:00,40.67023,-75.1352,40.69562,-75.19926,3.78725587818,Between I-78 and US-22-ALT/N Main St/Broad St - Roadwork.,,NJ-173,R,Phillipsburg,Warren,NJ,08865,US,US/Eastern,KABE,2020-04-21 08:51:00,53.0,,69.0,29.13,9.0,,,0.0,Fair,False,False,False,False,True,False,False,False,False,False,False,False,False,Day,Day,Day,Day
C-2608203,2,2021-12-08 08:35:50,2021-12-08 10:40:04,25.925791,-80.168824,25.926297,-80.170043,0.0834272894848,Stationary traffic on FL-826 from NE 16th Ave to NE 164th St due to roadwork.,1545.0,NE 163rd St,L,North Miami Beach,Miami-Dade,FL,33162-4717,US,US/Eastern,KHWO,2021-12-08 08:53:00,74.0,74.0,79.0,30.11,10.0,CALM,0.0,0.0,Fair,False,False,True,False,False,False,False,False,False,False,False,False,False,Day,Day,Day,Day
C-2608204,2,2021-07-15 13:01:45,2021-11-01 16:42:00,34.192986,-86.785797,,,14.2399997711,Intermittent lane closures due to construction work on AL-157 both ways from US-31 2nd Ave to AL-69.,,AL Highway 69 N,R,Cullman,Cullman,AL,35058,US,US/Central,K3A1,2021-07-15 12:53:00,88.0,88.0,51.0,29.51,10.0,SSW,9.0,0.0,Partly Cloudy,False,False,False,False,False,False,False,False,False,False,False,False,False,Day,Day,Day,Day
C-2608205,2,2019-06-11 07:44:48,2019-06-15 07:45:48,40.92154,-80.13319,40.850556,-80.103272,5.14749210412,Between US-422/Exit 99 and Little Creek Rd/Exit 88 - Roadwork. Open.,,I-79 S,R,Portersville,Butler,PA,16051,US,US/Eastern,KBTP,2019-06-11 07:56:00,54.0,54.0,86.0,28.8,10.0,VAR,5.0,0.0,Fair,False,False,False,False,True,False,False,False,False,False,False,False,False,Day,Day,Day,Day
C-2608206,2,2020-10-09 15:46:00,2020-10-10 00:06:48,40.842366,-73.928207,40.832436,-73.931949,0.713437342252,Slow traffic lane closed on I-87 from 179th St/Exit 8 (I-87) to 155th St/Macombs Dam Bridge/Exit 5 (I-87) due to roadwork.,,Major Deegan Expy S,R,Bronx,Bronx,NY,10452,US,US/Eastern,KLGA,2020-10-09 15:51:00,70.0,70.0,36.0,30.1,10.0,SW,13.0,0.0,Fair,False,False,False,False,False,False,False,False,False,False,False,False,False,Day,Day,Day,Day
C-2608207,2,2020-04-06 20:39:22,2020-04-06 22:39:22,38.45828,-77.40949,38.41946,-77.42416,2.79723942339,At VA-630/Exit 140 - Roadwork. Right lane closed.,,I-95 S,R,Stafford,Stafford,VA,22554,US,US/Eastern,KRMN,2020-04-06 20:35:00,59.0,59.0,35.0,29.8,10.0,CALM,0.0,0.0,Partly Cloudy,False,False,False,False,False,False,False,False,False,False,False,False,False,Night,Night,Night,Day
C-2608208,2,2021-12-29 11:28:30,2021-12-29 13:38:33,44.53807800000001,-94.090442,44.543157,-94.091619,0.3556802284749999,Roadwork on 286th St from 280th St to County Hwy-9.,28445.0,411th Ave,R,Arlington,Sibley,MN,55307,US,US/Central,KGYL,2021-12-29 11:35:00,-3.0,-13.0,70.0,28.99,10.0,NW,5.0,0.0,Fair,False,False,False,False,False,False,False,False,False,False,False,False,False,Day,Day,Day,Day
C-2608209,2,2020-11-06 05:00:00,2020-11-06 13:45:00,44.976564,-93.246359,44.973643,-93.249885,0.265394123163,Construction on I-35W near 3RD ST Construction. Expect long delays.,,I-35W S,R,Minneapolis,Hennepin,MN,55415,US,US/Central,KMSP,2020-11-06 04:53:00,56.0,56.0,55.0,29.08,10.0,S,6.0,0.0,Fair,False,False,False,False,True,False,False,False,False,False,False,False,False,Night,Night,Night,Night
C-2608210,2,2021-05-08 06:28:30,2021-10-20 21:15:21,40.636077,-73.951103,40.633941,-73.948844,0.189236575849,Stationary traffic from Linden Blvd (Flatbush Ave) to Avenue J (Flatbush Ave) due to roadwork.,1418.0,Flatbush Ave,R,Brooklyn,Kings,NY,11210-1336,US,US/Eastern,KJRB,2021-05-08 06:51:00,51.0,51.0,66.0,29.73,10.0,CALM,0.0,0.0,Cloudy,True,False,True,False,False,False,False,False,False,False,False,True,False,Day,Day,Day,Day
C-2608211,2,2021-10-21 11:50:30,2021-10-21 12:02:30,35.071946999999994,-81.760237,35.068359,-81.76656700000002,0.4354215399600001,Stationary traffic on I-85 S from Hyatt St/Exit 90 (I-85) to SC-110/Exit 83 (I-85) due to roadwork.,,I-85 S,R,Gaffney,Cherokee,SC,29341,US,US/Eastern,KEHO,2021-10-21 11:55:00,69.0,69.0,64.0,29.26,10.0,S,6.0,0.0,Partly Cloudy,False,False,False,False,False,False,False,False,False,False,False,False,False,Day,Day,Day,Day
C-2608212,4,2021-02-16 03:22:26,2021-02-23 23:59:00,36.645957,-121.793465,36.643828000000006,-121.793472,0.147100402084,Closed road from Colonel Durham St to Gigling Rd due to roadwork.,,6th Ave,R,Seaside,Monterey,CA,93955,US,US/Pacific,KMRY,2021-02-16 02:54:00,51.0,51.0,80.0,29.92,10.0,NW,7.0,0.0,Mostly Cloudy,False,False,False,False,False,False,False,False,False,False,False,False,False,Night,Night,Night,Night
C-2608213,2,2021-05-19 08:59:13,2021-05-19 16:45:00,41.284588,-73.22569399999998,41.255217,-73.203114,2.34376756996,ConnDOT: Road Work on RT25 Southbound between ROUTE 111 and Exit 9 (2.5 miles) in effect today until 4:00 pm. The right and center lanes are closed. Reported Wednesday May 19 at 9:00 am.,,CT-25 S,R,Trumbull,Fairfield,CT,06611,US,US/Eastern,KBDR,2021-05-19 08:52:00,75.0,75.0,36.0,30.28,10.0,NNW,12.0,0.0,Fair,False,False,False,False,False,False,False,False,False,False,False,False,False,Day,Day,Day,Day
C-2608214,2,2021-09-14 10:44:16,2021-09-14 15:45:00,40.631171,-73.738268,40.632012,-73.738628,0.0610968640718999,Construction on ROCKAWAY TPKE NB near REYEM DR Construction. Left lane closed.,,Rockaway Tpke,R,Lawrence,Nassau,NY,11559,US,US/Eastern,KJFK,2021-09-14 10:51:00,76.0,76.0,64.0,30.09,10.0,SE,7.0,0.0,Mostly Cloudy,False,False,True,False,False,False,False,False,False,False,False,True,False,Day,Day,Day,Day
C-2608215,2,2020-10-03 03:45:00,2020-10-03 14:44:00,33.478623,-117.672546,33.466496,-117.668984,0.862678896636,Lane closure due to Polyester concrete overlays between STONEHILL/CAMINO CAP. and Pacific Coast Hwy Rte 1,,I-5 S,R,San Juan Capistrano,Orange,CA,92675,US,US/Pacific,KSNA,2020-10-03 03:53:00,70.0,70.0,61.0,29.77,9.0,CALM,0.0,0.0,Fair,False,False,False,False,False,False,False,False,False,False,False,False,False,Night,Night,Night,Night
C-2608216,2,2016-08-22 09:02:58,2016-08-22 15:02:58,38.936788,-76.960204,38.9366,-76.960756,0.0323856559855,At 34th St - Construction work.,3402.0,Rhode Island Ave,L,Mount Rainier,Prince Georges,MD,20712-2001,US,US/Eastern,KCGS,2016-08-22 08:54:00,71.6,,64.0,30.04,10.0,West,3.5,,Clear,True,False,True,False,False,False,False,False,False,False,True,False,False,Day,Day,Day,Day
C-2608217,2,2021-06-23 10:17:00,2021-06-23 10:52:00,40.428541,-79.937848,40.427745,-79.925028,0.6765108451180001,Slow traffic on US-22 E - Penn Lincoln Pkwy E - US-30 E - Parkway East - I-376 E from PA-885/Exit 3 (I-376) to Braddock Ave/Exit 7 (I-376) due to roadwork.,,Greenfield Brg,R,Pittsburgh,Allegheny,PA,15207,US,US/Eastern,KAGC,2021-06-23 09:53:00,62.0,62.0,60.0,28.88,10.0,SSW,5.0,0.0,Fair,False,False,True,False,False,False,False,False,False,False,False,False,False,Day,Day,Day,Day
C-2608218,4,2021-10-23 11:01:00,2021-10-23 16:46:00,36.921118,-120.018416,36.92373900000001,-120.021195,0.237398595582,Full closure due to Tree Work between Route 99 and Avenue 12 Over-Crossing,11893.0,Highway 99,R,Madera,Madera,CA,93636,US,US/Pacific,KFAT,2021-10-23 10:53:00,62.0,62.0,62.0,29.62,10.0,NW,7.0,0.0,Partly Cloudy,False,False,False,False,True,False,False,False,False,False,False,False,False,Day,Day,Day,Day
C-2608219,2,2016-12-20 21:00:51,2016-12-21 03:00:51,35.44334,-82.53804000000002,35.33837,-82.43809,9.18134094039,Between NC-280/Exit 9 and US-64/Exit 18 - Construction work.,,US-74 E,R,Arden,Buncombe,NC,28704,US,US/Eastern,KAVL,2016-12-20 20:54:00,34.0,28.8,50.0,30.3,10.0,North,5.8,,Clear,False,False,False,False,False,False,False,False,False,False,False,False,False,Night,Night,Night,Night
C-2608220,3,2019-07-26 18:58:52,2019-07-30 18:58:08,34.06106,-118.4184,34.062870000000004,-118.41576,0.196149115014,Between Avenue of the Stars and Century Park E - Roadwork.,,Santa Monica Blvd,R,Los Angeles,Los Angeles,CA,90067,US,US/Pacific,KSMO,2019-07-26 18:51:00,72.0,72.0,73.0,29.75,10.0,SSW,8.0,0.0,Fair,False,False,True,False,False,False,False,False,False,False,False,True,False,Day,Day,Day,Day
C-2608221,2,2021-04-26 08:55:27,2021-05-02 02:56:01,34.296369,-83.39428199999998,34.294141,-83.40677600000002,0.729597319553,Roadwork on Carlan Rd from GA-63 to GA-59 - GA-164.,3046.0,Highway 59,R,Commerce,Banks,GA,30530-6719,US,US/Eastern,K19A,,,,,,,,,,,False,False,False,False,False,False,False,False,False,False,False,False,False,Day,Day,Day,Day
C-2608222,2,2020-10-09 13:12:30,2020-10-09 22:21:00,27.992583000000003,-82.79525,27.985572,-82.795986,0.486490838833,Queuing traffic from Skinner Blvd (US-19 Alt) to Myrtle Ave (US-19 Alt) due to resurfacing work.,1961.0,Edgewater Dr,R,Clearwater,Pinellas,FL,33755-1418,US,US/Eastern,KPIE,2020-10-09 12:53:00,88.0,88.0,57.0,30.03,9.0,SE,14.0,0.0,Partly Cloudy,False,False,False,False,False,False,False,False,True,False,False,False,False,Day,Day,Day,Day
C-2608223,2,2018-12-13 09:01:47,2018-12-17 09:01:34,32.748090000000005,-96.76009,32.74715,-96.74967,0.608998248578,Between Hatcher St and Railroad Ave - Construction work.,,Hawn Fwy E,R,Dallas,Dallas,TX,75215,US,US/Central,KDAL,2018-12-13 08:53:00,62.1,,93.0,29.69,5.0,SSE,13.8,0.02,Light Rain,False,False,False,False,True,False,False,False,False,False,False,False,False,Day,Day,Day,Day
C-2608224,4,2016-05-03 20:38:07,2016-05-04 04:00:00,40.82982,-74.02615,40.75195,-74.11924,7.256760238260001,Between New Jersey Tpke Eastern Spur and I-280/Exit 15 - Construction work.,,New Jersey Tpke S,R,Ridgefield,Bergen,NJ,07657,US,US/Eastern,KTEB,2016-05-03 20:51:00,53.1,,83.0,29.84,5.0,East,3.5,0.0,Overcast,False,False,False,False,False,False,False,False,False,False,False,False,False,Night,Night,Day,Day
C-2608225,2,2021-10-18 16:17:00,2021-10-18 16:31:30,41.03980900000001,-81.50506700000003,41.02086,-81.497686,1.3646022650799998,Slow traffic on I-77 S from Archwood Ave/Exit 124 (I-77) to I-277/US-224/Exit 122 (I-77) due to roadwork.,,I-77 S,R,Akron,Summit,OH,44301,US,US/Eastern,KAKR,2021-10-18 15:54:00,64.0,64.0,37.0,28.95,10.0,WNW,14.0,0.0,Fair,False,False,False,False,False,False,False,False,False,False,False,False,False,Day,Day,Day,Day
C-2608227,2,2021-09-17 06:00:58,2021-09-18 02:58:35,42.93235,-74.182147,42.931801,-74.180778,0.0789621763634,NYSDOT - Region 2: Construction construction on NY 5 both directions between Main Street (County Route 157) and Pearl Street ( State Route 30) until 6:00 P.M. Motorists will encounter lane closures in both directions,7.0,Lark St,R,Amsterdam,Montgomery,NY,12010-5330,US,US/Eastern,KSCH,2021-09-17 07:55:00,64.0,64.0,94.0,29.91,15.0,NNE,3.0,0.0,Cloudy,False,False,False,False,False,False,False,False,False,False,False,False,False,Night,Night,Day,Day
C-2608228,4,2021-07-09 09:51:30,2021-07-19 02:59:40,45.228922,-85.353185,45.284716,-85.311319,4.35973167552,US-31 S - US-31 N is closed from CR-48/Atwood Rd (US-31) to MI-66 (Bridge St/US-31) due to roadwork.,1898.0,US Highway 31 S,R,Charlevoix,Charlevoix,MI,49720-9800,US,US/Eastern,KCVX,2021-07-09 09:55:00,62.0,62.0,65.0,29.35,10.0,WNW,9.0,0.0,Fair,False,False,False,False,False,False,False,False,False,False,False,False,False,Day,Day,Day,Day
C-2608229,2,2020-07-27 14:13:44,2020-10-03 05:22:24,40.089363,-98.725994,40.089181,-98.669777,2.9716216124799995,Construction on US-136 NB near WARRINER ST Expect long delays.,,Road 100,R,Inavale,Webster,NE,68952,US,US/Central,KHSI,2020-07-27 13:53:00,81.0,81.0,60.0,28.06,10.0,E,10.0,0.0,Fair,False,False,False,False,False,False,False,False,False,False,False,False,False,Day,Day,Day,Day
C-2608230,4,2021-06-11 02:51:29,2021-06-18 23:59:00,37.512141,-122.257457,37.512031,-122.254367,0.169522919008,Closed road from Holly St to US-101 S due to roadwork.,867.0,Holly St,L,San Carlos,San Mateo,CA,94070,US,US/Pacific,KSQL,2021-06-11 02:55:00,50.0,50.0,76.0,30.13,10.0,S,3.0,0.0,Fair,False,False,False,False,False,False,False,False,False,False,False,False,False,Night,Night,Night,Night
C-2608231,2,2021-02-22 04:57:30,2021-02-22 10:07:04,25.890198,-80.188048,25.890307,-80.185905,0.133418729622,Slow traffic on FL-922 from Griffing Blvd/NE North Miami Blvd (NE 125th St/North Miami Blvd/FL-922) to NE 10th Ave (NE 125th St/North Miami Blvd/FL-922) due to roadwork.,506.0,NE 125th St,R,North Miami,Miami-Dade,FL,33161-4719,US,US/Eastern,KOPF,2021-02-22 04:53:00,70.0,70.0,81.0,30.15,10.0,E,10.0,0.0,Partly Cloudy,False,False,False,False,False,False,False,False,True,False,False,False,False,Night,Night,Night,Night
C-2608232,2,2021-07-04 09:44:00,2021-07-04 11:52:55,32.872085,-96.678967,32.884640999999995,-96.697985,1.40372124199,Roadwork on TX-78/Garland Rd/Exit 12 (I-635) from New Church Rd/Plano Rd/Exit 14 (I-635) to I-635 W - LBJ Fwy W.,,I-635 W,R,Dallas,Dallas,TX,75238,US,US/Central,KDAL,2021-07-04 09:53:00,81.0,81.0,52.0,29.46,10.0,SE,12.0,0.0,Cloudy,False,False,False,False,False,False,False,False,False,False,False,False,False,Day,Day,Day,Day
C-2608233,2,2021-09-24 12:17:00,2021-10-08 14:02:00,35.55444,-78.207332,35.551302,-78.21564000000002,0.514892292321,Construction on I-95 SB near EXIT 102 Construction. Right lane closed.,,I-95 S,R,Selma,Johnston,NC,27576,US,US/Eastern,KJNX,2021-09-24 12:15:00,73.0,73.0,44.0,29.94,10.0,N,6.0,0.0,Fair,False,False,False,False,False,False,False,False,False,False,False,False,False,Day,Day,Day,Day
C-2608234,2,2020-11-24 15:24:00,2020-11-25 16:15:17,41.484729,-75.67858000000003,41.519529,-75.6608,2.57446541138,Roadwork on I-81 northbound 2.2 miles north of Exit 194: US 6 WEST/US 11/I-476 SOUTH TURNPIKE. There is a lane restriction.,,I-81 N,R,Clarks Summit,Lackawanna,PA,18411,US,US/Eastern,KAVP,2020-11-24 14:54:00,44.0,41.0,47.0,29.28,10.0,N,6.0,0.0,Fair,False,False,False,False,False,False,False,False,False,False,False,False,False,Day,Day,Day,Day
C-2608235,4,2021-12-29 21:01:00,2021-12-30 04:44:00,38.59183400000001,-121.551,38.592518,-121.551612,0.0576699435109,Construction on I-80 EB near REED AVE Take alternate route.,,Reed Ave,R,West Sacramento,Yolo,CA,95605,US,US/Pacific,KSAC,2021-12-29 20:53:00,42.0,36.0,96.0,29.88,10.0,NNW,10.0,0.0,Cloudy,False,False,False,False,False,False,False,False,False,False,False,True,False,Night,Night,Night,Night
C-2608236,2,2021-12-24 13:04:30,2021-12-24 15:22:13,28.568397,-81.284258,28.567612,-81.286174,0.128294334086,Stationary traffic on FL-551 - FL-50 from Regan Ave to Marietta St due to roadwork.,7651.0,E Colonial Dr,L,Orlando,Orange,FL,32807-8407,US,US/Eastern,KORL,2021-12-24 12:53:00,77.0,77.0,48.0,30.06,10.0,E,6.0,0.0,Mostly Cloudy,False,False,False,False,False,False,False,False,False,False,False,False,False,Day,Day,Day,Day
C-2608237,2,2019-08-05 09:37:25,2019-08-09 09:38:31,40.26452000000001,-76.87461,40.264709,-76.873975,0.0359357336433,At 13th St - Roadwork. Lane blocked.,1036.0,Market St,L,Harrisburg,Dauphin,PA,17101-2811,US,US/Eastern,KCXY,2019-08-05 09:56:00,77.0,77.0,52.0,29.65,10.0,E,6.0,0.0,Partly Cloudy,False,False,False,False,False,False,False,False,False,False,False,True,False,Day,Day,Day,Day
C-2608238,2,2021-10-07 09:08:10,2021-10-07 09:28:37,40.803705,-73.937913,40.803015,-73.93630300000002,0.0967636142457,Stationary traffic from Park Ave (E 124th St) to 2nd Ave (E 124th St) due to roadwork.,2040.0,Lexington Ave,L,New York,New York,NY,10035-2207,US,US/Eastern,KNYC,2021-10-07 08:59:00,66.0,66.0,84.0,30.23,10.0,CALM,0.0,0.0,Mostly Cloudy,True,False,False,False,False,False,True,False,True,False,False,True,False,Day,Day,Day,Day
C-2608239,2,2021-12-22 17:29:22,2021-12-22 19:32:00,26.635239,-81.87258299999998,26.64045,-81.87272800000002,0.36015715968,Stationary traffic on FL-45 - US-41 S - US-41 N from Braman Ave (US-41) to FL-82/FL-867/Main St/Dr Martin Luther King Blvd (US-41) due to roadwork.,2250.0,Cleveland Ave,R,Fort Myers,Lee,FL,33901-3501,US,US/Eastern,KFMY,2021-12-22 17:53:00,66.0,66.0,60.0,29.97,10.0,NNW,6.0,0.0,Fair,False,False,False,False,False,False,False,False,False,False,False,True,False,Day,Day,Day,Day
C-2608240,2,2020-03-13 19:03:44,2020-03-19 23:59:00,43.16181,-77.68178,43.16181,-77.68178,0.0,At RT-31/Lyell Ave - Construction work.,,NY-390 N,R,Rochester,Monroe,NY,14606,US,US/Eastern,KROC,2020-03-13 18:54:00,41.0,32.0,55.0,29.43,10.0,W,20.0,0.0,Mostly Cloudy,False,False,False,False,False,False,False,False,False,False,False,False,False,Day,Day,Day,Day
C-2608241,4,2020-10-21 19:55:54,2020-10-29 06:59:00,42.524009,-83.119887,42.523379,-83.119497,0.0478451617059,Closed road in Stephenson Hwy due to roadwork.,31449.0,Stephenson Hwy,L,Madison Heights,Oakland,MI,48071-1623,US,US/Eastern,KVLL,2020-10-21 19:41:00,52.0,52.0,76.0,29.45,10.0,CALM,0.0,0.0,Fair,False,False,True,False,False,False,False,False,False,False,False,False,False,Night,Night,Night,Day
C-2608242,2,2021-05-13 06:38:30,2021-05-13 09:56:00,35.099028999999994,-92.430069,35.111671,-92.434667,0.91132580747,Slow traffic on I-40 W - US-65 N from US-64/Exit 127 (I-40) to US-65/Exit 125 (I-40) due to roadwork.,,I-40 W,R,Conway,Faulkner,AR,72032,US,US/Central,KLRF,2021-05-13 06:56:00,52.0,52.0,62.0,30.0,10.0,CALM,0.0,0.0,Fair,False,False,False,False,False,False,False,False,False,False,False,False,False,Day,Day,Day,Day
C-2608243,4,2020-06-17 21:03:30,2020-06-22 21:01:27,45.51019,-122.6876,45.51148,-122.68842,0.0975736420908,Ramp to US-26/Sunset Hwy WB and SW 12th Ave - Construction work.,,I-405 N,R,Portland,Multnomah,OR,97201,US,US/Pacific,KPDX,2020-06-18 20:53:00,75.0,75.0,37.0,30.0,10.0,WNW,8.0,0.0,Mostly Cloudy,False,False,False,False,True,False,False,False,False,False,False,False,False,Night,Day,Day,Day
C-2608244,4,2021-10-21 00:00:00,2021-10-22 00:45:00,39.727316,-104.998622,39.727317,-104.998995,0.0198211160474,Construction on W 7TH AVE WB near N KALAMATH ST Expect delays.,700.0,N Santa Fe Dr,R,Denver,Denver,CO,80204,US,US/Mountain,KBJC,2021-10-21 00:15:00,45.0,45.0,49.0,24.54,10.0,WNW,3.0,0.0,Fair,True,False,True,False,False,False,False,False,True,False,False,True,False,Night,Night,Night,Night
C-2608245,2,2020-04-29 11:01:00,2020-04-29 15:01:00,41.85339000000001,-122.57099,41.82817,-122.58008999999998,1.80439709597,Between 0.4 mi south of Route 96 and 2.4 mi south of Route 96 - Maintenance work.,,I-5 S,R,Yreka,Siskiyou,CA,96097,US,US/Pacific,KSIY,2020-04-29 10:53:00,73.0,73.0,44.0,27.25,10.0,VAR,3.0,0.0,Fair,False,False,False,False,False,False,False,False,False,False,False,False,False,Day,Day,Day,Day
C-2608246,4,2018-07-17 04:51:38,2018-07-21 04:51:03,48.032136,-122.058424,48.035361,-122.050703,0.420602208967,Closed between 127th Dr NE and 44th St NE - Closed due to roadwork.,12774.0,State Route 92,R,Lake Stevens,Snohomish,WA,98258-9009,US,US/Pacific,KAWO,2018-07-17 03:56:00,55.0,,93.0,30.01,10.0,North,6.9,,Clear,False,False,False,False,False,False,False,False,True,False,False,False,False,Night,Day,Day,Day
C-2608247,2,2020-11-30 08:00:00,2021-01-11 08:45:00,39.14419,-75.505095,39.13704,-75.525165,1.18355920945,Construction on PUNCHEON RUN CONN SB near S STATE ST Construction. Left lane closed.,,Puncheon Run Connector,R,Dover,Kent,DE,19901,US,US/Eastern,KDOV,2020-11-30 08:00:00,59.0,59.0,100.0,29.56,3.0,ESE,21.0,0.0,Light Rain / Windy,False,False,False,False,True,False,False,False,False,False,False,False,False,Day,Day,Day,Day
C-2608248,2,2020-04-25 09:47:20,2020-04-26 09:47:20,42.87266,-87.94228000000004,42.8728,-87.96112,0.954036433697,Between I-94/I-41 and S 51st St/S Franklin Dr - Roadwork. Right lane closed.,,W Ryan Rd,R,Oak Creek,Milwaukee,WI,53154,US,US/Central,KMKE,2020-04-25 09:52:00,43.0,36.0,74.0,29.27,10.0,NNE,13.0,0.0,Cloudy,False,False,False,False,False,False,False,False,False,False,False,True,False,Day,Day,Day,Day
C-2608249,2,2020-07-17 13:00:00,2020-07-17 17:45:00,43.283257,-76.125737,43.278075,-76.127797,0.372734438292,Construction on I-81 SB near NY-49 Construction. Expect long delays.,,I-81 S,R,Central Square,Oswego,NY,13036,US,US/Eastern,KSYR,2020-07-17 12:54:00,78.0,78.0,62.0,29.64,10.0,WNW,12.0,0.0,Mostly Cloudy,False,False,False,False,False,False,False,False,False,False,False,False,False,Day,Day,Day,Day
C-2608250,2,2021-06-29 00:06:55,2021-06-29 02:51:55,45.674477,-93.192975,45.853693,-93.296857,13.3567061207,Construction on MN-65 NB near 389TH AVE Allow extra time.,,Highway 65 NE,R,Stanchfield,Isanti,MN,55080,US,US/Central,KCBG,2021-06-29 00:15:00,68.0,68.0,78.0,29.08,7.0,CALM,0.0,0.0,Fair,False,False,False,False,False,False,False,False,False,False,False,False,False,Night,Night,Night,Night
C-2608251,3,2020-07-03 09:00:00,2020-07-03 15:00:00,41.603111,-71.65741,,,7.789999961849999,Intermittent lane closures due to bridge maintenance work on I-95 Northbound from Exit 4 RI-3 Nooseneck Hill Rd to Exits 5A 5B RI-102.,,Victory Hwy,R,West Greenwich,Kent,RI,02817,US,US/Eastern,KOQU,2020-07-03 08:50:00,79.0,79.0,74.0,29.8,8.0,NE,14.0,,Partly Cloudy,False,False,False,False,True,False,False,False,False,False,False,False,False,Day,Day,Day,Day
C-2608252,2,2020-09-23 15:37:00,2020-09-23 22:11:30,33.322096,-111.911218,33.320093,-111.91212,0.147867934473,Slow traffic from Roundabout Cir to N Juniper Dr due to maintenance work.,,Roundabout Cir,R,Chandler,Maricopa,AZ,85226,US,US/Mountain,KCHD,2020-09-23 15:47:00,102.0,102.0,11.0,28.57,10.0,WSW,10.0,,Fair,False,False,True,False,False,False,False,False,False,False,False,True,False,Day,Day,Day,Day
C-2608253,2,2021-10-24 17:38:00,2021-10-24 17:58:00,29.004702,-81.386696,29.00822,-81.38266800000002,0.343985855708,Stationary traffic on FL-44 from Royal Trails Rd (FL-44) to C R 4053/Grand Ave (FL-44) due to roadwork.,34151.0,State Road 44,L,Deland,Lake,FL,32720,US,US/Eastern,KDED,2021-10-24 17:30:00,78.0,78.0,88.0,29.92,10.0,ENE,5.0,0.01,Fair,False,False,False,False,False,False,False,False,False,False,False,False,False,Day,Day,Day,Day
C-2608254,2,2020-07-09 07:00:00,2020-08-07 11:05:59,43.264659,-82.618848,43.265275,-82.605306,0.6826703920530001,Construction on PECK RD EB near CROSWELL RD Expect delays.,5020.0,Peck Rd,R,Croswell,Sanilac,MI,48422-1420,US,US/Eastern,KPHN,2020-07-09 06:55:00,66.0,66.0,100.0,29.25,0.25,CALM,0.0,0.0,Fog,True,False,False,False,False,False,False,False,False,False,False,False,False,Day,Day,Day,Day
C-2608255,2,2020-11-13 11:48:00,2020-11-14 00:19:33,27.996837,-82.585157,27.995975,-82.581236,0.246514894803,Slow traffic on FL-580 from Tudor Dr to Memorial Highway Access Rd due to roadwork.,8890.0,W Hillsborough Ave,L,Tampa,Hillsborough,FL,33615-3717,US,US/Eastern,KTPA,2020-11-13 11:53:00,83.0,83.0,60.0,30.01,10.0,VAR,7.0,0.0,Mostly Cloudy,False,False,False,False,False,False,False,False,False,False,False,False,False,Day,Day,Day,Day
C-2608256,2,2021-09-04 20:40:00,2021-09-04 20:54:00,41.074553,-84.990718,41.064118,-84.989681,0.7230105638140001,Slow traffic on Ronald Reagan Expy - I-469 S - US-30 E from US-24/Exit 21 (I-469) to US-30/Exit 19 (I-469) due to roadwork.,,I-469 S,R,New Haven,Allen,IN,46774,US,US/Eastern,KFWA,2021-09-04 20:27:00,66.0,66.0,96.0,28.99,1.0,S,8.0,0.02,Rain,False,False,False,False,False,False,False,False,False,False,False,False,False,Night,Night,Day,Day
C-2608257,2,2021-12-26 10:09:30,2021-12-26 17:42:30,39.796782,-120.130988,39.809443,-120.215807,4.58647022134,Slow traffic on CA-70 from US-395 (CA-70) to CR-A24 (CA-70) due to roadwork.,94573.0,State Highway 70,R,Chilcoot,Plumas,CA,96105,US,US/Pacific,KRTS,2021-12-26 10:15:00,25.0,11.0,59.0,24.73,2.0,WSW,20.0,0.0,N/A Precipitation,False,False,False,False,False,False,False,False,False,False,False,False,False,Day,Day,Day,Day
C-2608258,2,2020-08-20 23:00:00,2020-09-19 06:00:00,45.74403,-122.660841,45.618156,-122.675376,8.725321449179999,Maintenance on I-5 southbound from milepost 9 near 179th Street to milepost 0 near Interstate 5 Bridge has mobile sweeping with intermittent left lane and shoulder closures beginning at 12:00 am on August 26 2020 until further notice. Use caution in the area and move over for flashing lights.,,I-5 S,R,Ridgefield,Clark,WA,98642,US,US/Pacific,KSPB,2020-08-20 22:53:00,65.0,65.0,90.0,29.77,10.0,ESE,3.0,0.0,Mostly Cloudy,False,False,False,False,False,False,False,False,False,False,False,False,False,Night,Night,Night,Night
C-2608259,2,2017-02-01 11:22:33,2017-02-01 17:24:46,40.301621,-76.903326,40.304789,-76.90222,0.226513348457,At I-81 - Roadwork. Lane blocked.,3365.0,N Front St,R,Harrisburg,Dauphin,PA,17110-1436,US,US/Eastern,KCXY,2017-02-01 10:56:00,48.0,,44.0,29.98,10.0,WSW,17.3,,Mostly Cloudy,False,False,False,False,False,False,False,False,False,False,False,False,False,Day,Day,Day,Day
C-2608260,2,2020-11-05 17:00:00,2020-11-06 07:59:00,42.584118,-73.677977,42.580072,-73.679226,0.286682502969,Construction on I-90 eastbound between Exit 10; Miller Road (Schodack) and Exit 11E; US 9 north; US 20 east (Schodack) Pavement Repair Thursday November 5th 2020 09:00 AM thru 02:30 PM left lane closed,,I-90 E,R,East Greenbush,Rensselaer,NY,12061,US,US/Eastern,KALB,2020-11-05 16:51:00,63.0,63.0,43.0,29.93,10.0,SSE,12.0,0.0,Mostly Cloudy,False,False,False,False,True,False,False,False,False,False,False,False,False,Night,Day,Day,Day
C-2608261,2,2021-07-19 19:00:39,2021-07-19 19:26:25,28.256074,-81.466187,28.256384000000004,-81.462547,0.222564167503,Stationary traffic on US-92 E - US-17 N from Poinciana Blvd (US-92/US-17) to CR-535/Broad St/Ham Brown Rd (US-92/US-17) due to roadwork.,,S Orange Blossom Trl,R,Kissimmee,Osceola,FL,34746,US,US/Eastern,KISM,2021-07-19 18:56:00,86.0,86.0,70.0,29.98,10.0,NE,7.0,0.0,Thunder in the Vicinity,False,False,True,False,False,False,False,False,False,False,False,True,False,Day,Day,Day,Day
C-2608262,2,2021-12-03 16:43:30,2021-12-03 18:48:50,33.858666,-117.889377,33.85968,-117.890708,0.103636189463,Stationary traffic from N State College Blvd to S Acacia Ave due to roadwork.,1338.0,S State College Blvd,R,Anaheim,Orange,CA,92806-5715,US,US/Pacific,KFUL,2021-12-03 16:53:00,59.0,59.0,72.0,29.96,6.0,WSW,5.0,0.0,Haze,False,False,False,False,False,False,False,False,False,False,False,False,False,Night,Day,Day,Day
C-2608263,2,2021-07-02 15:50:30,2021-07-02 18:25:14,33.511148,-112.013034,33.509896000000005,-112.01228,0.0967982369557,Stationary traffic from Medlock Dr to N 32nd Pl due to roadwork.,5050.0,N 32nd St,L,Phoenix,Maricopa,AZ,85016,US,US/Mountain,KPHX,2021-07-02 15:51:00,101.0,101.0,26.0,28.59,10.0,VAR,3.0,0.0,Mostly Cloudy,False,False,False,False,False,False,False,False,False,True,False,False,False,Day,Day,Day,Day
C-2608264,2,2021-10-25 09:24:00,2021-10-25 16:45:00,41.141191,-73.28399,41.142101,-73.27524,0.4596118517890001,Construction on I-95 NB near EXIT 19 Construction. Right lane closed.,,Governor John Davis Lodge Tpke,R,Southport,Fairfield,CT,06890,US,US/Eastern,KBDR,2021-10-25 09:52:00,68.0,68.0,90.0,29.97,10.0,SSW,10.0,0.0,Fair,False,False,False,False,False,False,False,False,False,False,False,False,False,Day,Day,Day,Day
C-2608265,2,2021-10-27 03:30:40,2021-10-27 05:59:00,34.172569,-118.388809,,,0.20000000298,Entry ramp to CA-170 Northbound from Burbank Blvd closed due to construction work.,,CA-170 N,R,Valley Village,Los Angeles,CA,91607,US,US/Pacific,KBUR,2021-10-27 03:53:00,55.0,55.0,55.0,29.3,10.0,CALM,0.0,0.0,Fair,False,False,False,False,False,False,False,False,False,False,False,False,False,Night,Night,Night,Night
C-2608266,2,2020-09-04 18:25:00,2020-09-04 21:39:30,30.479732,-90.244306,30.458632,-90.181386,4.02061829122,Slow traffic on I-12 from St Tammany--Tangipahoa County Border (I-12) to LA-1077/Exit 57 (I-12) due to resurfacing work.,,I-12 E,R,Ponchatoula,Tangipahoa,LA,70454,US,US/Central,KHDC,2020-09-04 18:35:00,86.0,86.0,70.0,30.0,10.0,SSE,5.0,0.0,Fair,False,False,False,False,False,False,False,False,False,False,False,False,False,Day,Day,Day,Day
C-2608267,2,2021-03-09 02:55:50,2021-03-09 18:52:17,30.148168,-95.155881,30.147488,-95.138681,1.02872743666,Roadwork from Loop 494 (FM-1485/TX-1485) to Huffman Cleveland Rd/Plum Grove Rd (FM-1485/TX-1485).,26566.0,FM 1485 Rd,R,New Caney,Montgomery,TX,77357-7382,US,US/Central,KIAH,2021-03-09 02:53:00,58.0,58.0,93.0,30.19,7.0,SE,5.0,0.0,Mostly Cloudy,False,False,False,False,False,False,False,False,False,False,False,False,False,Night,Night,Night,Night
C-2608268,2,2021-08-25 06:04:24,2021-08-25 16:44:31,42.97068,-70.89224200000002,,,3.7300000190699993,Left lane closed due to construction work on NH-101 Exeter-Hampton Expy Westbound between Exit 13 NH-27 Exeter Rd and Exit 12 NH-111.,,NH-101 W,R,Exeter,Rockingham,NH,03833,US,US/Eastern,KPSM,2021-08-25 05:56:00,69.0,69.0,95.0,29.93,10.0,W,5.0,0.0,Partly Cloudy,False,False,False,False,False,False,False,False,False,False,False,False,False,Day,Day,Day,Day
C-2608269,2,2020-09-04 23:25:00,2020-09-04 23:50:30,40.332073,-75.381387,40.368572,-75.40055799999998,2.7163781191900003,Slow traffic on I-476 from PA-113/Harleysville Pike (I-476) to PA-563/Ridge Rd (I-476) due to roadwork.,,I-476 N,R,Telford,Montgomery,PA,18969,US,US/Eastern,KUKT,2020-09-04 23:35:00,61.0,61.0,100.0,29.49,10.0,CALM,0.0,0.0,Fair,False,False,False,False,False,False,False,False,False,False,False,False,False,Night,Night,Night,Night
C-2608270,3,2020-04-21 09:33:41,2020-04-25 09:32:23,42.16587,-89.02339,42.23907,-88.96594,5.85029329612,Between IL-72/Exit 111 and US-20/Harrison Ave/Exit 122A - Roadwork.,,I-39 N,R,Rockford,Winnebago,IL,61109,US,US/Central,KRFD,2020-04-21 09:54:00,42.0,33.0,32.0,29.17,10.0,WNW,20.0,0.0,Fair,False,False,False,False,False,False,False,False,False,False,False,False,False,Day,Day,Day,Day
C-2608271,4,2018-10-24 21:03:05,2018-10-25 02:02:47,40.63848,-74.1437,40.64219,-74.14211999999998,0.269389208874,Closed between Innis St and New York/New Jersey State Line - Closed due to roadwork.,,Bayonne Brg S,R,Staten Island,Richmond,NY,10303,US,US/Eastern,KEWR,2018-10-24 20:51:00,46.9,,61.0,30.16,10.0,NW,12.7,,Scattered Clouds,False,False,False,False,False,False,False,False,False,False,False,False,False,Night,Night,Night,Night
C-2608272,2,2021-12-27 17:24:30,2021-12-27 19:26:43,48.199375,-117.738529,48.192449,-117.736665,0.4861807018819999,Roadwork on US-395 (WA-231) from WA-232/Bull Dog Creek Rd (WA-231) to WA-231.,2851.0,Highway 231,R,Valley,Stevens,WA,99181-9664,US,US/Pacific,KDEW,2021-12-27 17:53:00,11.0,-3.0,77.0,27.37,10.0,SSW,12.0,0.0,Cloudy,False,False,False,False,False,False,False,False,False,False,False,False,False,Night,Night,Night,Day
C-2608273,2,2019-10-22 13:36:12,2019-10-26 13:35:31,42.0894,-72.62706999999997,42.091,-72.62601,0.123187281905,Between North St and River St - Construction work. Turning lane blocked.,1.0,Suffield St,L,Agawam,Hampden,MA,01001-1721,US,US/Eastern,KBAF,2019-10-22 13:53:00,57.0,57.0,72.0,29.76,10.0,SE,6.0,0.0,Cloudy,False,False,False,False,False,False,False,False,False,False,False,False,False,Day,Day,Day,Day
C-2608274,2,2021-04-15 06:00:00,2021-09-23 05:44:35,46.368496,-123.808913,46.366556,-123.810777,0.160825242855,Beginning on Thursday April 15 2021 until further notice: a single lane remains closed on SR 401 due to roadway settlement caused by heavy rain. Travelers will be shifted to use a single lane bypass road with temporary signals alternating traffic on either side.NOTE: Travelers should slow down and watch for road crews as work continues to stabilize the slope and repair the road.,1848.0,State Route 401,R,Naselle,Pacific,WA,98638-8542,US,US/Pacific,KAST,2021-04-15 05:55:00,36.0,32.0,89.0,30.06,10.0,ESE,5.0,0.0,Fair,False,False,False,False,False,False,False,False,False,False,False,False,False,Night,Day,Day,Day
C-2608275,2,2020-09-02 11:46:00,2020-09-03 04:00:41,33.467464,-112.151779,33.465949,-112.15239,0.110441875084,Queuing traffic from W Granada Rd to N 45th Ave due to roadwork.,1767.0,N 43rd Ave,R,Phoenix,Maricopa,AZ,85009,US,US/Mountain,KPHX,2020-09-02 11:51:00,93.0,93.0,41.0,28.76,10.0,VAR,6.0,0.0,Partly Cloudy,False,False,False,False,False,False,False,False,True,False,False,False,False,Day,Day,Day,Day
C-2608276,3,2021-04-25 23:00:14,2021-04-25 23:28:12,33.085499,-117.29953,,,1.50999999046,Exit ramp from I-5 Southbound at Exit 44 to La Costa Ave Eastbound closed due to construction work.,,I-5 S,R,Encinitas,San Diego,CA,92024,US,US/Pacific,KCRQ,2021-04-25 22:53:00,58.0,58.0,75.0,29.54,10.0,W,8.0,0.0,Cloudy,False,False,False,False,False,False,False,False,False,False,False,False,False,Night,Night,Night,Night
C-2608277,3,2019-07-12 04:15:37,2019-07-12 05:00:00,39.932983,-82.830742,,,0.0,Intermittent lane closures and intermittent ramp closures due to construction work on I-70 both ways at Exits 110 110A 110B CR-117 Brice Rd. Detour in operation.,,Brice Rd,R,Reynoldsburg,Franklin,OH,43068,US,US/Eastern,KCMH,2019-07-12 03:51:00,72.0,72.0,73.0,28.99,10.0,NW,7.0,0.0,Fair,False,False,False,False,False,False,False,False,False,False,False,False,False,Night,Night,Night,Day
C-2608278,2,2021-10-25 06:44:30,2021-10-25 07:05:00,28.320851,-82.503295,28.322652,-82.502505,0.133392011751,Slow traffic on FL-45 - US-41 S - US-41 N from CR-583/Ehren Cutoff (US-41) to CR-578/County Line Rd (US-41) due to roadwork.,11264.0,Land O'Lakes Blvd,R,Land O Lakes,Pasco,FL,34638,US,US/Eastern,KBKV,2021-10-25 06:53:00,72.0,72.0,97.0,29.89,10.0,CALM,0.0,0.0,Cloudy,False,False,False,False,False,False,False,False,False,False,False,False,False,Night,Night,Night,Day
C-2608279,4,2019-01-10 09:41:31,2019-01-10 15:00:00,34.040409999999994,-118.0814,34.03965,-118.08043,0.0764310021053,Ramp closed to CA-60/Pomona Fwy/Town Center Dr - Closed due to roadwork.,,San Gabriel Blvd,R,Rosemead,Los Angeles,CA,91770,US,US/Pacific,KEMT,2019-01-10 09:47:00,53.6,,94.0,30.18,3.0,ESE,5.8,,Mostly Cloudy,False,False,False,False,False,False,False,False,False,False,False,True,False,Day,Day,Day,Day
C-2608280,3,2019-04-29 21:00:00,2019-04-30 05:00:00,33.705231,-117.954422,,,2.0,Three lanes closed due to bridge maintenance work on I-405 Southbound between Magnolia St and Exit 14 Brookhurst St.,,Brookhurst St,R,Fountain Valley,Orange,CA,92708,US,US/Pacific,KSNA,2019-04-29 20:53:00,61.0,61.0,70.0,29.85,10.0,SW,5.0,0.0,Fair,False,False,False,False,False,False,False,False,False,False,False,False,False,Night,Night,Night,Day
C-2608281,2,2021-06-19 16:45:21,2021-06-19 17:11:49,40.767711,-74.065253,40.780281,-74.054348,1.03917014461,Slow traffic on I-95 N - New Jersey Tpke N - NJ-495 E from exit [15X] to NJ-3 exit [16E] due to roadwork.,,New Jersey Tpke N,R,Secaucus,Hudson,NJ,07094,US,US/Eastern,KTEB,2021-06-19 16:51:00,85.0,85.0,49.0,29.69,10.0,SW,15.0,0.0,Partly Cloudy,False,False,False,False,False,False,False,False,False,False,False,False,False,Day,Day,Day,Day
C-2608282,2,2021-05-22 06:32:30,2021-05-22 16:30:54,25.886459,-80.21064100000002,25.889162,-80.210059,0.190231168043,Slow traffic on US-441 N from NW 119th St to I-95 S due to roadwork.,12201.0,NW 7th Ave,L,North Miami,Miami-Dade,FL,33168-2601,US,US/Eastern,KOPF,2021-05-22 06:53:00,73.0,73.0,61.0,30.18,10.0,E,7.0,0.0,Fair,False,False,False,False,False,False,False,False,False,False,False,True,False,Day,Day,Day,Day
C-2608283,3,2020-06-06 14:10:00,2021-02-04 08:31:04,32.67439,-95.48554,32.65438,-95.49039,1.41104702495,Between US-80/E Broad St and McDaniel St - Construction work.,100.0,Greenville Hwy,R,Mineola,Wood,TX,75773,US,US/Central,KJDD,2020-06-08 07:55:00,77.0,77.0,83.0,29.22,10.0,NNW,3.0,0.0,Fair,False,False,False,False,False,False,False,False,False,False,False,False,False,Day,Day,Day,Day
C-2608284,4,2021-11-05 09:09:28,2021-11-12 23:59:00,45.156378,-93.510479,45.158393,-93.513463,0.20129670333,Closed road from Dayton to Dayton Pkwy due to roadwork.,,I-94 W,R,Maple Grove,Hennepin,MN,55311,US,US/Central,KMIC,2021-11-05 08:53:00,41.0,33.0,79.0,29.08,10.0,SSE,15.0,0.0,Fair,False,False,False,False,False,False,False,False,False,False,False,False,False,Day,Day,Day,Day
C-2608285,4,2021-11-04 09:35:30,2021-11-04 16:00:00,37.719756,-97.199447,37.723027,-97.198954,0.227604990531,Closed road from KS-96 W to E 21st St N due to roadwork.,,KS-96 W,R,Wichita,Sedgwick,KS,67206,US,US/Central,KAAO,2021-11-04 09:54:00,44.0,39.0,85.0,28.79,10.0,SSW,10.0,0.0,Cloudy,False,False,False,False,False,False,False,False,False,False,False,False,False,Day,Day,Day,Day
C-2608286,4,2020-06-02 19:36:28,2020-06-06 22:09:37,44.6566,-93.62852,44.66431,-93.62604,0.546474996739,Closed at Mill St E - Bridge closed. Roadwork. Traffic problem.,608.0,Broadway St S,R,Jordan,Scott,MN,55352-1816,US,US/Central,KFCM,2020-06-04 19:53:00,81.0,81.0,28.0,28.78,10.0,ENE,8.0,0.0,Fair,False,False,False,False,False,False,False,False,False,False,False,False,False,Day,Day,Day,Day
C-2608287,2,2020-11-04 11:59:00,2020-11-08 09:32:30,40.719359,-73.99117700000002,40.717638,-73.98586999999998,0.302284693737,Slow traffic from Bowery (Delancey St) to Pitt St (Delancey St) due to roadwork.,55.0,Delancey St,R,New York,New York,NY,10002-2916,US,US/Eastern,KJRB,2020-11-04 11:51:00,60.0,60.0,39.0,30.35,10.0,CALM,0.0,0.0,Fair,True,False,True,False,False,False,True,False,False,False,False,True,False,Day,Day,Day,Day
C-2608288,2,2019-03-11 09:03:06,2019-03-15 09:02:35,29.7823,-95.98755,29.770856,-96.037647,3.10667197879,Between Peach Ridge Rd/Exit 729/Exit 730 and I 10 Frontage Rd - Construction work.,,I-10 W,R,Brookshire,Waller,TX,77423,US,US/Central,KTME,2019-03-11 08:55:00,71.6,,100.0,30.13,0.8,SE,9.2,,Overcast,False,False,False,False,True,False,False,False,False,False,False,False,False,Day,Day,Day,Day
C-2608289,2,2021-08-04 18:31:00,2021-08-04 20:45:10,33.506165,-112.237707,33.509367,-112.237697,0.221237879498,Stationary traffic from W Indian School Rd (N 83rd Ave) to W Bethany Home Rd (N 83rd Ave) due to roadwork.,4797.0,N 83rd Ave,R,Phoenix,Maricopa,AZ,85033,US,US/Mountain,KGEU,2021-08-04 18:58:00,111.0,111.0,10.0,28.53,10.0,SSE,7.0,0.0,Fair,False,False,False,False,False,False,False,False,True,True,False,False,False,Day,Day,Day,Day
C-2608290,2,2020-10-22 20:36:30,2020-10-22 22:24:11,42.141037,-87.79046899999999,42.145825,-87.79991899999996,0.586363138599,Slow traffic on I-94 from Dundee Rd/IL-68/Exit 30 (I-94) to IL-43/Waukegan Rd (I-94) due to roadwork.,,I-94 W,R,Northbrook,Cook,IL,60062,US,US/Central,KPWK,2020-10-22 20:52:00,73.0,73.0,71.0,29.16,10.0,S,15.0,0.0,Fair,False,False,False,False,False,False,False,False,False,False,False,False,False,Night,Night,Night,Night
C-2608291,2,2021-11-19 12:12:30,2021-11-19 13:32:00,33.76671,-112.128107,33.769203000000005,-112.12469,0.261130140171,Slow traffic from exit [221] to N 26th Gln due to roadwork.,,Black Canyon Fwy N,R,Phoenix,Maricopa,AZ,85085,US,US/Mountain,KDVT,2021-11-19 11:53:00,75.0,75.0,14.0,28.46,10.0,S,6.0,0.0,Fair,False,False,False,False,False,False,False,False,False,False,False,False,False,Day,Day,Day,Day
C-2608292,2,2021-12-03 15:12:00,2021-12-03 17:28:45,40.232538,-79.583486,40.241531,-79.57674499999997,0.715891526093,Slow traffic on US-119 N from Burton Ave (US-119) to Fairview St (US-119) due to roadwork.,478.0,S 3rd St,L,Youngwood,Westmoreland,PA,15697-1155,US,US/Eastern,KLBE,2021-12-03 14:47:00,39.0,35.0,81.0,28.81,20.0,SW,6.0,0.0,Mostly Cloudy,False,False,False,False,False,False,False,False,False,False,False,False,False,Day,Day,Day,Day
C-2608293,2,2021-12-29 18:00:30,2021-12-29 20:03:02,36.088559,-108.872077,36.086559,-108.877966,0.356672890473,Roadwork on Indian Service Route 30 from Naschitti to NM-134.,,State Route 134,R,Shiprock,San Juan,NM,87420,US,US/Mountain,KFMN,2021-12-29 17:53:00,35.0,35.0,76.0,24.37,10.0,CALM,0.0,0.0,Cloudy,False,False,False,False,False,False,False,False,False,False,False,False,False,Night,Night,Day,Day
C-2608294,2,2020-11-24 03:58:00,2020-11-24 05:43:00,35.380901,-80.849536,35.372311,-80.844976,0.646723550614,Construction on I-77 SB near MM 20 Allow extra time.,,I-77 S,R,Huntersville,Mecklenburg,NC,28078,US,US/Eastern,KJQF,2020-11-24 03:55:00,41.0,41.0,70.0,29.58,10.0,ENE,3.0,0.0,Fair,False,False,False,False,True,False,False,False,False,False,False,False,False,Night,Night,Night,Night
C-2608295,2,2021-12-04 14:02:05,2021-12-04 16:37:12,25.749912,-80.33583,25.746905,-80.335719,0.207878719886,Slow traffic on County Hwy-913 - FL-973 from US-41/Tamiami Trl/SW 8th St (Galloway Rd/SW 87th Ave/FL-973) to FL-976/SW 40th St/Bird Rd (Galloway Rd/SW 87th Ave/FL-973) due to roadwork.,,SW 21st Ter,R,Miami,Miami-Dade,FL,33165,US,US/Eastern,KMIA,2021-12-04 13:53:00,78.0,78.0,56.0,30.1,10.0,ESE,9.0,0.0,Mostly Cloudy,False,False,True,False,False,False,False,False,False,False,False,False,False,Day,Day,Day,Day
C-2608296,2,2021-08-28 07:22:30,2021-08-28 07:36:30,41.966209,-87.752679,41.971483,-87.76321800000002,0.6526143622680001,Slow traffic on I-90 W - Kennedy Expy W from I-94 (I-90) to Central Ave/Exit 83B (I-90) due to roadwork.,,I-90 W,R,Chicago,Cook,IL,60630,US,US/Central,KORD,2021-08-28 07:51:00,76.0,76.0,85.0,29.37,10.0,SW,6.0,0.0,Mostly Cloudy,False,False,False,False,True,False,True,False,True,False,False,False,False,Day,Day,Day,Day
C-2608297,2,2021-11-01 18:07:00,2021-11-01 20:18:34,39.739999,-104.812973,39.739993,-104.809151,0.203061848337,Slow traffic on US-40 E - I-70 Bus E - US-287 S from I-225 (Colfax Ave) to Airport Blvd (Colfax Ave) due to roadwork.,15040.0,E Colfax Ave,R,Aurora,Arapahoe,CO,80011,US,US/Mountain,KBKF,2021-11-01 17:58:00,36.0,32.0,79.0,24.58,10.0,N,5.0,0.0,Cloudy,False,False,False,False,False,False,False,False,False,False,False,False,False,Night,Day,Day,Day
C-2608298,2,2021-09-08 17:55:36,2021-09-08 18:16:41,29.935319,-95.38127,29.939066,-95.383072,0.280475822023,Stationary traffic from Aldine Mail Rd (W Hardy Rd/E Hardy Rd) to Beltway 8/Belt Dr/N Sam Houston Pkwy E (W Hardy Rd) due to roadwork.,15160.0,W Hardy Rd,R,Houston,Harris,TX,77060,US,US/Central,KIAH,2021-09-08 17:53:00,91.0,91.0,38.0,29.75,10.0,E,9.0,0.0,Partly Cloudy,False,False,False,False,False,False,False,False,False,False,False,True,False,Day,Day,Day,Day
C-2608299,2,2021-09-30 18:08:42,2021-09-30 18:29:34,40.757336,-73.98599399999998,40.75413,-73.988331,0.253039645313,Slow traffic from Broadway (7th Ave) to W 34th St (7th Ave) due to roadwork.,198.0,W 44th St,L,New York,New York,NY,10036-4011,US,US/Eastern,KNYC,2021-09-30 17:51:00,63.0,,46.0,30.02,10.0,,,0.0,Mostly Cloudy,True,False,True,False,False,False,True,False,False,False,False,True,False,Day,Day,Day,Day
C-2608300,2,2020-10-01 15:17:00,2020-10-01 22:16:47,33.323269,-111.911219,33.319977,-111.910116,0.236201833782,Stationary traffic from W Ironwood Dr to N Los Feliz Dr due to maintenance work.,1202.0,N McClintock Dr,R,Chandler,Maricopa,AZ,85226,US,US/Mountain,KCHD,2020-10-01 14:47:00,100.0,100.0,7.0,28.58,10.0,WSW,7.0,,Fair,False,False,False,False,False,False,False,False,False,False,False,False,False,Day,Day,Day,Day
C-2608301,2,2021-05-06 09:00:00,2021-05-06 14:30:00,38.80088,-77.52673100000001,38.802161,-77.510604,0.8728730050419999,On I-66 in the County of Prince William from mile marker 47.8 to mile marker 47.6 motorists can expect potential delays in this area from 05/06/21 at 9:00 AM until 05/06/21 at 2:30 PM due to construction activities. The west right lane is closed.,,I-66 E,R,Manassas,Prince William,VA,20109,US,US/Eastern,KHEF,2021-05-06 08:56:00,54.0,54.0,51.0,29.88,10.0,NNW,15.0,0.0,Fair,False,False,False,False,False,False,False,False,False,False,False,False,False,Day,Day,Day,Day
C-2608302,2,2021-10-09 10:41:30,2021-10-09 19:01:17,41.130927,-85.122814,41.13445,-85.120661,0.267964571327,Slow traffic from Parnell Ave (N Clinton St) to Auburn Rd (N Clinton St) due to roadwork.,5522.0,N Clinton St,R,Fort Wayne,Allen,IN,46825-5728,US,US/Eastern,KGWB,2021-10-09 10:35:00,61.0,61.0,100.0,29.08,2.0,CALM,0.0,0.0,Fog,False,False,False,False,False,False,False,False,False,False,False,False,False,Day,Day,Day,Day
C-2608303,2,2019-08-08 09:01:53,2019-08-13 09:01:35,37.573059,-77.516874,37.57296,-77.519823,0.1616375057479999,Between Granite Ave and York Rd - Construction work. Lane blocked.,5699.0,Grove Ave,L,Richmond,Richmond City,VA,23226-2101,US,US/Eastern,KOFP,2019-08-09 08:54:00,78.0,78.0,64.0,29.64,10.0,CALM,0.0,0.0,Fair,False,False,True,False,False,False,False,False,False,False,False,False,False,Day,Day,Day,Day
C-2608304,2,2021-07-30 00:12:30,2021-07-30 00:50:30,45.215006,-93.59072,45.219369,-93.593183,0.324415187934,Stationary traffic on County Hwy-36 from MN-241 exit [205] to Ogren Ave NE due to roadwork.,,I-94 W,R,Rogers,Hennepin,MN,55374,US,US/Central,KMIC,2021-07-30 00:53:00,65.0,65.0,78.0,29.19,3.0,CALM,0.0,0.0,Haze,False,False,False,False,True,False,False,False,False,False,False,False,False,Night,Night,Night,Night
C-2608305,2,2021-11-08 13:51:30,2021-11-08 16:16:03,28.593083,-81.363702,28.592428,-81.365061,0.0940507655425,Stationary traffic on FL-424A - US-92 E - FL-426 - US-17 N - US-92 W - US-17 S from Ward Ave to Gene St due to roadwork.,1070.0,W Fairbanks Ave,L,Winter Park,Orange,FL,32789-4754,US,US/Eastern,KORL,2021-11-08 13:53:00,74.0,74.0,37.0,30.02,10.0,NE,12.0,0.0,Fair,False,False,False,False,False,False,False,False,False,False,False,False,False,Day,Day,Day,Day
C-2608306,2,2021-11-01 12:00:00,2021-11-01 14:04:23,28.997287,-81.30242700000002,28.998885,-81.304039,0.147242905998,Slow traffic on FL-15A - US-92 E - US-17 N from Golf Club Dr to S Clara Ave due to roadwork.,1799.0,S Woodland Blvd,L,Deland,Volusia,FL,32724,US,US/Eastern,KDED,2021-11-01 11:50:00,71.0,71.0,60.0,30.08,10.0,CALM,0.0,0.0,Fair,False,False,False,False,False,False,False,False,False,False,False,False,False,Day,Day,Day,Day
C-2608307,2,2020-06-08 16:17:09,2020-10-11 10:00:00,44.92392,-93.45549,44.93034,-93.42923,1.35902949718,Between I-494 and CR-61/Shady Oak Rd - Construction work. Right lane closed. Roadway reduced to 1 lane. Traffic problem.,,Highway 7,R,Minnetonka,Hennepin,MN,55345,US,US/Central,KFCM,2020-06-09 03:53:00,71.0,71.0,53.0,28.71,10.0,SE,8.0,0.0,Fair,False,False,True,False,True,False,False,False,False,False,False,True,False,Day,Day,Day,Day
C-2608308,2,2021-08-06 19:07:16,2021-08-06 19:47:19,40.805865,-73.938859,40.808415,-73.94492,0.362652030705,Slow traffic from Park Ave to Lenox Ave due to roadwork.,93.0,E 126th St,L,New York,New York,NY,10035-1618,US,US/Eastern,KNYC,2021-08-06 18:51:00,82.0,82.0,52.0,30.0,10.0,VAR,5.0,0.0,Fair,True,False,False,False,False,False,True,False,True,False,False,True,False,Day,Day,Day,Day
C-2608309,3,2020-05-05 07:50:10,2020-06-30 03:44:55,39.00985,-94.69381,38.99042,-94.70057,1.3906913103999998,Between 67th St/Exit 228 and 75th St/Exit 227 - Construction work.,,US-169 S,R,Shawnee,Johnson,KS,66203,US,US/Central,KNKA,2020-05-05 07:54:00,54.0,54.0,80.0,29.23,10.0,W,8.0,0.0,Fair,False,False,False,False,False,False,False,False,False,False,False,False,False,Day,Day,Day,Day
C-2608310,2,2020-09-28 13:49:30,2020-09-28 16:01:06,29.638218,-98.376922,29.641389,-98.381958,0.373448395033,Stationary traffic from W Green Mountain Rd to Southern Oaks due to roadwork.,5705.0,E Evans Rd,L,San Antonio,Bexar,TX,78266,US,US/Central,KRND,2020-09-28 13:56:00,77.0,77.0,27.0,29.25,10.0,N,20.0,0.0,Fair,False,False,False,False,False,False,False,False,False,False,False,False,False,Day,Day,Day,Day
C-2608311,2,2021-07-20 16:17:14,2021-07-20 16:37:14,46.886253,-102.736809,46.8821,-102.750478,0.706404841758,Slow traffic on I-94 Bus W - I-94 Bus E - ND-10 from I-94 (East) (I-94 Bus Loop) to ND-22/3rd Ave W (I-94 Bus Loop/Villard St W) due to roadwork.,,I94 Business Loop E,R,Dickinson,Stark,ND,58601,US,US/Mountain,KDIK,2021-07-20 15:56:00,91.0,91.0,27.0,27.24,10.0,SE,22.0,0.0,Fair / Windy,False,False,False,False,False,False,False,False,False,False,False,False,False,Day,Day,Day,Day
C-2608312,2,2021-10-15 16:21:30,2021-10-15 18:24:26,38.912712,-94.774632,38.912722,-94.77225,0.128062587991,Stationary traffic from Renner Rd (W 119th St) to I-35/US-56/US-169/US-50 (W 119th St) due to roadwork.,15985.0,W 119th St,L,Olathe,Johnson,KS,66061,US,US/Central,KIXD,2021-10-15 15:53:00,62.0,62.0,37.0,28.93,10.0,NNW,12.0,0.0,Fair,False,False,True,False,False,False,False,False,False,False,False,True,False,Day,Day,Day,Day
C-2608313,2,2021-03-02 20:51:00,2021-12-29 16:51:48,33.498866,-112.272465,33.493872,-112.272443,0.345054865597,Stationary traffic from W Camelback Rd (N 99th Ave) to W Indian School Rd (N 99th Ave) due to roadwork.,4446.0,N 99th Ave,L,Phoenix,Maricopa,AZ,85037-5901,US,US/Mountain,KGEU,2021-04-22 06:58:00,63.0,63.0,39.0,28.62,10.0,SSW,7.0,0.0,Fair,False,False,True,False,False,False,False,False,False,False,False,True,False,Night,Night,Night,Night
C-2608314,2,2016-05-30 08:01:47,2016-05-30 14:01:47,41.50108,-81.61683000000002,41.50108,-81.61683000000002,0.0,At 100th St - Construction work.,2088.0,E 102nd St,R,Cleveland,Cuyahoga,OH,44106,US,US/Eastern,KBKL,2016-05-30 07:53:00,70.0,,73.0,29.99,10.0,SW,5.8,,Clear,False,False,False,False,False,False,False,False,False,False,False,False,False,Day,Day,Day,Day
C-2608315,2,2020-06-21 02:00:00,2021-12-07 04:36:35,33.102942,-81.99098599999998,33.104491,-81.986901,0.259528796666,Roadwork on US-25 Byp/Mills Rd (GA-80) from GA-56 (GA-80) to GA-56 - GA-80.,99.0,GA Highway 56 N,L,Waynesboro,Burke,GA,30830-4551,US,US/Eastern,KAGS,2021-11-30 11:53:00,61.0,61.0,17.0,30.03,10.0,VAR,7.0,0.0,Fair,False,False,False,False,False,False,False,False,False,False,False,False,False,Night,Night,Night,Night
C-2608316,2,2021-08-21 07:35:00,2021-08-21 09:44:07,26.258365,-80.186272,26.260823,-80.18628100000002,0.169832540837,Slow traffic from Coconut Creek Pkwy (46th Ave/Lyons Rd) to FL-834/W Sample Rd/NW 36th St (Lyons Rd) due to roadwork.,2306.0,Lyons Rd,L,Pompano Beach,Broward,FL,33066,US,US/Eastern,KFXE,2021-08-21 07:53:00,83.0,83.0,77.0,29.96,10.0,CALM,0.0,0.0,Fair,False,False,False,False,False,False,False,False,False,False,False,False,False,Day,Day,Day,Day
C-2608317,2,2019-06-18 21:03:41,2019-06-22 21:02:56,25.89989,-80.1605,25.905357,-80.15876999999998,0.3927391069740001,At 139th St - Construction work. Lane blocked.,13499.0,Biscayne Blvd,L,North Miami,Miami-Dade,FL,33181-2018,US,US/Eastern,KOPF,2019-06-18 20:53:00,75.0,75.0,94.0,30.05,10.0,S,5.0,0.0,Fair,False,False,True,False,False,False,False,False,False,False,False,True,False,Night,Night,Day,Day
C-2608318,2,2020-08-25 13:54:30,2020-08-25 23:56:07,26.527539,-80.09253100000002,26.528231,-80.090396,0.140377158199,Queuing traffic on FL-804 - FL-807 from 31st Ter S to Old Boynton Rd due to resurfacing work.,1524.0,W Boynton Beach Blvd,L,Boynton Beach,Palm Beach,FL,33436-4606,US,US/Eastern,KBCT,2020-08-25 13:53:00,90.0,90.0,65.0,29.97,10.0,ESE,13.0,0.0,Partly Cloudy,False,False,False,False,False,False,False,False,False,False,False,False,False,Day,Day,Day,Day
C-2608319,2,2021-03-28 06:00:00,2021-12-26 03:20:00,41.749647,-87.718252,41.750804,-87.72188299999998,0.2035258372199999,Slow traffic from S Hamlin Ave to W 78th St due to roadwork.,3798.0,W 79th St,R,Chicago,Cook,IL,60652-1854,US,US/Central,KMDW,2021-06-18 10:53:00,83.0,83.0,65.0,29.09,10.0,WSW,15.0,0.0,Fair,False,False,False,False,False,False,False,False,False,False,False,False,False,Night,Night,Day,Day
C-2608320,2,2021-07-19 10:25:30,2021-12-10 11:33:55,40.062361,-75.334909,40.06124000000001,-75.337027,0.13617405482,Roadwork on BUTLER PK / MATSONFORD RD / FAYETTE ST both directions between MONTGOMERY AV SOUTH GULPH RD and REBEL HILL RD. There is a traffic disruption.,179.0,Matsonford Rd,R,Conshohocken,Montgomery,PA,19428-2547,US,US/Eastern,KLOM,2021-09-17 13:15:00,75.0,75.0,82.0,29.89,10.0,ENE,6.0,0.0,Cloudy,False,False,False,False,False,False,False,False,False,False,False,False,False,Day,Day,Day,Day
C-2608321,2,2019-12-17 22:04:11,2019-12-22 22:02:21,26.47399,-80.06730999999998,26.53964,-80.0574,4.57718157235,Between George Bush Blvd and Murano Bay Dr - Construction work.,570.0,George Bush Blvd,R,Delray Beach,Palm Beach,FL,33483,US,US/Eastern,KBCT,2019-12-17 21:53:00,78.0,78.0,79.0,29.91,6.0,SSW,5.0,0.0,Haze,False,False,False,False,False,False,False,False,False,False,False,True,False,Night,Night,Night,Night
C-2608322,2,2016-11-25 09:01:23,2016-11-25 15:01:23,39.42069,-76.67036,39.4238,-76.70513199999998,1.8683110517400003,Between MD-25/Falls Rd and Nacirema Ln - Construction work.,,Falls Rd,R,Lutherville Timonium,Baltimore County,MD,21093,US,US/Eastern,KDMH,2016-11-25 08:54:00,48.0,,71.0,30.27,,North,,,,False,False,False,False,False,False,False,False,False,False,False,True,False,Day,Day,Day,Day
C-2608323,2,2021-09-01 15:20:00,2021-09-01 15:43:31,27.70239500000001,-97.362919,27.708258,-97.362641,0.4054515111869999,Slow traffic from Williams Dr (Airline Rd) to McArdle Rd (Airline Rd) due to roadwork.,1572.0,Airline Rd,L,Corpus Christi,Nueces,TX,78412-4421,US,US/Central,KNGP,2021-09-01 14:56:00,95.0,95.0,58.0,29.78,10.0,SSE,16.0,0.0,Partly Cloudy,False,False,False,False,False,False,False,False,False,False,False,False,False,Day,Day,Day,Day
C-2608324,4,2021-11-24 13:30:00,2021-11-24 17:30:00,38.43834,-107.391292,38.435713,-107.39921499999998,0.4656293320800001,US-50 W - US-50 E is closed from CO-92 (US-50) to Hillcrest Dr (E Main St/US-50) due to roadwork.,11664.0,US Highway 50,R,Gunnison,Gunnison,CO,81230-9248,US,US/Mountain,KGUC,2021-11-24 13:56:00,39.0,32.0,36.0,22.63,10.0,W,12.0,0.0,Fair,False,False,False,False,False,False,False,False,False,False,False,False,False,Day,Day,Day,Day
C-2608325,2,2021-12-06 07:45:00,2021-12-06 08:11:30,33.494857,-112.08196,33.49481,-112.075992,0.343888279164,Stationary traffic from N 7th Ave (W Indian School Rd) to N Central Ave (Indian School Rd) due to roadwork.,617.0,W Indian School Rd,L,Phoenix,Maricopa,AZ,85013-3113,US,US/Mountain,KPHX,2021-12-06 07:51:00,52.0,52.0,50.0,28.86,10.0,ESE,7.0,0.0,Fair,False,False,False,False,False,False,False,False,False,False,False,False,False,Day,Day,Day,Day
C-2608326,2,2021-12-08 15:10:00,2021-12-08 17:11:16,41.647436,-91.541591,41.648923,-91.540149,0.126880373734,Slow traffic on US-6 W - IA-1 - US-6 E from Sunset St (IA-1) to US-6/S Grand Ave/S Riverside Dr (IA-1) due to roadwork.,77.0,Highway 1 W,L,Iowa City,Johnson,IA,52246,US,US/Central,KIOW,2021-12-08 14:52:00,33.0,28.0,43.0,29.31,10.0,S,6.0,0.0,Fair,False,False,False,False,False,False,False,False,False,False,False,False,False,Day,Day,Day,Day
C-2608327,2,2020-12-15 13:56:00,2021-12-08 18:50:36,40.01810800000001,-75.169788,40.020579,-75.15701700000002,0.696993734761,Roadwork on US 1 northbound between Exit: WISSAHICKON AVE NORTH and NINTH ST. There is a traffic disruption.,,Roosevelt Expy N,R,Philadelphia,Philadelphia,PA,19144,US,US/Eastern,KPNE,2020-12-15 14:54:00,38.0,31.0,43.0,30.2,10.0,NNW,10.0,0.0,Fair,False,False,False,False,True,False,False,False,False,False,False,False,False,Day,Day,Day,Day
C-2608328,2,2020-09-14 14:15:00,2020-09-15 00:12:55,26.319026,-80.09080300000002,26.31651,-80.091065,0.174594675069,Queuing traffic on US-1 from E Camino Real (US-1) to 10th St (US-1) due to roadwork.,83.0,N Federal Hwy,L,Deerfield Beach,Broward,FL,33441-3607,US,US/Eastern,KPMP,2020-09-14 13:53:00,88.0,88.0,70.0,29.97,10.0,SE,12.0,0.0,Partly Cloudy,False,False,False,False,False,False,False,False,False,False,False,False,False,Day,Day,Day,Day
C-2608329,2,2021-01-28 22:30:30,2021-01-30 03:29:49,44.523833,-111.32775,44.665151,-111.121174,14.0939661035,Roadwork on ID-47 (US-20) from US-287/US-191/Canyon St (US-20) to US-20 W - US-20 E.,4445.0,N Highway 20,L,Island Park,Fremont,ID,83429,US,US/Mountain,KWEY,2021-01-28 22:56:00,24.0,24.0,91.0,22.35,,CALM,0.0,0.04,,False,False,False,False,False,False,False,False,False,False,False,False,False,Night,Night,Night,Night
C-2608330,4,2018-09-17 11:21:56,2018-09-17 13:21:43,39.337062,-82.0815,39.3375,-82.08145,0.0303806426765999,At State St/Exit 15 - Roadwork.,,US-33 E,R,Athens,Athens,OH,45701,US,US/Eastern,KUNI,2018-09-17 11:15:00,69.3,,100.0,29.86,4.0,NE,8.1,,Rain,False,False,False,False,False,False,False,False,False,False,False,False,False,Day,Day,Day,Day
C-2608331,2,2019-02-08 23:02:56,2019-02-12 23:02:55,25.908131,-80.349199,25.940876,-80.350679,2.2643324816900003,Between 138th St/Graham Dairy Rd/Exit 2 and Miami Gardens Dr/Exit 4 - Maintenance work.,,I-75 N,R,Hialeah,Miami-Dade,FL,33018,US,US/Eastern,KOPF,2019-02-08 22:53:00,70.0,,76.0,30.24,10.0,North,3.5,,Scattered Clouds,False,False,False,False,False,False,False,False,False,False,False,False,False,Night,Night,Night,Night
C-2608332,2,2020-12-22 21:27:33,2020-12-23 00:43:31,34.022565,-81.45509799999998,34.020711,-81.445427,0.568445423716,Stationary traffic on US-378 E - US-378 W from SC-391 (US-378) to Charter Oak Rd/Saint Peters Church Rd (US-378) due to roadwork.,3601.0,Highway 378,L,Leesville,Lexington,SC,29070-9570,US,US/Eastern,KAIK,2020-12-22 21:35:00,37.0,37.0,84.0,29.71,10.0,CALM,0.0,0.0,Fair,False,False,False,False,False,False,False,False,False,False,False,False,False,Night,Night,Night,Night
C-2608333,2,2021-02-19 08:22:30,2021-02-19 12:15:24,32.92801,-89.287719,32.920232,-89.274897,0.917493003478,Roadwork on MS-25 (MS-19) from MS-395 (MS-19) to MS-19.,17376.0,Highway 19 N,R,Philadelphia,Neshoba,MS,39350-1815,US,US/Central,KNMM,2021-02-19 07:56:00,26.0,15.0,81.0,30.01,10.0,N,13.0,0.0,Mostly Cloudy,False,False,False,False,False,False,False,False,False,False,False,False,False,Day,Day,Day,Day
C-2608334,2,2021-11-28 16:02:00,2021-11-28 18:08:15,32.942012,-97.313218,32.933378000000005,-97.315346,0.609181341106,Slow traffic from Keller Hicks Rd to I-35W N due to roadwork.,11099.0,North Fwy,L,Fort Worth,Tarrant,TX,76177,US,US/Central,KAFW,2021-11-28 15:53:00,65.0,65.0,32.0,29.41,10.0,N,10.0,0.0,Fair,False,False,False,False,False,False,False,False,False,False,False,False,False,Day,Day,Day,Day
C-2608335,2,2021-12-20 16:07:56,2021-12-20 16:33:21,40.665801,-73.931412,40.662749,-73.931557,0.2110100075279999,Slow traffic from Eastern Pkwy (Utica Ave) to NY-27/Linden Blvd (Utica Ave) due to roadwork.,356.0,Utica Ave,R,Brooklyn,Kings,NY,11213-5803,US,US/Eastern,KJRB,2021-12-20 15:51:00,36.0,31.0,37.0,30.16,10.0,VAR,6.0,0.0,Fair,False,False,False,False,False,False,False,False,True,False,False,True,False,Day,Day,Day,Day
C-2608336,2,2016-10-11 11:17:52,2016-10-11 15:00:00,33.60737,-114.65773,33.60663,-114.65771,0.0511420818849,At I-10 - Roadwork. Single alternate lane traffic.,,S Neighbours Blvd,R,Blythe,Riverside,CA,92225,US,US/Pacific,KBLH,2016-10-11 10:52:00,86.0,,29.0,29.94,10.0,SW,3.5,,Clear,False,False,False,False,False,False,False,False,False,False,False,False,False,Day,Day,Day,Day
C-2608337,2,2021-07-05 00:00:00,2021-10-29 00:44:59,39.283751,-119.934514,39.268561,-119.936084,1.05288296652,Roadwork (Minor Delays) - on SR-431 in both directions from SR-28 to Mount Rose Summit in Washoe County Nevada. Single lane closure and speed reduced to 35 miles per hour. Commercial trucks with air brakes traveling westbound are prohibited. Width Limit 14 feet. 30 minutes delay possible. Estimated End date is 10/28/21,,County Road 337,R,Incline Village,Washoe,NV,89451,US,US/Pacific,KTRK,2021-07-05 00:15:00,52.0,52.0,71.0,24.33,10.0,CALM,0.0,0.0,Fair,False,False,False,False,False,False,False,False,False,True,False,False,False,Night,Night,Night,Night
C-2608338,4,2021-08-24 00:00:00,2021-08-31 23:59:59,37.548147,-77.442752,37.547437,-77.44264,0.0494385121688,Closed road from W Leigh St to W Broad St / N Adams St due to roadwork.,417.0,Brook Rd,R,Richmond,Richmond City,VA,23220-3905,US,US/Eastern,KRIC,2021-08-24 00:54:00,76.0,76.0,91.0,29.77,9.0,SSW,6.0,0.0,Fair,True,False,False,False,False,False,False,False,False,False,False,True,False,Night,Night,Night,Night
C-2608339,2,2020-10-15 04:14:36,2020-10-15 04:59:00,37.806705,-122.474876,,,5.71999979019,Three lanes closed due to construction during the night on US-101 Southbound between Monte Mar Dr and Exit 439 Merchant Rd.,,CA-1 N,R,San Francisco,San Francisco,CA,94129,US,US/Pacific,KSFO,2020-10-15 03:56:00,64.0,64.0,65.0,29.99,10.0,CALM,0.0,0.0,Fair,False,False,False,False,False,False,False,False,False,False,False,False,False,Night,Night,Night,Night
C-2608340,2,2021-03-05 04:55:30,2021-12-28 17:44:00,46.249748,-112.17645,46.242108,-112.1297,2.29535738217,Stationary traffic on I-15 N from Galena Gulch Rd/Exit 160 (I-15) to MT-69/Exit 164 (I-15) due to roadwork.,,I-15 N,R,Boulder,Jefferson,MT,59632,US,US/Mountain,KHLN,2021-12-28 16:53:00,6.0,6.0,67.0,25.61,10.0,CALM,0.0,0.0,Cloudy,False,False,False,False,False,False,False,False,False,False,False,False,False,Night,Night,Night,Night
C-2608341,2,2021-08-26 07:00:00,2021-08-26 19:45:00,40.285481,-85.55795,40.344841,-85.55866999999998,4.1015607906,Construction on I-69 NB near W 950 Drive with caution.,,I-69 N,R,Gaston,Delaware,IN,47342,US,US/Eastern,KMIE,2021-08-26 06:53:00,71.0,71.0,87.0,29.15,10.0,CALM,0.0,0.0,Fair,False,False,False,False,False,False,False,False,False,False,False,False,False,Night,Day,Day,Day
C-2608342,1,2021-11-05 22:00:00,2021-11-06 14:00:00,28.542021,-81.384979,,,0.409999996424,Road closed due to construction work on Division Ave both ways from Church St to Central Blvd. Detour in operation - Northbound Division Avenue: Turn left onto Church Street right onto Terry Avenue and right onto Central Boulevard. Southbound Division Avenue: Turn right onto Central Boulevard left onto Terry Avenue and left onto Church Street.,496.0,W Central Blvd,L,Orlando,Orange,FL,32801-2539,US,US/Eastern,KORL,2021-11-05 21:53:00,67.0,67.0,93.0,29.77,10.0,NNE,13.0,0.02,Light Rain,False,False,True,False,False,False,False,False,False,False,False,True,False,Night,Night,Night,Night
C-2608343,2,2018-12-28 10:45:16,2018-12-28 15:00:00,41.82366,-88.02826999999998,41.93718,-88.03744,7.85765779988,Between I-88/IL-56/Butterfield Rd and Army Trail Rd - Construction work.,,Veterans Memorial Tollway N,R,Downers Grove,DuPage,IL,60515,US,US/Central,KMDW,2018-12-28 10:53:00,33.1,21.5,82.0,29.82,9.0,West,19.6,0.0,Light Drizzle,False,False,False,False,False,False,False,False,False,False,False,False,False,Day,Day,Day,Day
C-2608344,4,2020-01-23 05:45:18,2020-01-23 10:45:09,39.7968,-77.2024,39.80217,-77.19859,0.4225744462080001,Closed at PA-97/Baltimore Pike - Closed due to roadwork.,,US-15 N,R,Gettysburg,Adams,PA,17325,US,US/Eastern,KRYT,,,,,,,,,,,False,False,False,False,False,False,False,False,False,False,False,False,False,Night,Night,Night,Night
C-2608346,2,2021-09-15 16:40:34,2021-09-15 18:50:04,44.955549,-93.26193,44.955527,-93.266259,0.211668985644,Slow traffic from Elliot Ave S to I-35W N due to roadwork.,828.0,E 26th St,L,Minneapolis,Hennepin,MN,55404-4514,US,US/Central,KMSP,2021-09-15 16:53:00,77.0,77.0,28.0,29.03,10.0,S,12.0,0.0,Partly Cloudy,False,False,False,False,False,False,False,False,True,False,False,False,False,Day,Day,Day,Day
C-2608347,2,2021-09-29 17:20:27,2021-09-29 18:13:22,33.085118,-96.84187,33.086499,-96.838741,0.204733299872,Stationary traffic on TX-121 from W Spring Creek Pkwy / Griffin Rd to Sam Rayburn Tollway N due to roadwork.,6570.0,State Highway 121,L,Plano,Collin,TX,75024,US,US/Central,KADS,2021-09-29 17:47:00,90.0,90.0,38.0,29.11,10.0,SE,12.0,0.0,Fair,False,False,False,False,False,False,False,False,False,False,False,False,False,Day,Day,Day,Day
C-2608348,2,2021-10-19 06:49:30,2021-10-19 09:13:50,40.682948,-73.688511,40.68190900000001,-73.66449,1.26064778526,Slow traffic on Southern State Pkwy E from Corona Ave exit [15] to Hempstead Ave SOUTH exit [17S] due to roadwork.,,N Corona Ave,R,Valley Stream,Nassau,NY,11580,US,US/Eastern,KJFK,2021-10-19 06:51:00,49.0,44.0,69.0,30.0,10.0,W,13.0,0.0,Fair,False,False,False,False,False,False,False,False,False,False,False,False,False,Night,Day,Day,Day
C-2608349,3,2018-11-03 07:01:27,2018-11-07 06:01:25,42.013187,-87.919663,42.02246,-87.955889,1.96683565888,Between the UP RR and IL-83/Oakton - Roadwork.,,I-90 W,R,Des Plaines,Cook,IL,60018,US,US/Central,KORD,2018-11-03 06:51:00,35.1,32.2,85.0,30.05,10.0,NNW,3.5,,Partly Cloudy,False,False,False,False,False,False,False,False,False,False,False,False,False,Night,Day,Day,Day
C-2608350,2,2019-03-25 15:00:17,2019-03-27 15:00:00,34.080845000000004,-117.65124,34.075191,-117.65122,0.3906558708479999,At Holt Blvd - Construction work.,1261.0,N Euclid Ave,L,Ontario,San Bernardino,CA,91762-1923,US,US/Pacific,KONT,2019-03-25 14:53:00,82.0,,22.0,30.02,10.0,SW,11.5,,Clear,False,False,False,False,False,False,False,False,False,False,False,False,False,Day,Day,Day,Day
C-2608351,2,2021-10-05 14:05:30,2021-10-05 16:31:00,39.763699,-86.331427,39.763379,-86.336881,0.290512531554,Stationary traffic on US-36 E - US-36 W from Washington to Conrail Railroad due to roadwork.,10823.0,E US Highway 36,R,Avon,Hendricks,IN,46123-7982,US,US/Eastern,KIND,2021-10-05 13:54:00,73.0,73.0,71.0,29.29,10.0,E,7.0,0.0,Cloudy,False,False,False,False,False,False,False,False,False,False,False,True,False,Day,Day,Day,Day
C-2608352,2,2019-12-30 05:52:39,2019-12-30 06:22:20,36.992031,-76.651848,,,0.0,Intermittent lane closures due to construction work on Holly Dr both ways at Mill Swamp Rd.,15598.0,Holly Dr,R,Smithfield,Isle of Wight,VA,23430-3133,US,US/Eastern,KFAF,2019-12-30 05:56:00,65.0,65.0,80.0,29.69,10.0,S,10.0,0.0,Cloudy,False,False,False,False,False,False,False,False,False,False,False,False,False,Night,Night,Night,Day
C-2608353,2,2021-10-06 17:03:44,2021-10-06 19:10:46,25.925428,-80.174002,25.926297,-80.170043,0.25323287464,Stationary traffic on FL-826 from NE 13th Ave to NE 164th St due to roadwork.,1298.0,NE 163rd St,R,North Miami Beach,Miami-Dade,FL,33162-4637,US,US/Eastern,KHWO,2021-10-06 16:53:00,84.0,84.0,69.0,30.0,10.0,ESE,9.0,0.0,Light Rain,False,False,True,False,False,False,False,False,False,False,False,False,False,Day,Day,Day,Day
C-2608354,2,2017-02-24 06:30:47,2017-02-24 12:30:47,42.02276,-87.935951,42.022679,-87.943404,0.382589120393,Between Ridge Ln and Lexington Dr - Roadwork.,763.0,W Oakton St,L,Des Plaines,Cook,IL,60018-1845,US,US/Central,KORD,2017-02-24 06:51:00,39.9,32.9,93.0,29.49,7.0,NNE,11.5,0.01,Overcast,False,False,False,False,False,False,False,False,False,False,False,False,False,Night,Day,Day,Day
C-2608355,2,2020-09-09 12:52:30,2020-09-10 00:30:56,42.010347,-87.806651,42.011666,-87.80323,0.19786317286,Queuing traffic on IL-43 from W Greenleaf Ave to N Milwaukee Ave due to resurfacing work.,7104.0,N Harlem Ave,L,Chicago,Cook,IL,60631-1018,US,US/Central,KORD,2020-09-09 12:51:00,63.0,63.0,81.0,29.5,10.0,NE,14.0,0.0,Cloudy,False,False,False,False,False,False,False,False,False,False,False,False,False,Day,Day,Day,Day
C-2608356,2,2021-08-30 12:18:00,2021-08-30 15:10:03,25.684674,-80.434888,25.68402,-80.43001,0.307079705298,Slow traffic on FL-94 from Hammocks Blvd to SW 90th Ter due to roadwork.,14998.0,SW 88th St,R,Miami,Miami-Dade,FL,33196,US,US/Eastern,KTMB,2021-08-30 11:53:00,91.0,91.0,59.0,30.01,10.0,E,6.0,0.0,Fair,False,False,False,False,False,False,False,False,False,False,False,False,False,Day,Day,Day,Day
C-2608357,2,2019-08-13 01:00:00,2019-08-13 04:00:00,34.404957,-118.575009,34.3749,-118.56331000000002,2.18123683566,Between Valencia Blvd and Lyons Ave/Pico Cyn Rd - Roadwork. Three lanes blocked.,,Golden State Fwy S,R,Valencia,Los Angeles,CA,91355,US,US/Pacific,K3A6,2019-08-13 00:51:00,68.0,68.0,78.0,29.1,10.0,E,5.0,0.0,Fair,False,False,False,False,False,False,False,False,False,False,False,False,False,Night,Night,Night,Night
C-2608358,3,2017-05-23 18:46:38,2017-05-24 00:46:41,41.86483,-87.83337,41.84259,-87.83263000000002,1.5371095044,Between I-290/Eisenhower Expy E/Harrison St and W 26th St - Roadwork.,,S 1st Ave,R,Maywood,Cook,IL,60153,US,US/Central,KORD,2017-05-23 18:51:00,57.9,,90.0,29.7,6.0,West,4.6,0.0,Light Rain,False,False,False,False,False,False,False,False,True,False,False,True,False,Day,Day,Day,Day
C-2608359,2,2021-02-20 07:46:30,2021-02-20 13:37:24,27.080698,-82.424968,27.078985,-82.423754,0.13995027924,Slow traffic on FL-45 - US-41 S from James St to Ogden Rd due to roadwork.,1398.0,US Highway 41 Byp S,L,Venice,Sarasota,FL,34285-5544,US,US/Eastern,KVNC,2021-02-20 07:53:00,50.0,50.0,83.0,30.22,10.0,NNE,8.0,0.0,Fair,False,False,False,False,False,False,False,False,False,False,False,False,False,Day,Day,Day,Day
C-2608360,4,2021-02-06 15:01:00,2021-02-06 22:46:00,35.368305,-119.041081,35.368975,-119.041991,0.0690777055876,Construction on CA-99 NB near CALIFORNIA AVE Take alternate route.,3411.0,California Ave,L,Bakersfield,Kern,CA,93304,US,US/Pacific,KBFL,2021-02-06 14:54:00,64.0,64.0,41.0,29.52,5.0,WSW,7.0,0.0,Fair,False,False,False,False,False,False,False,False,False,False,False,False,False,Day,Day,Day,Day
C-2608361,2,2021-09-08 02:54:00,2021-12-06 13:16:37,25.944054,-80.147889,25.947573,-80.148077,0.243420140364,Stationary traffic on US-1 N - FL-860 - FL-5 from NE 180th St to W Dixie Hwy due to roadwork.,18199.0,Biscayne Blvd,L,Aventura,Miami-Dade,FL,33160-2535,US,US/Eastern,KHWO,2021-12-06 11:13:00,80.0,80.0,81.0,30.12,10.0,VAR,3.0,0.0,Mostly Cloudy,False,False,True,False,False,False,False,False,False,False,False,True,False,Night,Night,Night,Night
C-2608363,2,2020-12-13 16:13:00,2020-12-13 18:34:30,44.431221,-121.878135,44.436534,-121.938764,3.01368005601,Slow traffic on US-20 W - US-20 E - OR-126 from NFD-2076 (US-20) to OR-22/Santiam Hwy (US-20) due to roadwork.,,Santiam Hwy,R,Blue River,Linn,OR,97413,US,US/Pacific,KEUG,2020-12-13 16:07:00,47.0,47.0,90.0,29.63,8.0,NNE,3.0,0.01,Light Rain,False,False,False,False,False,False,False,False,False,False,False,False,False,Day,Day,Day,Day
C-2608364,2,2021-05-24 05:00:00,2021-11-19 14:08:00,33.451353999999995,-112.062074,33.451425,-112.065139,0.176760299285,Stationary traffic from N 16th St (E Van Buren St) to N 7th St (E Van Buren St) due to roadwork.,323.0,N 9th St,R,Phoenix,Maricopa,AZ,85034,US,US/Mountain,KPHX,2021-08-31 16:51:00,89.0,89.0,45.0,28.49,10.0,WSW,18.0,0.0,Cloudy,False,False,True,False,False,False,False,False,False,False,False,True,False,Night,Day,Day,Day
C-2608365,2,2021-09-22 17:11:30,2021-09-22 17:32:00,40.613747,-75.38424599999998,40.608327,-75.385847,0.383786296435,Slow traffic on PA-378 N - PA-378 - PA-378 S - Hill To Hill Brg S from W Lehigh St to Seminole St due to roadwork.,,Hill To Hill Brg S,R,Bethlehem,Northampton,PA,18015,US,US/Eastern,KABE,2021-09-22 16:51:00,79.0,79.0,64.0,29.52,10.0,SSE,14.0,0.0,Mostly Cloudy,False,False,False,False,False,False,False,False,False,False,False,True,False,Day,Day,Day,Day
C-2608366,2,2021-11-23 08:56:00,2021-11-23 10:58:51,28.593083,-81.363816,28.592428,-81.365061,0.088050959592,Slow traffic on FL-424A - US-92 E - FL-426 - US-17 N - US-92 W - US-17 S from Ward Ave to Gene St due to roadwork.,1077.0,W Fairbanks Ave,R,Winter Park,Orange,FL,32789-4753,US,US/Eastern,KORL,2021-11-23 08:53:00,56.0,56.0,62.0,29.98,10.0,NNW,12.0,0.0,Fair,False,False,True,False,False,False,False,False,False,False,False,False,False,Day,Day,Day,Day
C-2608367,2,2021-03-02 04:38:00,2021-03-02 17:23:30,38.963321,-85.827033,38.959124,-85.83470200000002,0.503835223434,Stationary traffic on US-50 W - US-50 E from S CR-700 W (US-50) to US-31 (US-50) due to roadwork.,11445.0,E US Highway 50,R,Seymour,Jackson,IN,47274-7553,US,US/Eastern,KBAK,2021-03-02 06:30:00,23.0,23.0,74.0,29.62,10.0,CALM,0.0,,Fair,False,False,False,False,False,False,False,False,False,False,False,True,False,Night,Night,Night,Night
C-2608368,2,2021-06-25 04:03:35,2021-06-25 06:31:39,41.142582,-73.425484,,,15.1899995804,Right lane closed due to construction work on CT-15 Merritt Pkwy Southbound between Exit 44 Congress St and Exits 40A 40B Main Ave.,,CT-15 N,R,Norwalk,Fairfield,CT,06851,US,US/Eastern,KBDR,2021-06-25 03:52:00,61.0,61.0,90.0,30.27,10.0,N,8.0,0.0,Cloudy,False,False,False,False,True,False,False,False,False,False,False,False,False,Night,Night,Night,Day
C-2608369,2,2021-12-21 14:14:00,2021-12-21 16:17:12,33.466798,-112.01292,33.465268,-112.01292,0.10571293191,Slow traffic from E Thomas Rd (N 32nd St) to AZ-202/Red Mountain Fwy (N 32nd St) due to roadwork.,1666.0,N 32nd St,L,Phoenix,Maricopa,AZ,85008-3803,US,US/Mountain,KPHX,2021-12-21 13:51:00,66.0,66.0,25.0,28.87,10.0,ESE,3.0,0.0,Cloudy,True,False,False,False,False,False,False,False,True,False,False,False,False,Day,Day,Day,Day
C-2608370,4,2018-10-05 08:52:51,2018-10-05 13:52:08,41.639447,-83.554364,41.64694,-83.5445,0.726242901167,Closed between OH-2/Western Ave and I-75 - Closed due to roadwork.,,Anthony Wayne Trl,R,Toledo,Lucas,OH,43604,US,US/Eastern,KTDZ,2018-10-05 08:53:00,54.0,,77.0,30.15,10.0,ESE,10.4,,Scattered Clouds,False,False,False,False,False,False,False,False,False,False,False,False,False,Day,Day,Day,Day
C-2608371,2,2021-11-04 14:42:09,2021-11-04 16:44:26,40.757899,-73.991389,40.757801,-73.99306899999998,0.0881857854513,Slow traffic from 8th Ave to W 41st St due to roadwork.,332.0,W 42nd St,L,New York,New York,NY,10036-6974,US,US/Eastern,KNYC,2021-11-04 14:51:00,50.0,50.0,35.0,30.19,10.0,VAR,5.0,0.0,Fair,True,False,True,False,False,False,False,False,False,False,False,True,False,Day,Day,Day,Day
C-2608372,2,2017-02-18 21:00:50,2017-02-19 03:00:50,33.05041,-97.00967,33.082426,-97.025994,2.40557306567,Between FM-1171/Exit 452 and Eagle Point Rd/Exit 454 - Roadwork.,,US-77 N,R,Lewisville,Denton,TX,75067,US,US/Central,KDFW,2017-02-18 20:53:00,66.9,,68.0,29.76,10.0,East,6.9,,Scattered Clouds,False,False,False,False,False,False,False,False,False,False,False,False,False,Night,Night,Night,Night
C-2608373,3,2020-05-10 21:03:17,2020-05-14 21:02:34,33.63364,-84.40383,33.63292,-84.40753000000002,0.218586639222,Ramp to I-285 Westbound and Lake Mirror Rd - Construction work.,,GA-407 W,R,Atlanta,Clayton,GA,30349,US,US/Eastern,KATL,2020-05-10 20:52:00,66.0,66.0,32.0,29.02,10.0,NW,9.0,0.0,Fair,False,False,False,False,False,False,False,False,False,False,False,False,False,Night,Night,Day,Day
C-2608374,2,2017-07-13 09:21:39,2017-07-13 15:24:17,40.99928900000001,-78.36052600000002,40.986933,-78.302561,3.14116651201,Between PA-2030 and Main St - Roadwork. Lane blocked.,3484.0,Clearfield Woodland Hwy,L,Woodland,Clearfield,PA,16881,US,US/Eastern,KFIG,2017-07-13 09:31:00,73.0,,90.0,30.09,10.0,SW,5.8,0.0,Light Rain,False,False,False,False,False,False,False,False,False,False,False,False,False,Day,Day,Day,Day
C-2608375,2,2021-04-25 13:43:02,2021-04-25 14:08:30,31.126562,-92.075319,31.132845,-92.082532,0.60864339037,Stationary traffic on LA-1 from LA-107/LA-115/S Main St (LA-1) to LA-1192 (LA-1) due to roadwork.,301.0,Philo St,R,Marksville,Avoyelles,LA,71351-2879,US,US/Central,KESF,2021-04-25 13:53:00,76.0,76.0,40.0,29.92,10.0,NNE,6.0,0.0,Fair,False,False,False,False,False,False,False,False,False,False,False,False,False,Day,Day,Day,Day
C-2608376,2,2019-04-01 05:36:00,2020-07-07 21:22:40,47.215279,-121.119514,47.192349,-121.048044,3.71018611478,I-90 both directions milepost 34 to 136 North Bend to Vantage: Construction and maintenance projects will cause delays across I-90 between North Bend and Vantage due to rolling slowdowns and lane closures. Please plan for added travel time in order to make it to your destination on time.,,I-90 E,R,Cle Elum,Kittitas,WA,98922,US,US/Pacific,KSMP,2019-04-01 05:53:00,37.0,37.0,82.0,28.13,10.0,CALM,0.0,0.0,Mostly Cloudy,False,False,False,False,False,False,False,False,False,False,False,False,False,Night,Night,Day,Day
C-2608377,2,2020-12-08 17:01:00,2020-12-08 22:46:00,37.325927,-121.883334,37.327367,-121.879249,0.245504648184,Construction on I-280 SB near 1ST ST Expect delays.,,I-280 S,R,San Jose,Santa Clara,CA,95110,US,US/Pacific,KSJC,2020-12-08 16:53:00,66.0,66.0,24.0,30.02,10.0,N,3.0,0.0,Partly Cloudy,False,False,False,False,False,False,False,False,False,False,False,False,False,Night,Day,Day,Day
C-2608378,2,2021-09-12 18:13:30,2021-09-12 20:21:17,42.689931,-83.374031,42.689978,-83.372151,0.0955328457584,Stationary traffic from US-24/Dixie Hwy (W Walton Blvd) to Clintonville Rd (W Walton Blvd) due to roadwork.,4340.0,W Walton Blvd,R,Waterford,Oakland,MI,48329-4070,US,US/Eastern,KPTK,2021-09-12 17:53:00,77.0,77.0,69.0,28.93,10.0,N,5.0,0.0,Cloudy,False,False,True,False,False,False,False,False,False,False,False,False,False,Day,Day,Day,Day
C-2608379,2,2021-11-18 15:51:31,2021-11-18 16:11:31,36.401106,-84.44358299999998,36.405731,-84.45186,0.560340288484,Slow traffic on TN-63 - TN-297 from TN-456/Winona Rd (TN-63) to US-27/Scott Hwy (TN-63) due to roadwork.,5901.0,Baker Hwy,L,Huntsville,Scott,TN,37756-3168,US,US/Eastern,KOQT,2021-11-18 15:53:00,48.0,48.0,83.0,29.31,10.0,CALM,0.0,0.0,Cloudy,False,False,False,False,False,False,False,False,False,False,False,False,False,Day,Day,Day,Day
C-2608380,3,2020-05-11 00:00:00,2021-07-01 08:00:00,41.59558,-86.70861,41.51651,-86.6975,5.493331994199999,Between Kingsbury Ave and US-6 - Construction work.,2040.0,Indiana Ave,L,La Porte,LaPorte,IN,46350-6008,US,US/Central,KPPO,2020-05-11 00:15:00,37.0,31.0,86.0,29.25,10.0,NW,8.0,0.0,Cloudy,False,False,False,False,False,False,False,False,False,False,False,False,False,Night,Night,Night,Night
C-2608381,4,2020-05-20 16:00:00,2020-11-01 00:45:00,29.772582,-95.349678,29.772588,-95.348029,0.0988968498481,Construction on OPELOUSAS ST WB near MAURY ST Expect delays.,,Opelousas St,R,Houston,Harris,TX,77020,US,US/Central,KMCJ,2020-05-20 15:53:00,92.0,92.0,54.0,29.74,10.0,SSW,13.0,0.0,Fair,False,False,False,False,False,False,False,False,False,False,False,False,False,Day,Day,Day,Day
C-2608382,2,2018-11-14 09:04:16,2018-11-18 09:03:35,26.36781,-80.2036,26.36178,-80.08246,7.51093597343,Between State Road 7 and US-1/SR-5/N Federal Hwy - Construction work.,,Glades Rd,R,Boca Raton,Palm Beach,FL,33428,US,US/Eastern,KBCT,2018-11-14 08:47:00,82.4,,79.0,30.09,10.0,Calm,,,Partly Cloudy,False,False,True,False,False,False,False,False,False,False,False,True,False,Day,Day,Day,Day
C-2608383,2,2021-01-20 14:47:30,2021-01-21 02:55:30,29.659519,-82.37164,29.660242,-82.372404,0.0678204398148,Stationary traffic on FL-338 - FL-121 from NW 31st Dr to NW 10th Ave due to roadwork.,3348.0,NW 8th Ave,R,Gainesville,Alachua,FL,32605-5061,US,US/Eastern,KGNV,2021-01-20 14:53:00,70.0,70.0,24.0,30.02,10.0,W,8.0,0.0,Fair,False,False,True,False,False,False,False,False,True,True,False,False,False,Day,Day,Day,Day
C-2608384,4,2020-11-05 04:01:00,2020-11-05 13:44:00,34.421524,-119.611194,34.421598,-119.616503,0.302630814993,Construction on US-101 NB near SHEFFIELD DR Use alternate exit ramp.,,US-101 N,R,Santa Barbara,Santa Barbara,CA,93108,US,US/Pacific,KSBA,2020-11-05 03:53:00,49.0,49.0,83.0,30.01,10.0,CALM,0.0,0.0,Fair,False,False,False,False,True,False,False,False,False,False,False,False,False,Night,Night,Night,Night
C-2608385,2,2021-10-30 06:35:30,2021-10-30 07:17:30,45.388845,-118.319478,45.39896,-118.333846,0.987126469845,Slow traffic on I-84 W - Old Oregon Trail Hwy No 6 - US-30 W - Old Oregon Trl from Spring Cr. Rd./Exit 248 (I-84) to Summit Rd/Exit 243 (I-84) due to roadwork.,,I-84 W,R,La Grande,Union,OR,97850,US,US/Pacific,KLGD,2021-10-30 06:56:00,29.0,23.0,96.0,27.31,10.0,N,6.0,0.0,Fair,False,False,False,False,False,False,False,False,False,False,False,False,False,Night,Night,Day,Day
C-2608386,2,2021-02-16 05:38:46,2021-02-16 18:41:00,41.963619,-87.747956,41.971483,-87.76321800000002,0.953919275234,Slow traffic on I-90 W - Kennedy Expy W from I-94 (I-90) to Central Ave/Exit 83B (I-90) due to roadwork.,,I-90 W,R,Chicago,Cook,IL,60630,US,US/Central,KORD,2021-02-16 05:51:00,9.0,-7.0,77.0,29.26,7.0,NNW,14.0,0.0,Light Snow,False,False,False,False,False,False,True,False,True,False,False,False,False,Night,Night,Night,Day
C-2608387,4,2019-07-24 00:10:44,2019-07-24 05:10:03,25.90488,-80.34971,25.90015,-80.32536,1.54829060369,Closed between Miami Gardens Dr/Exit 4 and SR-826/Palmetto Expy/Exit 1 - Closed due to roadwork.,,I-75 S,R,Hialeah,Miami-Dade,FL,33018,US,US/Eastern,KOPF,2019-07-24 00:53:00,79.0,79.0,88.0,29.99,10.0,CALM,0.0,0.0,Fair,False,False,False,False,False,False,False,False,False,False,False,False,False,Night,Night,Night,Night
C-2608388,2,2019-09-18 05:00:00,2019-10-23 17:00:00,41.235555,-80.99759,41.234917,-81.00252900000002,0.26038362834,At Portage County line and SR 534 - Roadwork.,5541.0,State Route 303,R,Newton Falls,Trumbull,OH,44444-8508,US,US/Eastern,KPOV,2019-09-18 04:56:00,53.0,53.0,89.0,28.92,10.0,E,6.0,0.0,Fair,False,False,False,False,False,False,False,False,False,False,False,False,False,Night,Night,Night,Night
