ID,Severity,Start_Time,End_Time,Start_Lat,Start_Lng,End_Lat,End_Lng,Distance(mi),Description,Number,Street,Side,City,County,State,Zipcode,Country,Timezone,Airport_Code,Weather_Timestamp,Temperature(F),Wind_Chill(F),Humidity(%),Pressure(in),Visibility(mi),Wind_Direction,Wind_Speed(mph),Precipitation(in),Weather_Condition,Amenity,Bump,Crossing,Give_Way,Junction,No_Exit,Railway,Roundabout,Station,Stop,Traffic_Calming,Traffic_Signal,Turning_Loop,Sunrise_Sunset,Civil_Twilight,Nautical_Twilight,Astronomical_Twilight
C-2734568,2,2018-12-12 09:02:32,2018-12-16 09:01:55,42.4856,-83.45849,42.51666,-83.65872,10.4230524592,Between 12 Mile Rd/M-5/Exit 164 and Kensington Lake Rd/Exit 153 - Roadwork.,,I-96 W,R,Novi,Oakland,MI,48377,US,US/Eastern,KPTK,2018-12-12 08:53:00,27.0,17.3,89.0,30.03,5.0,SE,10.4,,Overcast,False,False,False,False,False,False,False,False,False,False,False,False,False,Day,Day,Day,Day
C-2734569,2,2021-11-03 14:40:00,2021-11-03 15:00:00,47.206502,-122.476263,47.206481,-122.463892,0.580686396134,Slow traffic from S Tacoma Way (S 56th St) to I-5/Tacoma Mall Blvd (S 56th St) due to roadwork.,3109.0,S 56th St,R,Tacoma,Pierce,WA,98409-6235,US,US/Pacific,KTCM,2021-11-03 14:58:00,56.0,56.0,90.0,29.62,10.0,W,3.0,0.0,Cloudy,False,False,False,False,False,False,False,False,False,False,False,True,False,Day,Day,Day,Day
C-2734570,2,2020-11-21 14:57:00,2020-11-21 21:50:00,40.00302,-75.578303,40.005217,-75.58186500000002,0.242038531875,Stationary traffic from PA-352/N Chester Rd (Boot Rd) to US-202 (E Boot Rd) due to roadwork.,1308.0,E Boot Rd,R,West Chester,Chester,PA,19380-4009,US,US/Eastern,KOQN,2020-11-21 14:55:00,57.0,57.0,63.0,29.63,9.0,NW,6.0,0.0,Mostly Cloudy,False,False,False,True,False,False,False,False,False,False,False,True,False,Day,Day,Day,Day
C-2734571,2,2019-08-14 09:00:00,2019-08-15 16:00:00,39.521891,-104.86745,39.521335,-104.867419,0.0384514550171,At Ridgegate Pkwy/Exit 192 - Construction work.,,I-25 N,R,Parker,Douglas,CO,80134,US,US/Mountain,KAPA,2019-08-14 08:53:00,71.0,71.0,55.0,24.38,10.0,S,17.0,0.0,Fair,False,False,False,False,False,False,False,False,False,False,False,False,False,Day,Day,Day,Day
C-2734572,4,2021-06-17 21:15:00,2021-06-18 22:04:38,39.951406,-75.182629,39.955796,-75.18062900000002,0.3212850394179999,Roadwork on I-76 westbound between Exit 345: 30TH STREET/MARKET STREET and Exit 344: I-676-US30 EAST - CENTRAL PHILA. All lanes closed.,,I-76 W,R,Philadelphia,Philadelphia,PA,19104,US,US/Eastern,KPHL,2021-06-17 20:54:00,74.0,74.0,29.0,30.0,10.0,NW,7.0,0.0,Fair,False,False,True,False,True,False,False,False,False,False,False,True,False,Night,Night,Day,Day
C-2734573,2,2020-05-24 11:37:20,2020-05-25 11:37:20,36.00614,-80.44476999999998,36.02291,-80.40511,2.50108657141,Between Farmington Rd/Exit 174 and Harper Rd/Exit 182 - Long-term roadwork.,,I-40 E,R,Advance,Davie,NC,27006,US,US/Eastern,KINT,2020-05-24 11:54:00,82.0,82.0,58.0,29.09,10.0,SE,6.0,0.0,Fair,False,False,False,False,False,False,False,False,False,False,False,False,False,Day,Day,Day,Day
C-2734574,2,2021-09-12 14:11:30,2021-09-12 14:31:30,26.033548,-80.14860999999998,26.033506,-80.151401,0.173298007139,Slow traffic on FL-822 from US-1/FL-5/S Federal Hwy (Sheridan St/16th St) to I-95 (Sheridan St) due to roadwork.,352.0,Sheridan St,R,Dania,Broward,FL,33004,US,US/Eastern,KFLL,2021-09-12 13:53:00,88.0,88.0,77.0,30.12,10.0,E,13.0,0.0,Mostly Cloudy,False,False,False,False,False,False,False,False,False,False,False,False,False,Day,Day,Day,Day
C-2734575,2,2021-10-28 10:34:00,2021-12-13 02:59:54,27.965673,-82.781175,27.965651,-82.78635799999998,0.316297770027,Roadwork from Gulf to Bay Blvd/Evergreen Ave (Cleveland St) to Martin Luther King Jr Ave (Cleveland St).,1350.0,Cleveland St,L,Clearwater,Pinellas,FL,33755-5103,US,US/Eastern,KPIE,2021-10-28 10:53:00,83.0,83.0,82.0,29.78,10.0,S,21.0,0.0,Mostly Cloudy / Windy,False,False,False,False,False,False,False,False,False,False,False,False,False,Day,Day,Day,Day
C-2734576,2,2021-05-20 06:33:30,2021-05-20 19:19:48,38.262689,-104.66168,38.25726,-104.661524,0.375203641338,Slow traffic on CO-45 from W 11th St (N Pueblo Blvd/CO-45) to Red Creek Springs Rd (S Pueblo Blvd/CO-45) due to roadwork.,400.0,S Pueblo Blvd,R,Pueblo,Pueblo,CO,81005,US,US/Mountain,KPUB,2021-05-20 06:34:00,51.0,51.0,92.0,25.1,3.0,N,3.0,0.0,Fair,False,False,False,False,False,False,False,False,False,False,False,False,False,Day,Day,Day,Day
C-2734577,2,2021-07-27 07:30:00,2021-09-02 14:26:03,40.236837,-79.580046,40.239822,-79.576883,0.265269554821,Slow traffic on US-119 N from Locust St to Depot Rd due to roadwork.,201.0,S 3rd St,R,Youngwood,Westmoreland,PA,15697-1626,US,US/Eastern,KLBE,2021-09-02 12:50:00,68.0,68.0,52.0,28.84,10.0,NW,8.0,0.0,Fair,False,False,False,False,False,False,False,False,False,False,False,False,False,Day,Day,Day,Day
C-2734578,2,2020-06-19 22:47:47,2020-06-20 06:00:00,33.62368,-117.26999,33.67463,-117.31881,4.503022081319999,Between Baxter Rd and Main St (Lake Elsinore) - Roadwork. Right lane closed.,,I-15 N,R,Wildomar,Riverside,CA,92595,US,US/Pacific,KF70,2020-06-19 22:55:00,61.0,61.0,88.0,28.56,10.0,S,3.0,0.0,Partly Cloudy,False,False,False,False,True,False,False,False,False,False,False,False,False,Night,Night,Night,Night
C-2734579,2,2021-11-20 16:14:30,2021-11-20 16:28:00,41.986726,-87.861362,41.984706,-87.85641899999996,0.2896989712159999,Slow traffic on Jane Addams Memorial Tollway E - I-90 E from I-294 (Jane Addams Memorial Tollway Outer Lane/I-90) to I-90/Jane Addams Memorial Tollway (East) (Jane Addams Memorial Tollway Outer Lane/I-90) due to roadwork.,,I-90 E,R,Des Plaines,Cook,IL,60018,US,US/Central,KORD,2021-11-20 15:51:00,49.0,47.0,48.0,29.37,10.0,SW,5.0,0.0,Mostly Cloudy,False,False,False,False,True,False,False,False,False,False,False,False,False,Day,Day,Day,Day
C-2734580,2,2021-06-15 07:02:00,2021-06-16 13:49:14,40.813771,-76.034749,40.816265,-76.02864,0.3629621393639999,Construction on PA-54 EB near HOLLY RD Allow extra time.,610.0,Pine Creek Dr,L,Barnesville,Schuylkill,PA,18214-2936,US,US/Eastern,KRDG,2021-06-15 06:54:00,63.0,63.0,93.0,29.41,5.0,CALM,0.0,0.0,Partly Cloudy,False,False,False,False,False,False,False,False,False,False,False,False,False,Day,Day,Day,Day
C-2734581,2,2021-10-07 09:25:30,2021-10-07 09:45:30,28.257,-81.49174000000002,28.255342,-81.484276,0.4684827860459999,Slow traffic on US-92 E - US-17 N - US-92 W - US-17 S from CR-532/Osceola Polk Line Rd (US-92/US-17) to CR-535/Broad St/Ham Brown Rd (US-92/US-17) due to roadwork.,5215.0,S Orange Blossom Trl,L,Kissimmee,Osceola,FL,34758,US,US/Eastern,KISM,2021-10-07 08:56:00,79.0,79.0,90.0,30.02,10.0,E,3.0,0.0,Fair,False,False,False,False,False,False,False,False,False,False,False,False,False,Day,Day,Day,Day
C-2734582,4,2020-06-01 23:37:13,2020-06-02 04:35:35,44.94836,-93.27967,44.94836,-93.27663,0.148657335646,Closed at 1st Ave - Closed due to roadwork. Demonstration.,3001.0,Blaisdell Ave S,L,Minneapolis,Hennepin,MN,55408,US,US/Central,KMSP,2020-06-01 23:53:00,82.0,82.0,54.0,28.85,10.0,SW,7.0,0.0,Fair,False,False,True,False,False,False,False,False,True,False,False,True,False,Night,Night,Night,Night
C-2734583,2,2021-11-04 11:32:00,2021-11-04 13:49:01,33.492733,-112.203241,33.495315999999995,-112.203226,0.178470395532,Stationary traffic from W Thomas Rd (N 67th Ave) to W Camelback Rd (N 67th Ave) due to roadwork.,3929.0,N 67th Ave,R,Phoenix,Maricopa,AZ,85033-6226,US,US/Mountain,KGEU,2021-11-04 11:58:00,78.0,78.0,20.0,28.87,10.0,CALM,0.0,0.0,Fair,False,False,False,False,False,False,False,False,True,False,False,False,False,Day,Day,Day,Day
C-2734584,2,2021-02-14 03:37:30,2021-02-14 08:23:30,39.56102,-107.30988,39.551758,-107.331047,1.29652446752,Stationary traffic on I-70 W - US-6 W from CR-129/No Name Ln/Exit 119 (I-70) to North River Dr/Exit 116 (I-70) due to roadwork.,,I-70 W,R,Glenwood Springs,Garfield,CO,81601,US,US/Mountain,K5SM,2021-02-14 03:35:00,18.0,,93.0,19.78,4.0,,,,Light Snow,False,False,False,False,True,False,False,False,False,False,False,False,False,Night,Night,Night,Night
C-2734586,4,2021-07-26 13:27:26,2021-08-02 23:59:00,40.606952,-75.471762,40.607479,-75.46985600000002,0.106403442233,Closed road from N 6th St (Chew St) to N 4th St (Chew St) due to roadwork.,299.0,N 6th St,R,Allentown,Lehigh,PA,18102-4128,US,US/Eastern,KXLL,2021-07-26 13:35:00,88.0,88.0,40.0,29.51,10.0,W,8.0,0.0,Partly Cloudy,True,False,False,False,False,False,False,False,False,False,False,True,False,Day,Day,Day,Day
C-2734587,2,2021-06-16 17:01:00,2021-10-12 17:20:00,33.406713,-112.061288,33.406695,-112.073273,0.691272463407,Slow traffic from S 16th St (E Broadway Rd) to S Central Ave (Broadway Rd) due to roadwork.,4301.0,S 8th Pl,L,Phoenix,Maricopa,AZ,85040-2273,US,US/Mountain,KPHX,2021-10-12 16:51:00,68.0,68.0,15.0,28.64,10.0,WNW,15.0,0.0,Fair,True,False,True,False,False,False,False,False,False,True,False,True,False,Day,Day,Day,Day
C-2734588,2,2021-02-23 08:00:00,2021-02-23 18:00:00,33.610396,-83.69855600000002,33.592768,-83.792774,5.55720297316,Lane closed on GA-12 - US-278 E - US-278 W - GA-229 - GA-142 from GA-229/Hightower Trl (GA-12/US-278) to GA-142 (GA-12/US-278) due to roadwork.,,Highway 278 SE,R,Social Circle,Newton,GA,30025,US,US/Eastern,K9A1,2021-02-23 07:56:00,41.0,37.0,55.0,28.95,10.0,W,6.0,0.0,Fair,False,False,False,False,False,False,False,False,False,False,False,False,False,Day,Day,Day,Day
C-2734589,2,2020-12-07 16:00:20,2020-12-07 21:51:03,40.733281,-74.124723,40.75242100000001,-74.118863,1.35756085428,Construction bridge cable repairs on US 1&amp;9 Truck Route northbound New Jersey Turnpike (Newark) 1 Right lane of 3 lanes closed for repairs Until 4:00 PM,,New Jersey Tpke N,R,Newark,Essex,NJ,07105,US,US/Eastern,KEWR,2020-12-07 15:51:00,39.0,33.0,43.0,29.71,10.0,NW,9.0,0.0,Fair,False,False,False,False,False,False,False,False,False,False,False,False,False,Day,Day,Day,Day
C-2734590,4,2018-08-20 23:25:02,2018-08-31 17:33:19,40.472655,-78.28133100000002,40.47514,-78.277326,0.271644017428,Closed at PA-866 - Closed due to roadwork. Lane blocked.,1261.0,Route 22,R,Hollidaysburg,Blair,PA,16648-5165,US,US/Eastern,KAOO,2018-08-20 23:53:00,71.1,,81.0,30.08,10.0,Calm,,,Overcast,False,False,False,False,False,False,False,False,False,True,False,False,False,Night,Night,Night,Night
C-2734591,2,2021-06-29 11:24:00,2021-06-29 12:28:00,39.821275,-104.961188,39.812352,-104.949371,0.879427457988,Slow traffic on US-36 E - I-270 E from I-76/Exit 1 (I-270) to US-85/CO-2/Vasquez Blvd/Exit 2 (I-270) due to roadwork.,,I-270 E,R,Denver,Adams,CO,80229,US,US/Mountain,KBJC,2021-06-29 11:45:00,68.0,68.0,52.0,24.62,10.0,VAR,6.0,0.0,Partly Cloudy,False,False,False,False,False,False,False,False,False,False,False,False,False,Day,Day,Day,Day
C-2734592,2,2021-08-27 13:37:26,2021-08-27 15:40:15,42.521442,-83.164948,42.518291,-83.16572,0.221234484378,Slow traffic from Lexington Blvd to Maplewood Ave due to roadwork.,3617.0,Crooks Rd,L,Royal Oak,Oakland,MI,48073-2424,US,US/Eastern,KVLL,2021-08-27 13:35:00,73.0,73.0,96.0,29.38,10.0,CALM,0.0,0.0,Cloudy,False,False,False,False,False,False,False,False,False,False,False,True,False,Day,Day,Day,Day
C-2734593,2,2021-12-21 19:34:30,2021-12-21 21:37:05,26.273825,-80.18741999999997,26.27503,-80.186258,0.110066454481,Slow traffic on FL-834 from Fishermans Dr to Coral Tree Ter / Coral Tree Cir due to roadwork.,4664.0,W Sample Rd,R,Pompano Beach,Broward,FL,33063,US,US/Eastern,KFXE,2021-12-21 19:53:00,73.0,73.0,84.0,29.77,10.0,WSW,9.0,0.0,Fair,False,False,False,False,False,False,False,False,False,False,False,False,False,Night,Night,Night,Night
C-2734594,4,2017-05-09 11:13:47,2019-09-23 15:54:23,39.98719000000001,-75.543189,39.986455,-75.543228,0.0508256146031999,Closed at E Strasburg Rd - Closed due to roadwork. Traffic problem.,661.0,N Chester Rd,R,West Chester,Chester,PA,19380,US,US/Eastern,KOQN,2017-05-09 11:15:00,54.0,54.0,35.0,29.29,10.0,N,10.0,0.0,Fair,False,False,False,False,False,False,False,False,False,False,False,True,False,Day,Day,Day,Day
C-2734595,2,2018-09-08 06:53:26,2018-09-08 07:00:00,33.9743,-81.19657,33.97785,-81.19505,0.260284548838,At US-1/Exit 58 - Construction work. Right lane blocked.,,I-20 E,R,Lexington,Lexington,SC,29073,US,US/Eastern,KCAE,2018-09-08 06:56:00,72.0,,100.0,29.99,10.0,Calm,,,Partly Cloudy,False,False,False,False,True,False,False,False,False,False,False,False,False,Night,Day,Day,Day
C-2734596,2,2020-12-16 12:51:55,2020-12-18 04:36:51,32.457715,-96.938404,32.464107,-96.947718,0.699919329909,Roadwork on US-287 (Waxahachie) (West) (US-287) from S Midlothian Pkwy (US-287) to US-287 N.,4421.0,E Main St,L,Midlothian,Ellis,TX,76065-6159,US,US/Central,KJWY,2020-12-16 12:55:00,41.0,36.0,71.0,29.37,10.0,NNW,9.0,0.0,Partly Cloudy,False,False,False,False,False,False,False,False,False,False,False,False,False,Day,Day,Day,Day
C-2734597,2,2021-07-20 12:36:00,2021-07-22 06:45:00,45.656157,-95.411894,45.650807,-95.395592,0.869779723878,Construction on MN-29 NB near BENSON RD Allow extra time.,23036.0,State Highway 28,R,Glenwood,Pope,MN,56334-9387,US,US/Central,KGHW,2021-07-20 12:35:00,88.0,88.0,43.0,28.66,10.0,SW,7.0,0.0,Fair,False,False,False,False,False,False,False,False,False,False,False,False,False,Day,Day,Day,Day
C-2734598,2,2021-04-06 07:13:30,2021-04-06 13:26:30,40.610485,-78.707864,40.604251,-78.70898199999998,0.434702332117,Stationary traffic on US-219 N - US-219 S from PA-271/24th St (Bigler Ave/US-219) to Carroll St (Main St/US-219) due to roadwork.,117.0,Sunset Rd,R,Carrolltown,Cambria,PA,15722-7009,US,US/Eastern,KJST,2021-04-06 06:54:00,50.0,50.0,54.0,27.62,10.0,WSW,5.0,0.0,Mostly Cloudy,False,False,False,False,False,False,False,False,False,True,False,False,False,Day,Day,Day,Day
C-2734599,2,2021-12-22 15:37:30,2021-12-22 17:42:27,29.530342,-95.808194,29.53173,-95.806587,0.136126290955,Slow traffic on TX-36 from Highway 36 S / Wehring Way to Fountains Dr due to roadwork.,,1st St,R,Rosenberg,Fort Bend,TX,77471,US,US/Central,KSGR,2021-12-22 15:53:00,73.0,73.0,53.0,29.95,10.0,SSE,14.0,0.0,Mostly Cloudy,False,False,False,False,False,False,False,False,False,False,False,False,False,Day,Day,Day,Day
C-2734600,2,2021-12-12 03:40:53,2021-12-13 07:10:57,47.404296,-96.825032,47.747986,-96.632045,25.3933358827,Construction on US-75 NB near 110TH AVE Allow extra time.,,US-75 S,R,Halstad,Norman,MN,56548,US,US/Central,KFAR,2021-12-12 03:53:00,28.0,17.0,69.0,28.62,10.0,SSW,15.0,0.0,Fair,False,False,False,False,False,False,False,False,False,False,False,False,False,Night,Night,Night,Night
C-2734601,4,2017-08-14 18:55:30,2017-08-15 00:55:32,40.893984,-76.807794,40.89335,-76.80572099999998,0.116797564048,Closed at Front St - Closed. Construction work.,,Susquehanna Trl,R,Northumberland,Northumberland,PA,17857,US,US/Eastern,KSEG,2017-08-14 18:53:00,73.0,,76.0,29.95,10.0,South,4.6,,Overcast,False,False,False,False,False,False,False,False,False,False,False,False,False,Day,Day,Day,Day
C-2734602,2,2021-11-18 07:31:30,2021-11-18 09:39:11,26.047099,-80.195153,26.047472,-80.200847,0.354397550401,Slow traffic on FL-848 from SW 36th Ter to SW 58th St due to roadwork.,5998.0,SW 36th Ter,L,Fort Lauderdale,Broward,FL,33312-6241,US,US/Eastern,KFLL,2021-11-18 07:53:00,79.0,79.0,77.0,30.12,10.0,E,15.0,0.0,Cloudy,False,False,False,False,False,False,False,False,False,False,False,False,False,Day,Day,Day,Day
C-2734603,2,2021-08-18 15:49:00,2021-08-18 17:51:51,33.434486,-112.134605,33.438187,-112.134616,0.255715532297,Slow traffic from W Durango St (S 35th Ave) to W Van Buren St (N 35th Ave) due to roadwork.,1249.0,S 35th Ave,L,Phoenix,Maricopa,AZ,85009-6721,US,US/Mountain,KPHX,2021-08-18 15:39:00,87.0,87.0,53.0,28.6,10.0,NNW,22.0,0.0,Thunder / Windy,False,False,False,False,False,False,False,False,False,True,False,False,False,Day,Day,Day,Day
C-2734604,2,2020-04-06 13:26:00,2020-04-15 03:02:39,41.33359,-75.71751,41.35732,-75.71616999999998,1.64105950757,Between PA-315/Exit 115 and Keyser Avenue Toll Plaza - Construction work. Left lane blocked.,,I-476 N,R,Pittston,Luzerne,PA,18640,US,US/Eastern,KAVP,2020-04-06 13:54:00,59.0,59.0,29.0,29.02,10.0,NNW,13.0,0.0,Fair,False,False,False,False,False,False,False,False,False,False,False,False,False,Day,Day,Day,Day
C-2734605,2,2020-10-05 21:32:30,2020-10-05 21:57:00,40.754052,-73.995827,40.754562,-73.997037,0.0724738603238999,Stationary traffic from 9th Ave to Dyer Ave due to maintenance work.,398.0,W 35th St,L,New York,New York,NY,10001,US,US/Eastern,KNYC,2020-10-05 21:51:00,61.0,61.0,81.0,30.08,10.0,CALM,0.0,0.0,Fair,True,False,True,False,False,False,False,False,True,False,False,True,False,Night,Night,Night,Night
C-2734606,2,2021-10-05 17:47:17,2021-10-05 18:00:17,40.741948,-73.957756,40.741394,-73.952898,0.257177496338,Slow traffic on I-495 E - I-495 W from 1st Ave to 21 St exit [14] due to roadwork.,,Queens Midtown Tunl,R,Long Island City,Queens,NY,11101,US,US/Eastern,KNYC,2021-10-05 17:51:00,63.0,63.0,84.0,30.17,10.0,ENE,3.0,0.0,Cloudy,False,False,False,False,True,False,False,False,False,True,False,False,False,Day,Day,Day,Day
C-2734607,2,2020-05-14 09:41:37,2020-05-16 15:00:00,39.46813,-76.44171999999998,39.46056,-76.45643000000003,0.943000220086,At Mt Vista Rd - Roadwork. Single alternate lane traffic.,12601.0,Fork Rd,R,Fork,Baltimore,MD,21051-9706,US,US/Eastern,KMTN,2020-05-14 09:54:00,,,,30.32,10.0,SE,5.0,0.0,Partly Cloudy,False,False,False,False,False,False,False,False,False,False,False,True,False,Day,Day,Day,Day
C-2734608,2,2020-09-11 21:38:00,2020-09-11 22:35:18,38.616224,-89.646302,38.615794,-89.622252,1.29870018529,Queuing traffic on US-50 from IL-160 (New US-50/US-50) to Russland Rd (US-50) due to roadwork.,,US Highway 50,R,Trenton,Clinton,IL,62293,US,US/Central,KBLV,2020-09-11 21:56:00,71.0,71.0,95.0,29.57,10.0,ESE,6.0,0.0,Fair,False,False,False,False,False,False,False,False,False,False,False,False,False,Night,Night,Night,Night
C-2734609,2,2020-09-17 15:48:30,2020-09-18 02:01:05,33.480855,-112.047647,33.480209,-112.047102,0.0545772347142999,Stationary traffic from E Verde Ln to Piestewa Fwy S due to roadwork.,2921.0,N 16th St,R,Phoenix,Maricopa,AZ,85016,US,US/Mountain,KPHX,2020-09-17 15:51:00,108.0,108.0,8.0,28.65,10.0,SSE,5.0,0.0,Fair,True,False,False,False,False,False,False,False,True,True,False,False,False,Day,Day,Day,Day
C-2734610,3,2020-07-30 04:24:00,2020-07-30 16:00:00,41.50684,-72.114838,,,1.73000001907,Exit ramp from Governor John Davis Lodge Tpke Northbound to CT-82 both ways closed due to construction work.,,CT-2A W,R,Norwich,New London,CT,06360,US,US/Eastern,KGON,2020-07-30 04:22:00,73.0,73.0,96.0,29.84,0.75,CALM,0.0,0.0,Fog,False,False,False,False,False,False,False,False,False,False,False,False,False,Night,Night,Night,Day
C-2734611,3,2020-03-19 21:00:00,2020-03-20 05:00:00,42.346249,-71.24655899999998,,,0.34999999404,Left lane closed due to maintenance work on I-90 Westbound from Commonwealth Ave overpass to near Auburn St overpass.,,Auburn St,R,Auburndale,Middlesex,MA,02466,US,US/Eastern,KBED,2020-03-19 20:51:00,42.0,37.0,89.0,30.09,4.0,NNE,9.0,0.0,Cloudy,False,False,False,False,False,False,False,False,False,False,False,False,False,Night,Night,Night,Night
C-2734612,2,2020-09-22 07:00:00,2020-11-14 15:18:42,38.013087,-97.94366,38.012569,-97.940138,0.1950384883049999,Construction on KS-96 EB near US-50 Drive with caution.,,KS-96,R,Hutchinson,Reno,KS,67501,US,US/Central,KHUT,2020-09-22 06:52:00,54.0,54.0,93.0,28.51,9.0,ESE,3.0,0.0,Fair,False,False,False,False,True,False,False,False,False,True,False,False,False,Night,Day,Day,Day
C-2734613,2,2021-12-09 15:43:36,2021-12-09 17:45:41,27.916686,-82.79735,27.916664,-82.795813,0.0938507370342,Stationary traffic on County Hwy-416 - FL-686 from Howard Dr to Ridge Rd SW due to roadwork.,861.0,W Bay Dr,L,Largo,Pinellas,FL,33770-3221,US,US/Eastern,KPIE,2021-12-09 15:53:00,77.0,77.0,74.0,30.08,10.0,CALM,0.0,0.0,Cloudy,False,False,False,False,False,False,False,False,True,False,False,False,False,Day,Day,Day,Day
C-2734614,2,2021-12-27 15:30:00,2021-12-27 18:10:50,39.763704,-86.341169,39.763001,-86.336865,0.233695920381,Slow traffic on US-36 E - US-36 W from Shiloh Park Dr to Conrail Railroad due to roadwork.,10237.0,E US Highway 36,R,Avon,Hendricks,IN,46123-7985,US,US/Eastern,KIND,2021-12-27 15:54:00,60.0,60.0,78.0,28.84,10.0,W,21.0,0.0,Cloudy / Windy,False,False,False,False,False,False,False,False,False,False,False,False,False,Day,Day,Day,Day
C-2734615,2,2020-11-14 07:01:00,2020-11-14 16:44:00,34.018139,-118.280242,34.010412,-118.28106,0.535936351311,Construction on I-110 SB near I-10 Expect delays.,,Harbor Fwy S,R,Los Angeles,Los Angeles,CA,90007,US,US/Pacific,KCQT,2020-11-14 06:52:00,52.0,52.0,77.0,29.91,6.0,E,3.0,0.0,Haze,False,False,False,False,True,False,False,False,False,False,False,False,False,Day,Day,Day,Day
C-2734616,2,2021-01-22 13:09:30,2021-01-23 02:59:13,33.494048,-112.22056299999998,33.495403,-112.220566,0.0936217430687,Stationary traffic from W Thomas Rd (N 75th Ave) to W Camelback Rd (N 75th Ave) due to roadwork.,4050.0,N 75th Ave,L,Phoenix,Maricopa,AZ,85033-3727,US,US/Mountain,KGEU,,,,,,,,,,,False,False,False,False,False,False,False,False,True,False,False,False,False,Day,Day,Day,Day
C-2734617,2,2021-07-12 02:38:58,2021-07-13 12:15:32,32.899478,-96.134836,32.901724,-96.135117,0.156037659266,Roadwork from State Highway 34 S to Business Highway 34 S / County Road 2304.,9777.0,State Highway Super 264,R,Quinlan,Hunt,TX,75474,US,US/Central,KGVT,2021-07-12 02:35:00,70.0,70.0,93.0,29.41,10.0,CALM,0.0,0.0,Fair,False,False,False,False,False,False,False,False,False,False,False,False,False,Night,Night,Night,Night
C-2734618,2,2020-09-21 13:38:00,2020-09-21 23:14:00,40.147186,-75.308648,40.152112,-75.305127,0.387839341087,Queuing traffic on US-202 from Germantown Pike (DeKalb Blvd/US-202) to DeKalb Pike/Swede Rd (DeKalb St/US-202) due to roadwork.,3206.0,Dekalb Pike,R,Norristown,Montgomery,PA,19401-1528,US,US/Eastern,KLOM,2020-09-21 13:35:00,64.0,64.0,32.0,30.2,10.0,N,9.0,0.0,Fair,False,False,False,False,False,False,False,False,False,False,False,True,False,Day,Day,Day,Day
C-2734619,2,2021-12-02 14:22:30,2021-12-02 16:24:41,40.369224,-80.04939499999998,40.374245,-80.04938100000003,0.346918842302,Slow traffic on US-19 N - US-19 S from Beadling Rd (Washington Rd/US-19) to PA-121 (Cochran Rd/Beverly Rd/US-19) due to roadwork.,1117.0,Washington Rd,L,Pittsburgh,Allegheny,PA,15228-1816,US,US/Eastern,KAGC,2021-12-02 13:53:00,57.0,57.0,57.0,28.32,10.0,SW,22.0,0.0,Cloudy / Windy,False,False,False,False,False,False,False,False,False,False,False,False,False,Day,Day,Day,Day
C-2734620,2,2019-06-17 09:06:33,2019-06-21 09:08:37,39.999445,-75.572942,40.000334,-75.574276,0.093585518141,At US-202 - Roadwork. Open.,1363.0,E Boot Rd,L,West Chester,Chester,PA,19380-5934,US,US/Eastern,KOQN,2019-06-17 09:15:00,73.0,73.0,83.0,29.29,10.0,NNW,5.0,0.0,Fair,False,False,False,True,False,False,False,False,False,False,False,True,False,Day,Day,Day,Day
C-2734621,2,2021-11-18 12:16:00,2021-11-18 14:17:26,33.509227,-112.045587,33.509223,-112.04808,0.143621702215,Slow traffic from AZ-51 (E Camelback Rd) to 7th St (E Camelback Rd) due to roadwork.,1665.0,E Camelback Rd,L,Phoenix,Maricopa,AZ,85016-3901,US,US/Mountain,KPHX,2021-11-18 11:51:00,77.0,77.0,17.0,28.92,10.0,E,7.0,0.0,Partly Cloudy,True,False,False,False,False,False,False,False,False,False,False,False,False,Day,Day,Day,Day
C-2734622,2,2021-02-12 10:31:30,2021-02-12 15:33:28,32.837157,-96.914738,32.837171000000005,-96.925403,0.619139534674,Roadwork on John Carpenter Fwy E from Loop 12 S to Airport Fwy W - TX-183 W.,,Airport Fwy W,R,Irving,Dallas,TX,75062,US,US/Central,KDFW,2021-02-12 10:53:00,24.0,11.0,81.0,29.65,9.0,N,16.0,0.0,Cloudy,False,False,False,False,False,False,False,False,False,False,False,False,False,Day,Day,Day,Day
C-2734623,3,2019-04-08 09:00:00,2019-04-08 15:00:00,47.587505,-122.232307,,,0.0,Entry ramp closed due to construction during off-peak periods on I-90 HOV Westbound at Island Crest Way.,,I-90 E,R,Mercer Island,King,WA,98040,US,US/Pacific,KBFI,2019-04-08 08:53:00,50.0,50.0,83.0,29.97,7.0,CALM,0.0,0.0,Light Rain,False,False,False,False,False,False,False,False,False,False,False,False,False,Day,Day,Day,Day
C-2734624,2,2021-04-02 06:31:00,2021-04-02 16:51:51,28.355842,-80.700087,28.357046,-80.70124200000002,0.1088678193569999,Slow traffic on FL-520 - FL-3 from Magnolia Ave to McLeod St due to roadwork.,108.0,S Courtenay Pkwy,L,Merritt Island,Brevard,FL,32952,US,US/Eastern,KCOF,2021-04-02 06:56:00,54.0,54.0,56.0,30.11,10.0,NW,18.0,0.0,Fair,False,False,True,False,False,False,False,False,False,True,False,True,False,Night,Night,Day,Day
C-2734625,2,2021-12-13 16:13:35,2021-12-13 18:22:03,28.803034000000004,-81.890109,28.803281,-81.88679300000003,0.201491889122,Stationary traffic on FL-44 from S Lone Oak Dr (FL-44) to US-441 (FL-44) due to roadwork.,1506.0,South St,R,Leesburg,Lake,FL,34748-6630,US,US/Eastern,KLEE,2021-12-13 15:53:00,82.0,82.0,56.0,30.17,10.0,NNE,8.0,0.0,Fair,False,False,False,False,False,False,False,False,False,False,False,False,False,Day,Day,Day,Day
C-2734626,2,2020-11-09 17:00:00,2020-11-10 07:59:01,42.979338,-73.942516,42.983375,-73.93543100000002,0.453934121052,Construction on NY 67 both directions between Sweetman Rd (Ballston) and Finley Road (Charlton) Monday November 9th 2020 09:00 AM thru 03:00 PM alternate lanes closed,1901.0,Amsterdam Rd,R,Ballston Spa,Saratoga,NY,12020-3114,US,US/Eastern,KSCH,2020-11-09 15:58:00,68.0,68.0,43.0,29.84,15.0,CALM,0.0,0.0,Fair,False,False,False,False,False,False,False,False,False,False,False,False,False,Night,Day,Day,Day
C-2734627,2,2017-11-06 21:02:44,2017-11-07 03:02:44,33.76513,-84.52126,33.76801,-84.53253000000002,0.6772204686259999,At GA-70/Fulton Ind Blvd/Exit 49 - Construction work.,,GA-402 E,R,Atlanta,Fulton,GA,30336,US,US/Eastern,KFTY,2017-11-06 20:53:00,66.9,,100.0,30.07,10.0,Calm,,,Mostly Cloudy,False,False,False,False,False,False,False,False,False,False,False,False,False,Night,Night,Night,Night
C-2734628,2,2021-04-05 05:37:30,2021-04-05 14:53:35,27.423782,-80.325875,27.42540300000001,-80.326973,0.130685131515,Slow traffic on US-1 N - US-1 S - FL-5 from Gardenia Ave to Colonial Rd due to roadwork.,2409.0,S US Highway 1,R,Fort Pierce,St. Lucie,FL,34982-5922,US,US/Eastern,KFPR,2021-04-05 05:53:00,50.0,50.0,86.0,30.15,10.0,CALM,0.0,0.0,Fair,False,False,False,False,False,False,False,False,False,False,False,False,False,Night,Night,Night,Night
C-2734629,2,2020-09-08 16:35:30,2020-09-09 02:28:20,39.317649,-84.46553399999998,39.318542,-84.464206,0.0940530637612,Stationary traffic on OH-747 from Glades Dr to Rialto Rd due to roadwork.,4769.0,Muhlhauser Rd,R,Cincinnati,Butler,OH,45246,US,US/Eastern,KHAO,2020-09-08 16:53:00,87.0,87.0,51.0,29.38,10.0,CALM,0.0,0.0,Mostly Cloudy,False,False,False,False,False,False,False,False,False,False,False,False,False,Day,Day,Day,Day
C-2734630,2,2020-08-31 20:15:00,2020-08-31 21:45:00,33.717201,-85.02067199999998,33.721931,-84.945922,4.3082554574900005,Slow traffic on I-20 from GA-113/Exit 19 (I-20) to GA-61/GA-101/Exit 24 (I-20) due to roadwork.,,GA-402 E,R,Temple,Carroll,GA,30179,US,US/Eastern,KCTJ,2020-08-31 20:15:00,79.0,79.0,94.0,28.58,10.0,CALM,0.0,0.0,Cloudy,False,False,False,False,True,False,False,False,False,False,False,False,False,Night,Day,Day,Day
C-2734631,2,2021-07-09 12:11:00,2021-07-09 12:35:00,37.939161,-122.463147,37.934323,-122.43389,1.62897634796,Slow traffic on Richmond-San Rafael Brg - I-580 E from Francisco Blvd/Main St (I-580) to Western Dr (I-580) due to roadwork.,,I-580 E,R,Ross Valley,Marin,CA,,US,,,,,,,,,,,,,False,False,False,False,False,False,False,False,False,False,False,False,False,Day,Day,Day,Day
C-2734632,2,2021-08-30 03:07:22,2021-09-06 01:02:31,40.45864,-106.810566,40.458955,-106.814615,0.213970989172,Roadwork from Mount Werner Cir to Pine Grove Rd.,,Mount Werner Cir,R,Steamboat Springs,Routt,CO,80487,US,US/Mountain,KSBS,2021-08-30 03:15:00,47.0,47.0,47.0,23.4,10.0,WNW,3.0,,Fair,False,False,False,False,False,False,False,False,False,False,False,False,False,Night,Night,Night,Night
C-2734633,2,2021-11-18 17:24:30,2021-11-18 19:33:45,42.15137,-87.959981,42.153611,-87.96068199999998,0.158947352937,Slow traffic from Aptakisic Rd to S McHenry Rd due to roadwork.,,Aptakisic Rd,R,Buffalo Grove,Cook,IL,60089,US,US/Central,KPWK,2021-11-18 17:52:00,34.0,24.0,52.0,29.59,10.0,W,15.0,0.0,Cloudy,False,False,False,False,False,False,False,False,False,False,False,False,False,Night,Night,Day,Day
C-2734634,2,2020-10-20 13:50:30,2020-10-21 01:09:52,33.712296,-112.202085,33.711438,-112.20314,0.0848001416981,Stationary traffic from 66th Ave to W West Wind Dr due to roadwork.,,W Happy Valley Rd,R,Phoenix,Maricopa,AZ,85083,US,US/Mountain,KDVT,2020-10-20 13:53:00,89.0,89.0,13.0,28.21,10.0,S,7.0,0.0,Fair,False,False,False,False,False,False,False,False,False,True,False,False,False,Day,Day,Day,Day
C-2734635,2,2021-07-21 16:06:00,2021-09-12 00:38:34,40.141009,-78.512846,40.209466,-78.47670600000002,5.10023417576,Roadwork on I-99 northbound between .1 miles north of Exit 7: PA 869 - ST CLAIRSVILLE/OSTERBURG and .3 miles north of Exit 10: BLUE KNOB STATE PARK. There is a lane restriction.,,I-99 N,R,Bedford,Bedford,PA,15522,US,US/Eastern,KHMZ,2021-07-21 15:53:00,82.0,82.0,44.0,28.39,10.0,WNW,14.0,0.0,Fair,False,False,False,False,False,False,False,False,False,False,False,False,False,Day,Day,Day,Day
C-2734636,2,2020-05-15 07:00:00,2020-07-02 09:04:50,44.276887,-84.104665,44.276707,-84.065015,1.96149304606,Construction on MI-55 EB near MI-55 Drive with caution.,1822.0,S Morrison Rd,R,West Branch,Ogemaw,MI,48661-9708,US,US/Eastern,KHTL,2020-05-15 06:53:00,51.0,51.0,96.0,28.58,0.75,E,3.0,0.01,Fog,False,False,False,False,False,False,False,False,False,False,False,False,False,Day,Day,Day,Day
C-2734637,4,2020-12-30 08:59:49,2021-01-07 07:59:00,34.033002,-118.434324,34.032466,-118.433341,0.0673764522158,Closed road from Pickford St to S Sepulveda Blvd / Richland Ave due to roadwork.,2599.0,Cotner Ave,R,Los Angeles,Los Angeles,CA,90064-3158,US,US/Pacific,KSMO,2020-12-30 08:51:00,58.0,58.0,26.0,30.05,10.0,NNE,5.0,0.0,Fair,False,False,False,False,False,True,False,False,False,False,False,False,False,Day,Day,Day,Day
C-2734638,2,2021-02-16 05:52:30,2021-02-17 09:47:30,36.113386,-95.89594,36.117554,-95.917425,1.23329611682,Slow traffic on Broken Arrow Expy W - US-64 W - OK-51 W from NW 23rd St (US-64) to 31st St (US-64) due to roadwork.,,Broken Arrow Expy W,R,Tulsa,Tulsa,OK,74145,US,US/Central,KRVS,2021-02-16 05:53:00,-5.0,-5.0,83.0,29.56,10.0,CALM,0.0,0.0,Fair,False,False,False,False,True,False,False,False,False,False,False,False,False,Night,Night,Night,Day
C-2734639,4,2021-08-02 19:00:00,2021-08-03 06:45:00,40.131247,-86.519249,40.126728,-86.519093,0.312341905944,Construction on I-65 SB near IN-47 Use alternate exit ramp.,,I-65 S,R,Thorntown,Boone,IN,46071,US,US/Eastern,KTYQ,2021-08-02 18:55:00,74.0,74.0,52.0,29.12,10.0,NE,5.0,0.0,Fair,False,False,False,False,True,False,False,False,False,False,False,False,False,Day,Day,Day,Day
C-2734640,2,2021-05-05 05:41:00,2021-05-05 17:31:04,42.013329,-87.71144100000002,42.011827,-87.712688,0.121934526329,Slow traffic from Howard St to N Kimball Ave due to roadwork.,7284.0,McCormick Blvd,L,Skokie,Cook,IL,60076-4039,US,US/Central,KORD,2021-05-05 05:51:00,42.0,42.0,82.0,29.31,10.0,CALM,0.0,0.0,Fair,False,False,False,False,False,False,False,False,False,False,False,False,False,Day,Day,Day,Day
C-2734641,2,2021-09-28 11:07:00,2021-09-28 12:01:00,28.540642,-82.40549,28.541697,-82.402922,0.172071830007,Slow traffic on FL-45 - FL-577 - US-41 N - FL-50 from Buck Hope Rd to US-41 due to roadwork.,19406.0,Cortez Blvd,L,Brooksville,Hernando,FL,34601-3163,US,US/Eastern,KBKV,2021-09-28 10:53:00,82.0,82.0,56.0,30.02,10.0,ESE,6.0,0.0,Partly Cloudy,False,False,False,False,False,False,False,False,False,False,False,False,False,Day,Day,Day,Day
C-2734642,4,2017-10-13 22:01:09,2017-10-14 04:01:09,40.74776,-74.17149,40.74776,-74.17149,0.0,At RT-21/Exit 15 - Exit ramp closed. Construction work.,,I-280 E,R,Newark,Essex,NJ,07104,US,US/Eastern,KEWR,2017-10-13 21:51:00,64.0,,78.0,30.33,10.0,East,8.1,0.0,Overcast,False,False,False,False,False,False,True,False,True,False,False,False,False,Night,Night,Night,Night
C-2734643,2,2021-05-18 19:43:14,2021-05-19 20:29:00,41.760267,-72.665237,41.767017,-72.667587,0.481849333778,ConnDOT: Road Work on I-91 Northbound Exits 32 in effect today until Wednesday May 19 at 7:44 pm. The left lane is closed. Reported Tuesday May 18 at 7:44 pm.,,I-91 N,R,Hartford,Hartford,CT,06103,US,US/Eastern,KHFD,2021-05-18 19:53:00,80.0,80.0,25.0,30.14,10.0,W,3.0,0.0,Fair,False,False,False,False,False,False,False,False,False,False,False,False,False,Day,Day,Day,Day
C-2734644,2,2019-09-16 08:12:48,2019-09-20 08:13:56,41.27015,-75.87318,41.27199,-75.87656,0.2167290665089999,At Rutter Ave/Exit 4 - Roadwork. Open.,,PA-309 N,R,Kingston,Luzerne,PA,18704,US,US/Eastern,KAVP,2019-09-16 07:54:00,65.0,65.0,90.0,29.08,10.0,CALM,0.0,0.0,Cloudy,False,False,False,False,False,False,False,False,False,False,False,False,False,Day,Day,Day,Day
C-2734645,2,2021-03-05 09:13:00,2021-12-23 21:35:30,29.50458,-98.415455,29.499395,-98.422697,0.563913790929,Slow traffic on TX-368 Loop from Walzem Rd (TX-368 Loop/Austin Hwy) to Eisenhauer Rd (TX-368 Loop/Austin Hwy) due to roadwork.,2152.0,Austin Hwy,R,San Antonio,Bexar,TX,78218-1834,US,US/Central,KSAT,2021-10-11 14:51:00,81.0,81.0,42.0,29.01,10.0,E,7.0,0.0,Fair,False,False,False,False,False,False,False,False,False,False,False,False,False,Day,Day,Day,Day
C-2734646,2,2020-03-26 14:43:39,2020-03-30 14:42:53,42.70942,-114.4433,42.68045,-114.44327,2.0016369441,At I-84 - Construction work.,5738.0,US Highway 93,R,Jerome,Jerome,ID,83338-6780,US,US/Mountain,KJER,2020-03-26 14:53:00,42.0,34.0,38.0,25.79,10.0,W,18.0,0.0,Fair,False,False,False,False,False,False,False,False,False,False,False,False,False,Day,Day,Day,Day
C-2734647,2,2021-03-15 05:23:44,2021-12-02 22:59:59,35.328006,-94.41681,35.327908,-94.413298,0.198088074464,Stationary traffic on US-71 Bus S - AR-255 - US-71 Bus N from AR-271 (US-71 Bus) to AR-255/Zero St (US-71 Bus) due to roadwork.,1824.0,S Zero St,R,Fort Smith,Sebastian,AR,72901-8414,US,US/Central,KFSM,2021-06-10 12:24:00,89.0,89.0,65.0,29.42,10.0,NNE,6.0,0.0,Mostly Cloudy,False,False,False,False,False,False,False,False,False,False,False,False,False,Night,Night,Night,Night
C-2734648,2,2021-03-15 08:49:00,2021-03-16 09:41:14,41.006938,-80.327985,41.006361,-80.33009200000002,0.116869414982,Construction on PA-108 WB near FLEMING WAY Allow extra time.,915.0,N Croton Ave,L,New Castle,Lawrence,PA,16101-2577,US,US/Eastern,KUCP,2021-03-15 08:56:00,22.0,16.0,63.0,,10.0,NE,5.0,0.0,Fair,False,False,False,False,False,False,False,False,False,False,False,False,False,Day,Day,Day,Day
C-2734649,2,2021-07-01 13:22:12,2021-07-01 13:49:40,31.176185,-99.398974,31.169341,-99.377729,1.34201367751,Slow traffic on US-87 N - US-87 S from FM-3022 (US-87) to US-283 (US-87) due to roadwork.,,US Highway 87,R,Brady,McCulloch,TX,76825,US,US/Central,KBBD,2021-07-01 13:15:00,86.0,86.0,48.0,28.13,10.0,CALM,0.0,0.0,Mostly Cloudy,False,False,False,False,False,False,False,False,False,False,False,False,False,Day,Day,Day,Day
C-2734650,2,2019-12-09 00:00:00,2021-09-28 18:03:12,24.840036,-80.782501,24.841051,-80.786446,0.257104579839,Construction on US-1 SB near MM 70 Allow extra time.,70092.0,Overseas Hwy,L,Marathon,Monroe,FL,33050,US,US/Eastern,KMTH,2019-12-09 00:53:00,76.0,76.0,71.0,30.08,10.0,E,6.0,0.0,Fair,False,False,False,False,False,False,False,False,False,False,False,False,False,Night,Night,Night,Night
C-2734651,2,2019-04-08 23:00:00,2019-04-09 05:00:00,40.717442,-73.82650799999998,,,0.119999997318,Exit ramp from Union Tpke Westbound to Grand Central Pkwy closed due to construction work.,,Van Wyck Expy S,R,Flushing,Queens,NY,11367,US,US/Eastern,KLGA,2019-04-08 22:51:00,48.0,42.0,86.0,29.74,1.0,NE,17.0,0.0,Cloudy,False,False,False,False,False,False,False,False,False,False,False,False,False,Night,Night,Night,Night
C-2734652,2,2021-08-21 17:12:35,2021-08-21 17:36:32,40.811231,-80.125825,40.812808,-80.12530500000003,0.112302279318,Roadwork on Mercer Rd from Sunset Ct to US-19 N - US-19 S.,103.0,Little Creek Rd,R,Harmony,Butler,PA,16037-9239,US,US/Eastern,KBTP,2021-08-21 16:56:00,83.0,83.0,51.0,28.55,10.0,W,7.0,0.0,Fair,False,False,False,False,False,False,False,False,False,False,False,False,False,Day,Day,Day,Day
C-2734653,2,2020-11-30 21:02:00,2020-11-30 22:30:30,32.236321999999994,-111.037332,32.239013,-111.047192,0.605493450539,Slow traffic from N Greasewood Rd (W Speedway Blvd) to N Camino de Oeste (W Speedway Blvd) due to roadwork.,3284.0,W Speedway Blvd,R,Tucson,Pima,AZ,85745-1687,US,US/Mountain,KDMA,2020-11-30 20:58:00,57.0,57.0,27.0,27.29,10.0,ESE,7.0,0.0,Fair,False,False,False,False,False,False,False,False,False,False,False,False,False,Night,Night,Night,Night
C-2734654,4,2019-01-25 19:00:49,2019-01-26 00:00:24,43.070487,-87.986961,43.071633,-87.988003,0.0950561769071999,Closed at US-41/Appleton Ave - Closed due to roadwork.,5936.0,W Appleton Ave,R,Milwaukee,Milwaukee,WI,53210-1513,US,US/Central,KMWC,2019-01-25 18:45:00,-2.2,-10.4,55.0,30.18,10.0,West,3.5,,Clear,False,False,True,False,False,False,False,False,False,False,False,False,False,Night,Night,Night,Night
C-2734655,2,2021-08-27 10:57:00,2021-08-31 11:51:30,35.65274799999999,-97.471271,35.652648,-97.460481,0.605821237991,Stationary traffic on US-77 S - US-77 N from S Boulevard St (E 2nd St/US-77) to S Bryant Ave (E 2nd St/US-77) due to roadwork.,550.0,E 2nd St,R,Edmond,Oklahoma,OK,73034-5303,US,US/Central,KGOK,2021-08-27 10:53:00,88.0,88.0,59.0,28.86,10.0,SSW,13.0,0.0,Fair,False,False,True,False,False,False,False,False,False,False,False,True,False,Day,Day,Day,Day
C-2734656,2,2020-04-08 08:03:24,2020-04-09 17:00:00,33.17347,-87.47537,33.17347,-87.47537,0.0,At I-20/I-59 (South) - Long-term roadwork.,4599.0,Skyland Blvd E,R,Tuscaloosa,Tuscaloosa,AL,35405-3521,US,US/Central,KTCL,2020-04-08 08:03:00,68.0,68.0,96.0,29.73,2.0,S,3.0,0.0,Fog,False,False,False,False,False,False,False,False,False,False,False,False,False,Day,Day,Day,Day
C-2734657,2,2019-08-19 21:01:46,2019-08-23 21:01:20,36.998591,-122.02146,36.99319000000001,-122.01931,0.391580129879,Between Pasatiempo Dr and CA-1/Exit 1B - Construction work.,,CA-17 S,R,Santa Cruz,Santa Cruz,CA,95060,US,US/Pacific,KWVI,2019-08-19 20:53:00,62.0,62.0,84.0,29.81,10.0,E,6.0,0.0,Cloudy,False,False,False,False,True,False,False,False,False,False,False,False,False,Night,Night,Night,Day
C-2734658,2,2021-06-25 14:54:08,2021-06-25 15:26:39,40.884415,-73.880014,40.88081500000001,-73.883496,0.30814768713,Slow traffic from I-87/Major Deegan Expy (North) (Jerome Ave) to Mosholu Pkwy (Jerome Ave) due to roadwork.,3549.0,Jerome Ave,L,Bronx,Bronx,NY,10471,US,US/Eastern,KLGA,2021-06-25 14:51:00,80.0,80.0,42.0,30.23,10.0,SSE,14.0,0.0,Mostly Cloudy,False,False,False,False,False,False,True,False,False,False,False,False,False,Day,Day,Day,Day
C-2734659,2,2021-10-15 20:00:00,2021-10-27 08:45:00,30.447688,-90.986513,30.42964000000001,-91.058948,4.491556437240001,Road Maintenance Operations on I-12 Westbound from Amite River (8) to I-10 Westbound (1) . Lanes Alternating. Starting 10/15/2021 8:00 PM,,I-12 W,R,Baton Rouge,East Baton Rouge,LA,70816,US,US/Central,KBTR,2021-10-15 19:53:00,78.0,78.0,84.0,29.86,10.0,S,6.0,0.0,Fair,False,False,False,False,False,False,False,False,False,False,False,False,False,Night,Night,Night,Night
C-2734660,2,2021-11-23 04:53:21,2021-11-24 05:38:23,45.83216,-95.902866,45.83221,-95.882246,0.992687625769,Construction on MN-27 EB near MN-9 Allow extra time.,17496.0,State Highway 27,R,Herman,Grant,MN,56248,US,US/Central,KY63,2021-11-23 04:55:00,26.0,15.0,85.0,28.57,10.0,SSE,12.0,0.0,Fair,False,False,False,False,False,False,False,False,False,False,False,False,False,Night,Night,Night,Night
C-2734661,2,2017-06-28 20:33:59,2017-06-29 06:00:00,41.16351,-73.23908,41.17456,-73.18767,2.7807747403900005,Between Black Rock Tpke/Exit 24 and CT-8/CT-25/Exit 27 - Construction work.,,I-95 N,R,Fairfield,Fairfield,CT,06824,US,US/Eastern,KBDR,2017-06-28 20:52:00,72.0,,64.0,30.08,10.0,SSW,15.0,,Clear,False,False,False,False,False,False,False,False,False,False,False,False,False,Night,Day,Day,Day
C-2734662,2,2021-04-15 05:31:00,2021-04-15 18:50:30,33.523965999999994,-112.136921,33.523969,-112.134266,0.152928314401,Stationary traffic from N 43rd Ave (W Bethany Home Rd) to N 35th Ave (W Bethany Home Rd) due to roadwork.,3618.0,W Bethany Home Rd,R,Phoenix,Maricopa,AZ,85019-1942,US,US/Mountain,KGEU,2021-04-15 05:58:00,61.0,61.0,33.0,28.66,10.0,SSW,6.0,0.0,Fair,False,False,True,False,False,False,False,False,False,True,False,True,False,Night,Day,Day,Day
C-2734663,2,2021-06-20 10:41:32,2021-06-20 15:02:05,43.875021,-101.152802,43.883245,-101.136669,0.984093593023,Stationary traffic on SD-63 N - I-90 E from SD-63/Exit 163 (I-90) to SD-63/Exit 170 (I-90) due to roadwork.,,I-90 E,R,Belvidere,Jackson,SD,57521,US,US/Mountain,KPHP,2021-06-20 10:55:00,70.0,70.0,55.0,27.53,10.0,N,17.0,0.0,Mostly Cloudy,False,False,False,False,True,False,False,False,False,False,False,False,False,Day,Day,Day,Day
C-2734665,2,2018-02-22 22:01:43,2018-02-23 04:01:43,40.74403,-74.008564,40.72587,-74.0112,1.26230326706,Between 11th Ave and Canal St - Construction work.,,W 16th St,R,New York,New York,NY,10011,US,US/Eastern,KNYC,2018-02-22 21:35:00,37.9,32.1,79.0,30.67,10.0,East,8.1,,Overcast,True,False,True,False,False,False,False,False,False,False,False,True,False,Night,Night,Night,Night
C-2734666,2,2021-09-07 15:42:00,2021-09-07 16:03:30,39.289188,-76.95616,39.302638,-76.952905,0.94546422808,Slow traffic on MD-32 from Burntwoods Rd (MD-32) to MD-144/Frederick Rd (MD-32) due to roadwork.,3003.0,State Route 32,L,West Friendship,Howard,MD,21794-9301,US,US/Eastern,KGAI,2021-09-07 15:56:00,86.0,86.0,41.0,29.38,10.0,S,8.0,0.0,Partly Cloudy,False,False,True,False,False,False,False,False,False,False,False,True,False,Day,Day,Day,Day
C-2734667,3,2017-11-15 23:00:00,2017-11-16 05:00:00,42.321499,-71.053802,,,0.0,2 right lane closed due to maintenance work on I-93 Southbound at Columbia Road underpass.,,US-1 S,R,Dorchester,Suffolk,MA,02125,US,US/Eastern,KBOS,2017-11-15 22:54:00,39.0,34.0,79.0,30.14,10.0,SE,6.9,,Clear,False,False,False,False,False,False,False,False,False,False,False,True,False,Night,Night,Night,Night
C-2734668,2,2021-04-13 06:31:30,2021-04-13 17:56:30,42.587112,-83.16833000000003,42.598438,-83.16696800000003,0.785612671425,Stationary traffic from Investment Dr to I-75 S due to roadwork.,4401.0,Investment Dr,R,Troy,Oakland,MI,48098,US,US/Eastern,KVLL,2021-04-13 06:35:00,42.0,42.0,87.0,29.25,10.0,CALM,0.0,0.0,Fair,False,False,False,False,True,False,False,False,False,False,False,False,False,Night,Day,Day,Day
C-2734669,2,2021-11-09 16:12:42,2021-11-09 18:20:44,27.840568,-82.38159499999998,27.849724,-82.38140200000002,0.632729222603,Stationary traffic on FL-45 - US-41 N from Beach Ave to Gibsonton Dr due to roadwork.,11152.0,S US Highway 41,R,Gibsonton,Hillsborough,FL,33534-4744,US,US/Eastern,KTPF,2021-11-09 16:15:00,79.0,79.0,54.0,30.13,10.0,NE,3.0,0.0,Cloudy,False,False,True,False,False,False,True,False,True,False,False,True,False,Day,Day,Day,Day
C-2734670,2,2019-04-28 21:03:59,2019-05-02 21:03:29,35.59593,-80.53619,35.4956,-80.566,7.13183704406,Between Webb Rd/Exit 70 and Lane St/Exit 63 - Construction work.,,US-601 S,R,Salisbury,Rowan,NC,28146,US,US/Eastern,KRUQ,2019-04-28 21:00:00,69.0,69.0,75.0,29.2,7.0,W,5.0,0.04,Heavy Rain,False,False,False,False,False,False,False,False,False,False,False,False,False,Night,Night,Day,Day
C-2734671,2,2018-09-13 10:31:11,2018-09-13 13:01:00,44.012916,-124.10167,44.009009000000006,-124.10163,0.269955308054,At 35th St - Maintenance work.,87523.0,Highway 101,R,Florence,Lane,OR,97439-8840,US,US/Pacific,KOTH,2018-09-13 10:56:00,63.0,,72.0,30.04,10.0,Variable,6.9,,Overcast,False,False,False,False,False,False,False,False,False,False,False,False,False,Day,Day,Day,Day
C-2734672,3,2019-10-07 07:03:07,2019-10-11 07:03:05,39.2453,-84.47093000000002,39.21557,-84.47384,2.06004312072,At Galbraith Rd - Construction work.,9930.0,Springfield Pike,R,Cincinnati,Hamilton,OH,45215-1441,US,US/Eastern,KLUK,2019-10-07 06:53:00,57.0,57.0,93.0,29.65,8.0,CALM,0.0,0.02,Cloudy,False,False,True,False,False,False,False,False,True,False,False,True,False,Night,Night,Day,Day
C-2734673,2,2021-02-15 21:54:00,2021-02-16 02:56:15,33.039611,-90.575355,33.022841,-90.580535,1.19691780748,Roadwork from US-49W (MS-149) to MS-14 (US-149/MS-14/MS-16/MS-149).,,State Highway 149,R,Louise,Humphreys,MS,39097,US,US/Central,KGLH,2021-02-15 21:53:00,15.0,2.0,70.0,30.02,10.0,NW,12.0,0.0,Cloudy,False,False,False,False,False,False,False,False,False,False,False,False,False,Night,Night,Night,Night
C-2734674,3,2021-04-05 04:50:56,2021-04-05 17:00:00,41.358166,-75.05551899999998,,,0.0,Lane closed due to construction work on I-84 Westbound after Exit 34 PA-739.,,Route 739,R,Hawley,Pike,PA,18428,US,US/Eastern,KMSV,2021-04-05 04:56:00,34.0,34.0,73.0,28.5,10.0,WSW,3.0,0.0,Fair,False,False,False,False,False,False,False,False,False,False,False,False,False,Night,Night,Night,Night
C-2734675,2,2021-10-13 14:15:30,2021-10-13 16:24:15,29.739988,-95.410711,29.742618,-95.410285,0.183504041501,Stationary traffic from Kipling St to Huldy St due to roadwork.,2863.0,S Shepherd Dr,L,Houston,Harris,TX,77098-1535,US,US/Central,KMCJ,2021-10-13 13:53:00,91.0,91.0,48.0,29.78,10.0,S,15.0,0.0,Partly Cloudy,False,False,False,False,False,True,False,False,False,True,False,False,False,Day,Day,Day,Day
C-2734676,2,2021-06-30 07:00:30,2021-06-30 09:11:45,45.70972800000001,-122.552753,45.707588,-122.552794,0.147873150099,Stationary traffic on WA-503 from Old WA-503/NE Caples Rd/NE 149th St (NE 117th Ave/WA-503) to NE Padden Expy (NE 117th Ave/WA-503) due to roadwork.,12112.0,NE 117th Ave,L,Vancouver,Clark,WA,98662,US,US/Pacific,KPDX,2021-06-30 06:53:00,67.0,67.0,76.0,29.87,10.0,CALM,0.0,0.0,Mostly Cloudy,False,False,False,False,False,False,False,False,False,False,False,False,False,Day,Day,Day,Day
C-2734677,2,2021-11-18 17:13:58,2021-11-18 17:33:58,29.944078,-90.185456,29.949168,-90.181904,0.410979842272,Stationary traffic on LA-48 from Hickory Ave (LA-48) to S Clearview Pkwy (LA-48) due to roadwork.,5718.0,Jefferson Hwy,R,New Orleans,Jefferson,LA,70123-5113,US,US/Central,KMSY,2021-11-18 16:53:00,67.0,67.0,84.0,30.21,10.0,NNW,12.0,0.0,Partly Cloudy,False,False,False,False,False,False,False,False,False,False,False,True,False,Night,Day,Day,Day
C-2734678,2,2021-03-26 23:27:50,2021-07-18 19:45:30,47.196289,-121.057115,47.215539,-121.119455,3.21431063464,Slow traffic on I-90 W from Golf Course Rd/Exit 78 (I-90) to Nelson Siding Rd/Exit 74 (I-90) due to roadwork.,,I-90 W,R,Cle Elum,Kittitas,WA,98922,US,US/Pacific,KSMP,2021-07-18 11:53:00,85.0,85.0,16.0,28.09,10.0,NW,10.0,0.0,Fair,False,False,False,False,False,False,False,False,False,False,False,False,False,Night,Night,Night,Night
C-2734679,2,2020-10-28 12:39:30,2020-10-28 17:11:30,25.725149,-80.26162099999998,25.727427,-80.260202,0.180484021376,Queuing traffic on US-1 N - FL-953 - FL-5 from Grant Dr / Menendez Ave to Grand Ave due to roadwork.,,Menendez Ave,R,Miami,Miami-Dade,FL,33146,US,US/Eastern,KMIA,2020-10-28 12:31:00,87.0,87.0,65.0,30.02,10.0,E,15.0,0.0,Partly Cloudy,False,False,True,False,False,False,False,False,True,False,False,True,False,Day,Day,Day,Day
C-2734680,2,2020-09-03 17:33:00,2020-09-03 23:44:30,38.393406,-98.765481,38.39677800000001,-98.765459,0.232986056602,Stationary traffic on US-281 from US-281/24th St (Main St/US-281) to NW 50 Rd (US-281) due to roadwork.,2.0,Karen St,R,Great Bend,Barton,KS,67530-9303,US,US/Central,KGBD,2020-09-03 17:56:00,79.0,79.0,34.0,27.98,10.0,NE,13.0,0.0,Fair,False,False,False,False,False,False,False,False,False,False,False,False,False,Day,Day,Day,Day
C-2734681,2,2021-03-12 12:01:44,2021-03-12 15:01:00,37.166512,-122.165169,,,3.34999990463,One lane closed due to utility work on CA-236 Big Basin Way Northbound from Acorn Dr to Branson Ranch Rd.,101.0,Branson Ranch Rd,L,Boulder Creek,Santa Cruz,CA,95006,US,US/Pacific,KSJC,2021-03-12 11:53:00,60.0,60.0,39.0,30.11,10.0,N,6.0,0.0,Fair,False,False,False,False,False,False,False,False,False,False,False,False,False,Day,Day,Day,Day
C-2734682,2,2020-08-31 16:00:00,2020-08-31 23:15:00,44.01278,-88.145661,44.00992100000001,-88.142815,0.242944424351,Construction on WI-57 SB near IRISH RD Expect delays.,,N3435 State Road 57,L,Chilton,Calumet,WI,53014-9601,US,US/Central,KOSH,2020-08-31 15:53:00,69.0,69.0,81.0,28.9,10.0,W,8.0,0.0,Cloudy,False,False,False,False,False,False,False,False,False,False,False,False,False,Day,Day,Day,Day
C-2734683,2,2021-12-14 11:13:00,2021-12-14 11:34:00,40.712792,-73.99368,40.716043,-73.99551,0.244213789332,Stationary traffic from Nassau St/Flatbush Ave (Manhattan Bridge) to Canal St/Bowery (Manhattan Bridge) due to roadwork.,,Manhattan Brg,R,New York,New York,NY,10002,US,US/Eastern,KJRB,2021-12-14 10:51:00,49.0,47.0,43.0,30.39,10.0,VAR,6.0,0.0,Fair,True,False,True,False,False,False,False,False,False,True,False,False,False,Day,Day,Day,Day
C-2734684,2,2021-11-19 09:40:30,2021-11-19 10:06:30,40.878482,-73.870835,40.880661,-73.877616,0.3849094295049999,Slow traffic from Bronx River Pkwy (E Gun Hill Rd) to Jerome Ave (Gun Hill Rd) due to roadwork.,558.0,E Gun Hill Rd,R,Bronx,Bronx,NY,10467-5619,US,US/Eastern,KLGA,2021-11-19 09:51:00,46.0,39.0,44.0,30.2,10.0,NW,16.0,0.0,Fair,False,False,False,False,False,False,True,False,True,False,False,True,False,Day,Day,Day,Day
C-2734685,2,2021-08-24 13:05:30,2021-08-24 18:24:30,41.429645,-81.594027,41.426335,-81.58574899999998,0.4860159795920001,Stationary traffic on OH-14 from OH-43/Ella Ave/Miles Ave/E 93rd St (Broadway Ave/OH-14) to I-480 (Broadway Ave/OH-14) due to roadwork.,12744.0,Broadway Ave,R,Cleveland,Cuyahoga,OH,44125-1855,US,US/Eastern,KBKL,2021-08-24 12:53:00,85.0,85.0,67.0,29.4,10.0,WNW,8.0,0.0,Fair,False,False,False,False,False,False,False,False,False,False,False,False,False,Day,Day,Day,Day
C-2734686,2,2020-11-03 19:27:45,2020-11-03 23:15:00,45.380781,-95.679959,45.372579,-95.672186,0.6807906258149999,Construction on MN-9 SB near 25TH ST Construction. Expect long delays.,,N Clonmel St,R,Clontarf,Swift,MN,56226,US,US/Central,KBBB,2020-11-03 19:35:00,52.0,52.0,54.0,28.7,10.0,W,6.0,0.0,Fair,False,False,False,False,False,False,False,False,False,False,False,False,False,Night,Night,Night,Night
C-2734687,2,2019-10-24 08:03:10,2019-10-28 08:04:55,41.16407,-75.42116,41.20597,-75.46255,3.607382039280001,Between PA-940/Exit 3 and PA-507/Exit 13 - Roadwork. Open.,,I-380 N,R,Tobyhanna,Monroe,PA,18466,US,US/Eastern,KMPO,2019-10-24 07:53:00,35.0,31.0,89.0,28.24,10.0,WNW,5.0,0.0,Fair,False,False,False,False,False,False,False,False,False,False,False,False,False,Day,Day,Day,Day
C-2734688,2,2021-09-23 19:56:00,2021-09-23 21:58:05,39.763707,-86.334998,39.763149,-86.336872,0.106737302173,Stationary traffic on US-36 E - US-36 W from Washington to Conrail Railroad due to roadwork.,10640.0,E US Highway 36,L,Avon,Hendricks,IN,46123-7900,US,US/Eastern,KIND,2021-09-23 19:54:00,58.0,58.0,49.0,29.13,10.0,W,6.0,0.0,Fair,False,False,False,False,False,False,False,False,False,False,False,False,False,Night,Day,Day,Day
C-2734689,2,2021-04-06 04:55:30,2021-09-23 18:22:48,48.178347,-103.183425,48.172617,-103.1567,1.2934363162,Slow traffic on ND-1804 from 116th Ave NW to 114th Rd NW due to roadwork.,11578.0,Highway 1804,R,Ray,Williams,ND,58849-9231,US,US/Central,KD60,2021-06-21 12:35:00,59.0,59.0,42.0,27.69,10.0,WNW,14.0,0.0,Mostly Cloudy,False,False,False,False,False,False,False,False,False,False,False,False,False,Night,Night,Night,Night
C-2734690,2,2021-04-06 03:00:00,2021-12-23 23:16:51,35.163509999999995,-101.88639,35.164151000000004,-101.883906,0.147131490816,Slow traffic from Teckla Blvd / Cherokee Trl to Paramount Blvd due to roadwork.,4498.0,Teckla Blvd,R,Amarillo,Randall,TX,79109-5424,US,US/Central,KAMA,2021-12-23 20:53:00,64.0,64.0,24.0,26.1,10.0,SW,30.0,0.0,Fair / Windy,False,False,False,False,False,False,False,False,False,False,False,True,False,Night,Night,Night,Night
C-2734691,2,2021-02-23 18:50:00,2021-02-23 19:34:00,25.78784,-80.209907,25.782707,-80.223938,0.942217858592,Slow traffic on FL-836 W from I-95 (FL-836) to 17th Ave (FL-836) due to roadwork.,,Dolphin Expy W,R,Miami,Miami-Dade,FL,33136,US,US/Eastern,KMIA,2021-02-23 18:53:00,76.0,76.0,76.0,30.05,10.0,NE,12.0,0.0,Mostly Cloudy,False,False,False,False,False,False,False,False,False,False,False,False,False,Night,Night,Day,Day
C-2734692,2,2020-07-14 01:05:00,2020-07-14 19:45:00,33.381134,-84.30126700000002,33.381324,-84.301411,0.0155358259948999,Construction on GA-3 NB near WOOLSEY RD Right Lanes closed. Expect long delays.,,Bear Creek Blvd,R,Hampton,Henry,GA,30228,US,US/Eastern,K6A2,2020-07-14 00:55:00,73.0,73.0,94.0,28.97,,WNW,5.0,0.0,Fair,False,False,True,False,False,False,False,False,False,False,False,True,False,Night,Night,Night,Night
C-2734693,2,2021-02-17 17:08:00,2021-02-18 06:42:30,37.213964,-84.196529,37.205083,-84.16426,1.87873273874,Slow traffic on I-75 S from KY-909/Exit 49 (I-75) to KY-80/Exit 41 (I-75) due to roadwork.,,I-75 S,R,East Bernstadt,Laurel,KY,40729,US,US/Eastern,KLOZ,2021-02-17 16:53:00,24.0,16.0,88.0,28.9,10.0,NE,7.0,0.0,Cloudy,False,False,False,False,False,False,False,False,False,False,False,False,False,Day,Day,Day,Day
C-2734694,4,2020-05-03 06:51:22,2020-05-03 11:51:06,40.74725,-73.16873000000002,40.7475,-73.16696,0.0942467676362,Closed at RT-27/Connetquot Ave - Closed due to roadwork.,,Sunrise Hwy E,R,Great River,Suffolk,NY,11739,US,US/Eastern,KISP,2020-05-03 06:56:00,51.0,51.0,96.0,29.74,8.0,S,13.0,0.09,Light Rain,False,False,False,False,False,False,False,False,False,False,False,False,False,Day,Day,Day,Day
C-2734695,2,2021-12-16 08:12:00,2021-12-16 11:29:24,40.681189,-73.980402,40.684125,-73.97777099999998,0.245265114719,Slow traffic from Warren St to Flatbush Ave due to roadwork.,99.0,4th Ave,L,Brooklyn,Kings,NY,11217-2712,US,US/Eastern,KJRB,2021-12-16 07:51:00,54.0,54.0,75.0,30.02,10.0,SW,9.0,0.0,Mostly Cloudy,True,False,True,False,False,False,False,False,False,False,False,True,False,Day,Day,Day,Day
C-2734696,2,2020-11-17 22:43:14,2020-11-17 23:35:41,41.084074,-73.858817,41.087158,-73.859978,0.221496074782,Slow traffic on US-9 N - US-9 S from Neperan Rd (US-9) to NY-117 (US-9) due to roadwork.,2.0,Chestnut St,R,Sleepy Hollow,Westchester,NY,10591-2613,US,US/Eastern,KHPN,2020-11-17 22:56:00,34.0,22.0,52.0,29.64,10.0,NW,21.0,0.0,Fair / Windy,False,False,False,False,False,False,False,False,False,False,False,False,False,Night,Night,Night,Night
C-2734697,2,2020-11-11 14:06:00,2020-11-11 23:40:26,41.998314,-87.711727,41.994493,-87.714015,0.28896781296,Slow traffic from W Touhy Ave (N McCormick Blvd) to US-41/N Lincoln Ave (N McCormick Rd) due to roadwork.,6443.0,N McCormick Blvd,L,Lincolnwood,Cook,IL,60712,US,US/Central,KORD,2020-11-11 13:51:00,45.0,41.0,53.0,29.32,10.0,W,8.0,0.0,Fair,False,False,False,False,False,False,False,False,True,False,False,True,False,Day,Day,Day,Day
C-2734699,4,2020-10-16 02:55:00,2020-10-16 13:45:00,33.519853999999995,-86.831234,33.516269,-86.824704,0.450385568249,Construction on I-20 EB near 6TH AVE N IS Use alternate exit ramp.,,I-20 E,R,Birmingham,Jefferson,AL,35204,US,US/Central,KBHM,2020-10-16 02:53:00,61.0,,67.0,29.43,10.0,,,0.0,Cloudy,False,False,False,False,True,False,False,False,False,False,False,False,False,Night,Night,Night,Night
C-2734700,2,2021-09-25 15:32:00,2021-09-25 15:46:00,41.982938,-87.816797,41.98221,-87.806341,0.539375647325,Slow traffic on I-90 E - Kennedy Expy E from Canfield Rd/Exit 80 (I-90) to IL-43/Harlem Ave (I-90) due to roadwork.,,N Oriole Ave,R,Chicago,Cook,IL,60656,US,US/Central,KORD,2021-09-25 15:51:00,68.0,68.0,28.0,29.24,10.0,W,13.0,0.0,Partly Cloudy,False,False,False,False,False,False,False,False,False,True,False,False,False,Day,Day,Day,Day
C-2734701,4,2020-03-26 16:07:48,2020-03-26 21:07:43,35.13803,-81.07030999999998,35.13105,-81.07981,0.721620312877,Closed at SC-274 - Closed due to roadwork.,801.0,Pole Branch Rd,L,Clover,York,SC,29710-7099,US,US/Eastern,KAKH,2020-03-26 15:54:00,57.0,57.0,69.0,29.2,10.0,VAR,6.0,0.0,Cloudy,False,False,False,False,False,False,False,False,False,False,False,False,False,Day,Day,Day,Day
C-2734702,3,2017-07-05 21:00:00,2017-07-06 05:00:00,32.761745,-97.319023,,,0.519999980927,Entry ramp to I-35 Southbound from Gilvin St closed due to construction work.,,US-377 S,R,Fort Worth,Tarrant,TX,76102,US,US/Central,KFTW,2017-07-05 20:53:00,79.0,,77.0,30.0,10.0,NE,8.1,0.14,Mostly Cloudy,False,False,False,False,False,False,False,False,False,False,False,False,False,Night,Day,Day,Day
C-2734703,2,2021-12-11 15:26:00,2021-12-11 17:30:29,25.747767,-80.333922,25.746905,-80.335719,0.126704614706,Slow traffic on County Hwy-913 - FL-973 - FL-972 from SW 84th Ave to SW 25th St due to roadwork.,8595.0,Coral Way,L,Miami,Miami-Dade,FL,33155-2335,US,US/Eastern,KMIA,2021-12-11 15:53:00,80.0,80.0,71.0,30.05,10.0,SE,8.0,0.0,Partly Cloudy,False,False,True,False,False,False,False,False,False,False,False,True,False,Day,Day,Day,Day
C-2734704,2,2020-06-23 05:47:00,2020-06-25 21:49:34,47.57881,-122.14074,47.54761,-122.0592,4.37027726126,Between I-405/Exit 10 and WA-900/Exit 15 - Construction work. Right lane blocked.,,I-90 E,R,Bellevue,King,WA,98006,US,US/Pacific,KRNT,2020-06-23 05:53:00,60.0,60.0,62.0,30.05,10.0,N,5.0,0.0,Fair,False,False,False,False,False,False,False,False,False,False,False,False,False,Day,Day,Day,Day
C-2734705,2,2021-06-29 08:01:00,2021-06-29 18:15:00,38.758823,-122.157609,38.76348400000001,-122.161774,0.3925123511069999,Construction on CA-16 WB near COUNTY ROAD 18 Expect long delays.,12627.0,State Highway 16,L,Brooks,Yolo,CA,95606-9702,US,US/Pacific,KEDU,,,,,,,,,,,False,False,False,False,False,False,False,False,False,False,False,False,False,Day,Day,Day,Day
C-2734706,3,2020-05-05 09:02:33,2020-05-09 09:02:25,29.45141,-95.47555,29.354,-95.46226,6.7777654623300005,Between Iowa Colony and Fairchilds - Construction work.,9166.0,FM 521 Rd,L,Rosharon,Fort Bend,TX,77583-4504,US,US/Central,KAXH,2020-05-05 08:55:00,77.0,77.0,92.0,29.87,10.0,CALM,0.0,0.0,Mostly Cloudy,False,False,False,False,False,False,False,False,False,True,False,True,False,Day,Day,Day,Day
C-2734707,2,2021-01-22 07:00:00,2021-01-22 18:00:00,33.87384,-78.97821,,,15.4300003052,Intermittent lane closures due to paving repairs and construction during the day time on SC-905 both ways between US-501-BR Main St and Old Reaves Ferry Rd.,2701.0,Highway 905,L,Conway,Horry,SC,29526-7114,US,US/Eastern,KHYW,2021-01-22 06:55:00,45.0,45.0,100.0,29.9,10.0,CALM,0.0,0.0,Fair,False,False,False,False,False,False,False,False,False,False,False,False,False,Night,Day,Day,Day
C-2734708,2,2021-12-11 13:13:00,2021-12-11 15:22:28,33.508214,-111.986733,33.510096999999995,-111.986639,0.130215562694,Slow traffic from E Indian School Rd (N 44th St) to E McDonald Dr (N 44th St) due to roadwork.,4878.0,N 44th St,L,Phoenix,Maricopa,AZ,85018,US,US/Mountain,KPHX,2021-12-11 12:51:00,63.0,63.0,28.0,28.95,10.0,E,8.0,0.0,Fair,True,False,False,False,False,False,False,False,True,False,False,False,False,Day,Day,Day,Day
C-2734709,2,2021-08-02 03:00:02,2021-11-19 08:33:00,42.60590300000001,-114.26705,42.605667,-114.210371,2.88244202443,Roadwork on S 1300 E from Wilson St W / Idaho St S to ID-25.,1899.0,Highway 25,L,Eden,Jerome,ID,83325-5107,US,US/Mountain,KJER,2021-08-02 02:53:00,66.0,66.0,90.0,26.1,6.0,NE,3.0,0.0,Cloudy,False,False,False,False,False,False,False,False,False,False,False,False,False,Night,Night,Night,Night
C-2734710,4,2018-04-05 09:10:33,2018-04-05 15:10:33,38.73109,-120.7496,38.73109,-120.7496,0.0,At Smith Flat School Rd/Exit 49B - Exit ramp closed. Construction work.,,US-50 E,R,Placerville,El Dorado,CA,95667,US,US/Pacific,KPVF,2018-04-05 09:15:00,53.6,,51.0,30.11,10.0,SSE,4.6,,Clear,False,False,False,False,False,False,False,False,False,False,False,False,False,Day,Day,Day,Day
C-2734711,2,2020-12-07 13:17:00,2020-12-07 20:29:30,32.343221,-111.046993,32.336767,-111.047002,0.445929239271,Stationary traffic from W Massingale Rd (N Thornydale Rd) to W Orange Grove Rd (N Thornydale Rd) due to roadwork.,7501.0,N Thornydale Rd,L,Tucson,Pima,AZ,85741,US,US/Mountain,KDMA,2020-12-07 12:58:00,73.0,73.0,11.0,27.26,10.0,SE,24.0,0.0,Fair / Windy,False,False,False,False,False,False,False,False,False,False,False,False,False,Day,Day,Day,Day
C-2734712,2,2020-07-04 14:00:00,2020-07-05 00:45:00,39.634305,-83.532131,39.650035,-83.541961,1.20613187541,Construction on OH-41 NB near US-62 Construction. Expect long delays.,8886.0,State Route 41 NW,R,Washington Court House,Fayette,OH,43160-9180,US,US/Eastern,KILN,2020-07-04 13:54:00,90.0,90.0,39.0,28.88,10.0,CALM,0.0,0.0,Fair,False,False,False,False,False,False,False,False,False,False,False,False,False,Day,Day,Day,Day
C-2734713,2,2020-06-26 21:00:00,2020-06-27 08:00:00,42.32607700000001,-83.634132,,,13.8999996185,One lane closed due to construction work on M-14 both ways from Exit 15 Gotfredson Rd to Exit 10 M-153 Ford Rd.,,M-14 E,R,Ann Arbor,Washtenaw,MI,48105,US,US/Eastern,KARB,2020-06-26 20:53:00,74.0,74.0,73.0,28.96,10.0,CALM,0.0,0.0,Cloudy,False,False,False,False,False,False,False,False,False,False,False,False,False,Day,Day,Day,Day
C-2734714,2,2021-06-11 06:34:30,2021-06-11 06:57:30,32.734719,-97.062331,32.749839,-97.062661,1.04486852023,Slow traffic on TX-360 N from TX-180/E Division St (Watson Rd/TX-360) to E Randol Mill Rd (Watson Rd/TX-360) due to roadwork.,,TX-360 N,R,Arlington,Tarrant,TX,76010,US,US/Central,KGPM,2021-06-11 06:35:00,76.0,76.0,100.0,29.22,10.0,SSE,6.0,0.0,Partly Cloudy,False,False,False,False,False,False,False,False,False,False,False,False,False,Day,Day,Day,Day
C-2734715,2,2021-05-07 04:01:47,2021-05-07 06:30:00,37.630802,-122.402809,,,0.0,Two lanes closed due to construction during the night on US-101 Southbound after San Bruno Ave.,,Bayshore Fwy S,R,San Bruno,San Mateo,CA,94066,US,US/Pacific,KSFO,2021-05-07 03:56:00,53.0,53.0,74.0,30.01,10.0,W,30.0,0.0,Fair / Windy,False,False,False,False,False,False,False,False,False,False,False,False,False,Night,Night,Night,Night
C-2734716,2,2021-11-11 18:13:43,2021-11-11 20:16:08,26.275186,-80.117494,26.274493,-80.119395,0.127137101552,Slow traffic on FL-834 from N Dixie Hwy to NE 35th Ct due to roadwork.,433.0,E Sample Rd,L,Pompano Beach,Broward,FL,33064-4441,US,US/Eastern,KPMP,2021-11-11 18:26:00,79.0,79.0,74.0,30.01,10.0,SE,9.0,0.0,Fair,False,False,False,False,False,False,False,False,False,False,False,False,False,Night,Night,Day,Day
C-2734717,2,2021-12-10 19:00:00,2021-12-11 06:45:00,39.89912800000001,-75.174825,39.907117,-75.149514,1.4506944498899998,Construction on I-95 NB near 26TH ST Drive with caution.,,S Broad St,R,Philadelphia,Philadelphia,PA,19145,US,US/Eastern,KPHL,2021-12-10 18:54:00,45.0,45.0,71.0,30.13,10.0,CALM,0.0,0.0,Mostly Cloudy,False,False,False,False,False,False,False,False,False,False,False,True,False,Night,Night,Night,Night
C-2734718,2,2021-12-26 12:04:30,2021-12-29 23:59:50,40.434666,-120.633874,40.54163,-120.622474,7.41474733403,Roadwork on CA-36/Main St (Ash St/CA-139) from CR-226/Merrillville Rd (CA-139) to CA-139.,,479-338 State Route 139,R,Susanville,Lassen,CA,96130,US,US/Pacific,KRTS,2021-12-26 11:55:00,27.0,13.0,59.0,24.74,10.0,WSW,18.0,0.0,Fair,False,False,False,False,False,False,False,False,False,False,False,False,False,Day,Day,Day,Day
C-2734719,2,2021-12-30 07:44:30,2021-12-30 09:21:30,34.366125,-117.65213,34.376111,-117.68635,2.06993013416,Stationary traffic on CA-2 from Lone Pine Canyon Rd (CA-2) to CR-N4 (Angeles Crest Hwy/CA-2) due to roadwork.,414.0,State Highway 2,L,Wrightwood,San Bernardino,CA,92397,US,US/Pacific,KGXA,,,,,,,,,,,False,False,False,False,False,False,False,False,False,False,False,False,False,Day,Day,Day,Day
C-2734720,2,2021-03-11 05:07:30,2021-03-12 19:49:54,25.805028,-80.12495600000003,25.807163,-80.12404000000002,0.158135984559,Stationary traffic on FL-A1A from FL-A1A/26th St (FL-A1A) to Arthur Godfrey Rd/41st St (FL-A1A) due to roadwork.,148.0,29th St,L,Miami Beach,Miami-Dade,FL,33140,US,US/Eastern,KMIA,2021-03-11 04:53:00,70.0,70.0,73.0,30.24,10.0,E,13.0,0.0,Fair,True,False,True,False,False,False,False,False,False,True,False,True,False,Night,Night,Night,Night
C-2734721,2,2021-03-23 23:11:00,2021-12-16 18:45:10,27.160097,-80.31889699999998,27.161574,-80.317817,0.121747057365,Stationary traffic on FL-714 - County Hwy-714 - County Hwy-76A from SW Sunshine Farms Way to Florida's Turnpike S due to roadwork.,3722.0,SW 48th Ave,L,Palm City,Martin,FL,34990-8744,US,US/Eastern,KSUA,2021-12-16 16:48:00,77.0,77.0,65.0,30.14,10.0,ESE,8.0,0.0,Fair,False,False,False,False,False,False,False,False,False,False,False,False,False,Night,Night,Night,Night
C-2734722,2,2021-07-31 12:31:47,2021-07-31 13:17:32,28.811359000000003,-81.354129,28.811949,-81.363039,0.540951836445,Stationary traffic on FL-46 from I-4 (FL-46) to Orange Blvd (FL-46) due to roadwork.,5281.0,W State Road 46,R,Sanford,Seminole,FL,32771,US,US/Eastern,KSFB,2021-07-31 12:53:00,92.0,92.0,52.0,29.99,10.0,WSW,14.0,0.0,Fair,False,False,False,False,False,False,False,False,False,False,False,True,False,Day,Day,Day,Day
C-2734723,2,2021-02-16 16:10:03,2021-02-16 19:08:40,34.576587,-88.484837,34.584852000000005,-88.491377,0.6815558022020001,Roadwork on MS-371 (MS-4) from MS-30 (E Chambers Dr/MS-4) to MS-4.,638.0,Highway 4 E,L,Booneville,Prentiss,MS,38829-8040,US,US/Central,KCRX,2021-02-16 16:15:00,23.0,16.0,50.0,29.76,10.0,VAR,6.0,0.0,Fair,False,False,False,False,False,False,False,False,False,False,False,False,False,Day,Day,Day,Day
C-2734724,2,2021-10-25 05:43:40,2021-10-25 09:53:02,40.090243,-80.56231700000002,40.089312,-80.563323,0.0834597599881999,Roadwork on WV--PA State Border (US-40) from McGraws Run Rd (National Rd/US-40) to US-40 W - US-40 E.,9113.0,National Rd,R,Valley Grove,Ohio,WV,26060-8968,US,US/Eastern,KHLG,2021-10-25 05:53:00,62.0,62.0,62.0,28.57,10.0,S,14.0,0.0,Fair,False,False,False,False,False,False,False,False,False,False,False,False,False,Night,Night,Night,Night
C-2734725,2,2021-06-01 23:49:00,2021-06-01 23:59:30,32.833357,-96.874601,32.839414,-96.875494,0.421697619314,Slow traffic on I-35E N - US-77 N - Stemmons Fwy N from Empire Central Dr/Exit 434A (I-35E) to Harry Hines Blvd/Exit 435 (I-35E) due to roadwork.,,I-35E N,R,Dallas,Dallas,TX,75247,US,US/Central,KDAL,2021-06-01 23:53:00,68.0,68.0,78.0,29.52,10.0,CALM,0.0,0.0,Mostly Cloudy,False,False,False,False,False,False,False,False,False,False,False,False,False,Night,Night,Night,Night
C-2734726,3,2019-03-27 20:00:00,2019-03-28 05:31:00,39.090088,-104.861176,,,11.1000003815,Right lane closed due to paving repairs and maintenance work on I-25 Southbound between Exit 167 CR-74 Greenland Rd and Exit 161 CO-105.,,I-25 N,R,Monument,El Paso,CO,80132,US,US/Mountain,KAFF,2019-03-27 19:58:00,62.4,,17.0,29.83,10.0,West,5.8,,Mostly Cloudy,False,False,False,False,False,False,False,False,False,False,False,False,False,Night,Night,Day,Day
C-2734727,2,2020-10-19 01:11:30,2020-10-19 06:16:30,39.850411,-75.377523,39.84087,-75.406975,1.6957531058000002,Stationary traffic on I-95 from Kerlin St/5th St/Exit 5 (I-95) to US-322/Exit 2/Exit 3 (I-95) due to roadwork.,,I-95 S,R,Chester,Delaware,PA,19013,US,US/Eastern,KPHL,2020-10-19 00:54:00,53.0,53.0,89.0,30.34,10.0,CALM,0.0,0.0,Fair,False,False,False,False,True,False,False,False,False,False,False,False,False,Night,Night,Night,Night
C-2734728,2,2020-09-15 03:00:00,2020-09-15 12:00:00,36.830838,-76.303342,36.834748,-76.288042,0.888196390468,On I-264 (Downtown Tunnel East) in the City of Portsmouth motorists can expect potential delays in this area from 09/14/20 at 8:00 PM until 09/15/20 at 5:00 AM due to maintenance activities. The east left lane is closed.,,I-264 E,R,Portsmouth,Portsmouth,VA,23704,US,US/Eastern,,,,,,,,,,,,False,False,False,False,False,False,False,False,False,False,False,False,False,Night,Night,Night,Night
C-2734729,2,2021-05-26 07:45:00,2021-05-27 08:39:51,41.038149,-79.50546800000002,41.03526,-79.50779,0.233428730793,Construction on PA-68 WB near MONTEREY RD Allow extra time.,,Mortimer Aly,R,Rimersburg,Clarion,PA,16248,US,US/Eastern,KBTP,2021-05-26 07:56:00,72.0,72.0,71.0,28.7,10.0,SSW,9.0,0.0,Fair,False,False,False,False,False,False,False,False,False,False,False,False,False,Day,Day,Day,Day
C-2734730,3,2019-04-04 21:00:00,2019-04-05 05:00:00,29.743999,-95.362137,,,0.1899999976159999,Exit ramp from I-45 Northbound at Exits 46A 46B to TX-288 Southbound closed due to construction work.,,I-45 S,R,Houston,Harris,TX,77003,US,US/Central,KMCJ,2019-04-04 20:53:00,75.0,75.0,82.0,29.87,7.0,S,6.0,0.0,Partly Cloudy,False,False,False,False,False,False,False,False,False,False,False,False,False,Night,Night,Night,Day
C-2734731,2,2020-11-05 13:48:30,2020-11-06 03:33:35,26.683545,-80.247043,26.681544,-80.245138,0.181510114646,Slow traffic on FL-80 - FL-700 - US-98 E - FL-882 - US-441 S from Folsom Rd to Cypress Head Ave due to roadwork.,20.0,Crestwood Blvd N,L,West Palm Beach,Palm Beach,FL,33411,US,US/Eastern,KPBI,2020-11-05 13:53:00,83.0,83.0,65.0,30.05,10.0,E,20.0,0.0,Mostly Cloudy,False,False,False,False,False,False,False,False,False,False,False,False,False,Day,Day,Day,Day
C-2734732,2,2020-09-28 12:44:00,2020-09-28 18:41:00,40.662707,-75.42232,40.655662,-75.428623,0.588285997889,Slow traffic from Hanoverville Rd (Airport Rd) to City Line Rd (Airport Rd) due to roadwork.,,Airport Rd,R,Allentown,Northampton,PA,18109,US,US/Eastern,KABE,2020-09-28 12:51:00,72.0,72.0,78.0,29.49,10.0,S,9.0,0.0,Fair,False,False,False,False,False,False,False,False,False,False,False,False,False,Day,Day,Day,Day
C-2734733,2,2020-04-22 15:51:57,2020-09-24 04:36:29,39.632203,-75.95663499999998,39.593652,-76.066061,6.404630270809999,Construction on I-95 SB near MP 102 Expect long delays.,,N East Rd,R,North East,Cecil,MD,21901,US,US/Eastern,KAPG,2020-04-22 15:54:00,55.0,55.0,20.0,29.9,8.0,NW,14.0,0.0,Fair,False,False,False,False,False,False,False,False,False,False,False,False,False,Day,Day,Day,Day
C-2734734,2,2019-12-26 09:18:03,2019-12-30 09:19:02,40.5339,-79.84487,40.5339,-79.84487,0.0,At PA-910/Indianola Rd/Werner Camp Rd - Roadwork. Open.,2501.0,Freeport Rd,R,Pittsburgh,Allegheny,PA,15238-1409,US,US/Eastern,KAGC,2019-12-26 08:53:00,46.0,41.0,73.0,28.83,10.0,S,9.0,0.0,Cloudy,False,False,True,False,False,False,True,False,True,False,False,True,False,Day,Day,Day,Day
C-2734735,2,2020-08-30 15:33:00,2020-08-30 16:10:00,35.446861,-108.364773,35.479541,-108.432783,4.44373581227,Queuing traffic on I-40 from Elim Haven Rd/Exit 44 (I-40) to 6 Mile Canyon Rd/Exit 39 (I-40) due to roadwork.,,I-40 W,R,Gallup,McKinley,NM,87301,US,US/Mountain,KGUP,2020-08-30 15:53:00,83.0,83.0,20.0,23.66,10.0,WNW,14.0,0.0,Fair,False,False,False,False,True,False,False,False,False,False,False,False,False,Day,Day,Day,Day
C-2734736,2,2021-11-06 03:07:30,2021-11-06 05:11:10,41.029633,-81.505004,41.025483,-81.502054,0.325364585885,Roadwork on Waterloo Rd/Exit 123 (I-77) from I-277/US-224/Exit 122 (I-77) to I-77 S.,,I-77 S,R,Akron,Summit,OH,44301,US,US/Eastern,KAKR,2021-11-06 02:54:00,36.0,36.0,67.0,29.19,10.0,CALM,0.0,0.0,Fair,False,False,False,False,False,False,False,False,False,False,False,False,False,Night,Night,Night,Night
C-2734737,3,2019-08-21 21:00:00,2019-08-22 05:00:00,45.611439,-122.679802,,,0.4900000095369999,Entry ramp to I-5 Southbound from N Tomahawk Island Dr Eastbound intermittent ramp closures due to construction during the night.,,I-5 S,R,Portland,Multnomah,OR,97217,US,US/Pacific,KVUO,2019-08-21 20:53:00,65.0,65.0,90.0,29.98,10.0,CALM,0.0,0.05,Cloudy,False,False,False,False,False,False,False,False,False,False,False,True,False,Night,Night,Day,Day
C-2734738,2,2021-06-16 11:43:11,2021-12-01 13:12:30,34.82652,-114.144934,34.79949000000001,-114.156484,1.97919056565,Slow traffic on I-40 W from Exit 25 (I-40) to Gem Acres Rd/Exit 20 (I-40) due to roadwork.,,I-40 W,R,Bullhead City,Mohave,AZ,86442,US,US/Mountain,KIFP,2021-12-01 12:49:00,77.0,77.0,11.0,29.37,20.0,N,25.0,0.0,Partly Cloudy / Windy,False,False,False,False,True,False,False,False,False,False,False,False,False,Day,Day,Day,Day
C-2734739,2,2019-10-14 09:03:34,2019-10-22 21:02:07,33.79172,-84.37416,33.78821,-84.37749000000002,0.308834223334,At South Prado - Construction work.,1347.0,Piedmont Ave NE,R,Atlanta,Fulton,GA,30309-3366,US,US/Eastern,KFTY,2019-10-16 20:53:00,57.0,57.0,62.0,29.02,10.0,W,5.0,0.0,Fair,False,False,False,False,False,False,False,False,False,False,False,True,False,Day,Day,Day,Day
C-2734740,2,2017-12-07 20:54:23,2017-12-08 02:54:23,40.73808,-74.21733,40.80177,-74.18630999999998,4.69037931141,Between South Orange Ave/Exit 144 and Belleville Ave/Exit 149 - Construction work.,,Garden State Pkwy N,R,Irvington,Essex,NJ,07111,US,US/Eastern,KEWR,2017-12-07 20:51:00,41.0,34.7,43.0,30.02,10.0,West,10.4,,Mostly Cloudy,False,False,False,False,False,False,False,False,False,False,False,False,False,Night,Night,Night,Night
C-2734741,2,2021-12-22 18:43:00,2021-12-22 20:57:03,40.683526,-73.975893,40.684683,-73.977862,0.1305127746319999,Slow traffic from Fort Greene Pl to Lafayette Ave due to roadwork.,,Atlantic Ave,R,Brooklyn,Kings,NY,11217,US,US/Eastern,KJRB,2021-12-22 18:51:00,36.0,28.0,39.0,29.71,10.0,NW,13.0,0.0,Fair,True,False,False,False,False,False,True,False,True,False,False,True,False,Night,Night,Night,Night
C-2734742,2,2021-10-18 15:10:00,2021-10-18 17:51:14,39.653134,-104.911833,39.652271,-104.913051,0.0880550209795,Slow traffic on CO-30 from S Oneida Way to E Ithaca Pl due to roadwork.,6607.0,E Hampden Ave,R,Denver,Denver,CO,80224,US,US/Mountain,KBKF,2021-10-18 15:58:00,76.0,76.0,11.0,24.18,10.0,ESE,9.0,0.0,Partly Cloudy,False,False,True,False,False,False,False,False,False,False,False,False,False,Day,Day,Day,Day
C-2734743,2,2021-07-02 20:45:32,2021-07-02 21:05:32,28.371389,-81.503364,28.378294,-81.504631,0.483267637989,Slow traffic on FL-535 from FL-536/World Center Dr (CR-535) to I-4 (CR-535) due to roadwork.,13405.0,State Road 535,L,Orlando,Orange,FL,32821-6387,US,US/Eastern,KMCO,2021-07-02 20:53:00,80.0,80.0,76.0,29.85,10.0,W,6.0,0.0,Mostly Cloudy,False,False,True,False,False,False,False,False,False,False,False,True,False,Night,Day,Day,Day
C-2734744,2,2020-09-17 21:01:39,2020-09-18 21:48:19,44.059005,-93.250461,44.054255,-93.249901,0.329369588085,Construction on I-35 SB near MN-14 Drive with caution.,,I-35 S,R,Owatonna,Steele,MN,55060,US,US/Central,KOWA,2020-09-17 20:53:00,48.0,48.0,66.0,29.03,10.0,NNE,3.0,0.0,Fair,False,False,False,False,False,False,False,False,False,False,False,False,False,Night,Night,Night,Night
C-2734745,2,2021-01-27 05:01:00,2021-01-27 13:01:00,34.082194,-117.698509,34.081865,-117.719328,1.19159799724,Alternating Lanes closure due to K-rail Installation between Haven Ave and Indian Hill Blvd,,I-10 W,R,Montclair,San Bernardino,CA,91763,US,US/Pacific,KPOC,2021-01-27 06:47:00,43.0,43.0,70.0,29.09,10.0,VAR,3.0,,Cloudy,False,False,False,False,False,False,False,False,False,False,False,True,False,Night,Night,Night,Night
C-2734746,2,2020-04-13 23:50:20,2020-04-14 05:30:00,40.73724,-73.17147,40.7066,-73.43034,13.7199982556,Between Timber Point Rd/Exit 46 and RT-110/Southern St Pky/Exit 32 - Construction work.,,Heckscher State Pkwy N,R,East Islip,Suffolk,NY,11730,US,US/Eastern,KISP,2020-04-13 23:56:00,54.0,54.0,90.0,29.7,10.0,W,8.0,0.0,Fair,False,False,False,False,False,False,False,False,False,False,False,False,False,Night,Night,Night,Night
C-2734747,2,2021-01-06 04:05:29,2021-01-06 06:01:00,36.57243,-121.912239,,,1.30999994278,Entry ramp to Aguajito Rd at Exit 399A from CA-1 Northbound closed due to utility work.,,CA-68,R,Carmel,Monterey,CA,93923,US,US/Pacific,KMRY,2021-01-06 03:54:00,42.0,39.0,89.0,29.95,9.0,ESE,5.0,0.0,Fair,False,False,False,False,False,False,False,False,False,False,False,False,False,Night,Night,Night,Night
C-2734748,2,2019-04-18 09:27:41,2019-04-22 09:27:04,38.209329,-104.62859,38.18989000000001,-104.63334,1.36764628342,At Stem Bch/Exit 91 - Roadwork.,,I-25 S,R,Pueblo,Pueblo,CO,81004,US,US/Mountain,KPUB,2019-04-18 09:53:00,55.0,55.0,53.0,25.35,10.0,S,6.0,0.0,Fair,False,False,False,False,False,False,False,False,False,False,False,False,False,Day,Day,Day,Day
C-2734749,2,2020-11-06 13:31:00,2020-11-07 00:01:13,42.105638,-87.820678,42.105675,-87.829301,0.442031639556,Slow traffic from IL-43/Waukegan Rd (Willow Rd) to Shermer Rd (Willow Rd) due to roadwork.,,Willow Rd,R,Glenview,Cook,IL,60026,US,US/Central,KPWK,2020-11-06 13:52:00,74.0,74.0,45.0,29.42,10.0,SW,14.0,0.0,Fair,False,False,True,False,False,False,False,False,True,False,False,True,False,Day,Day,Day,Day
C-2734750,4,2019-01-07 19:01:36,2019-01-09 06:21:26,33.4515,-112.18655,33.408929,-112.18652,2.94137647231,Closed between W Van Buren St and W Broadway Rd - Closed due to roadwork.,5900.0,W Van Buren St,R,Phoenix,Maricopa,AZ,85043,US,US/Mountain,KGEU,2019-01-07 18:55:00,55.4,,67.0,30.2,10.0,West,4.6,,Partly Cloudy,False,False,True,False,False,False,False,False,False,False,False,True,False,Night,Night,Night,Day
C-2734751,2,2021-02-28 18:00:00,2021-05-16 16:55:03,30.722204,-91.074267,30.73671400000001,-91.068707,1.0555294427700002,Paving Operations on LA-67 from East Baton Rouge East Feliciana Parish Line to Overton Ford Rd . Lanes Alternating. Starting 2/28/2021 6:00 PM,6998.0,Hokaday Rd,L,Slaughter,East Feliciana,LA,70777-3714,US,US/Central,KBTR,2021-02-28 17:53:00,77.0,77.0,71.0,29.87,10.0,S,14.0,0.0,Fair,False,False,False,False,False,False,False,False,False,False,False,False,False,Day,Day,Day,Day
C-2734752,2,2021-07-06 16:17:27,2021-07-06 16:49:49,43.187495,-77.857667,43.1837,-77.845055,0.6873562938689999,Slow traffic on NY-31 - NY-531 E - Spencerport Expy E from NY-31 (NY-531) to NY-259/Union St (NY-531) due to roadwork.,,Brockport Spencerport Rd,R,Spencerport,Monroe,NY,14559,US,US/Eastern,KROC,2021-07-06 16:27:00,86.0,86.0,61.0,29.32,10.0,W,18.0,0.0,Mostly Cloudy,False,False,False,False,False,False,False,False,False,False,False,False,False,Day,Day,Day,Day
C-2734753,2,2021-12-23 14:14:55,2021-12-23 15:20:32,30.478635,-91.114179,30.488413,-91.121175,0.7936962464630001,Stationary traffic on US-190 W - US-61 N from LA-37/Greenwell Springs Rd (US-61) to Evangeline St (US-61) due to roadwork.,,Airline Hwy,R,Baton Rouge,East Baton Rouge,LA,70805,US,US/Central,KBTR,2021-12-23 13:53:00,66.0,66.0,45.0,30.08,10.0,VAR,5.0,0.0,Fair,False,False,False,False,False,False,False,False,False,False,False,True,False,Day,Day,Day,Day
C-2734754,3,2016-07-14 23:00:00,2016-07-15 05:00:00,42.355179,-71.051949,,,0.0,Entry ramp closed due to construction work on I-93 Southbound at Exits 20B-A 23 Congress St.,175.0,Oliver St,R,Boston,Suffolk,MA,02110-2706,US,US/Eastern,KBOS,2016-07-14 22:54:00,77.0,,82.0,29.79,10.0,WSW,11.5,,Scattered Clouds,False,False,True,False,False,False,False,False,False,False,False,True,False,Night,Night,Night,Night
C-2734755,2,2021-02-02 12:31:00,2021-02-02 19:52:00,38.330584,-104.72603,38.323898,-104.701511,1.40699118145,Stationary traffic on US-50 E from McCulloch Blvd (US-50) to Purcell Blvd (US-50) due to roadwork.,5706.0,W US Highway 50,R,Pueblo,Pueblo,CO,81007,US,US/Mountain,KPUB,2021-02-02 12:53:00,62.0,62.0,23.0,25.23,10.0,ESE,8.0,0.0,Fair,False,False,False,True,False,False,False,False,False,False,False,True,False,Day,Day,Day,Day
C-2734756,4,2021-03-08 08:00:00,2021-11-05 12:00:00,41.088512,-85.200802,41.088341,-85.191149,0.502823101922,Closed road from N Thomas Rd to Hillegas Rd / Eugene E Parker Memorial Way due to roadwork.,4508.0,Bass Rd,R,Fort Wayne,Allen,IN,46808-2949,US,US/Eastern,KFWA,2021-03-08 07:54:00,37.0,31.0,59.0,29.5,10.0,SSW,8.0,0.0,Mostly Cloudy,False,False,False,False,False,False,False,False,False,False,False,True,False,Day,Day,Day,Day
C-2734757,2,2020-07-28 18:25:36,2020-09-11 12:37:34,39.263947,-76.566016,39.268083,-76.560224,0.4214985326579999,Construction on I-95 NB near FT MCHENRY TOLL PLAZA Allow extra time.,,Fort McHenry Tunl,R,Baltimore,Baltimore City,MD,21224,US,US/Eastern,KDMH,,,,,,,,,,,False,False,False,False,False,False,False,False,False,False,False,False,False,Day,Day,Day,Day
C-2734758,2,2021-12-12 05:58:00,2021-12-12 06:12:30,43.16401,-106.335766,43.193033,-106.353567,2.19673534227,Slow traffic on US-87 N - I-25 N from Ormsby Rd/Exit 197 (I-25) to Ranch Road/Exit 216 (I-25) due to roadwork.,,I-25 N,R,Casper,Natrona,WY,82601,US,US/Mountain,KCPR,2021-12-12 05:53:00,28.0,12.0,49.0,24.44,10.0,SW,32.0,0.0,Fair / Windy,False,False,False,False,False,False,False,False,False,False,False,False,False,Night,Night,Night,Day
C-2734759,4,2021-05-17 07:43:00,2021-06-05 01:34:08,41.712073,-78.404831,41.708877,-78.46350600000002,3.03446559129,Roadwork on PA 146 both directions at 1 miles WEST of WEST VALLEY RD. All lanes closed.,2424.0,Red Mill Rd,R,Smethport,McKean,PA,16749-3144,US,US/Eastern,KBFD,2021-05-17 07:53:00,49.0,49.0,77.0,28.03,10.0,CALM,0.0,0.0,Fair,False,False,False,False,False,False,False,False,False,False,False,False,False,Day,Day,Day,Day
C-2734760,2,2021-03-04 05:51:00,2021-04-30 16:00:00,36.572231,-85.311348,36.574151,-85.309977,0.152924519421,State Route 294 both directions in Clay County - Between OVERTON-CLAY COUNTY LINE and CATESVIEW DR. signage will cause a reduction in lanes from two to one lane every day. This work is expected to be completed by 04/30/2021.,6926.0,Willow Grove Hwy,R,Allons,Clay,TN,38541-3043,US,US/Central,KSRB,2021-03-04 05:55:00,28.0,28.0,93.0,29.03,10.0,CALM,0.0,0.0,Fair,False,False,False,False,False,False,False,False,False,False,False,False,False,Night,Day,Day,Day
C-2734761,2,2021-05-11 07:48:30,2021-12-15 18:20:56,39.175388,-84.240877,39.175089,-84.23568900000002,0.278648776506,Slow traffic on OH-131 - OH-31 from Willnean Dr (OH-131) to Sugar Camp Rd (OH-131) due to roadwork.,1084.0,State Route 131,L,Milford,Clermont,OH,45150-2959,US,US/Eastern,KI69,2021-12-15 15:53:00,64.0,64.0,30.0,29.61,10.0,S,10.0,0.0,Fair,False,False,False,False,False,False,False,False,False,False,False,False,False,Day,Day,Day,Day
C-2734762,2,2021-02-13 05:07:30,2021-02-13 16:41:18,28.253687,-81.486757,28.256064,-81.48734,0.168024173361,Slow traffic on US-92 W - US-17 S from Robert McLane Blvd / Industrial Ln to Kissimmee due to roadwork.,1745.0,S Poinciana Blvd,L,Kissimmee,Osceola,FL,34758-2005,US,US/Eastern,KISM,2021-02-13 05:10:00,68.0,68.0,100.0,29.85,,S,3.0,0.0,Mostly Cloudy,False,False,False,False,False,False,False,False,False,False,False,False,False,Night,Night,Night,Night
C-2734763,2,2021-11-05 16:29:43,2021-11-05 17:02:52,25.928344,-80.195544,25.92734,-80.205616,0.629695192114,Slow traffic on FL-826 - FL-91 N - Florida's Tpke N - FL-826 W from NE 3rd Ave to I-95 N due to roadwork.,241.0,NE 167th St,L,Miami,Miami-Dade,FL,33162-2302,US,US/Eastern,KHWO,2021-11-05 16:33:00,74.0,74.0,93.0,29.86,10.0,NE,7.0,0.16,Light Rain,False,False,False,False,False,False,False,False,False,False,False,False,False,Day,Day,Day,Day
C-2734764,2,2019-03-28 22:01:41,2019-04-01 22:01:05,28.52013,-81.38875999999998,28.52018,-81.38469,0.247109284739,Between Parramore Ave and Division Ave - Construction work.,,S Parramore Ave,R,Orlando,Orange,FL,32805,US,US/Eastern,KORL,2019-03-28 21:53:00,64.9,,73.0,30.25,10.0,NNE,11.5,,Clear,False,False,True,False,False,False,False,False,False,False,False,True,False,Night,Night,Night,Night
C-2734765,2,2021-03-15 16:57:00,2021-12-02 14:59:00,25.928209,-80.198915,25.927882,-80.204369,0.339656983391,Slow traffic on FL-826 from FL-915/6th Ave (FL-826) to 2nd Ave (FL-826) due to roadwork.,59.0,NE 167th St,L,Miami,Miami-Dade,FL,33162-3402,US,US/Eastern,KHWO,2021-12-02 14:53:00,79.0,79.0,48.0,30.07,10.0,NNW,9.0,0.0,Partly Cloudy,False,False,False,False,False,False,False,False,False,False,False,True,False,Day,Day,Day,Day
C-2734766,2,2020-06-09 09:00:31,2020-06-09 17:00:00,40.62224000000001,-82.51133,40.62004,-82.51131,0.152009141754,At OH-97/Church St - Roadwork. Roadway reduced to 1 lane.,65.0,Main St,R,Bellville,Richland,OH,44813-1020,US,US/Eastern,KMFD,2020-06-09 08:52:00,77.0,77.0,43.0,28.57,10.0,SSE,10.0,0.0,Fair,False,False,False,False,False,False,False,False,False,False,False,True,False,Day,Day,Day,Day
C-2734767,2,2021-04-21 05:17:00,2021-04-21 12:11:30,39.972315,-76.69265899999998,39.981878,-76.69484399999997,0.670791706891,Slow traffic from exit [19] to US-30 E / US Highway 30 due to roadwork.,,I-83 N,R,York,York,PA,17402,US,US/Eastern,KTHV,2021-04-21 04:53:00,56.0,56.0,57.0,29.19,10.0,VAR,6.0,0.0,Fair,False,False,False,False,False,False,False,False,False,False,False,True,False,Night,Night,Day,Day
C-2734768,2,2021-08-18 16:28:00,2021-12-30 18:12:30,27.596467,-99.494786,27.602675,-99.49568,0.432410855256,Slow traffic on US-83 N - I-35 N from Shiloh Dr (I-35) to TX-20 Loop/Exit 8 (I-35) due to roadwork.,,I-35 N,R,Laredo,Webb,TX,78045,US,US/Central,KLRD,2021-11-22 17:56:00,69.0,69.0,30.0,29.68,10.0,NNE,7.0,0.0,Fair,False,False,False,False,True,False,False,False,False,False,False,False,False,Day,Day,Day,Day
C-2734769,2,2021-11-23 13:10:00,2021-11-23 13:23:30,41.401724,-82.15299499999998,41.393981,-82.15985500000002,0.642363214856,Slow traffic on I-90 W from OH-2 (I-90) to Lorain County West Toll Plaza (I-90) due to roadwork.,,I-90 W,R,Elyria,Lorain,OH,44035,US,US/Eastern,KLPR,2021-11-23 12:53:00,34.0,25.0,56.0,29.37,10.0,NNW,12.0,0.0,Cloudy,False,False,False,False,False,False,False,False,False,False,False,False,False,Day,Day,Day,Day
C-2734770,2,2020-09-10 14:02:00,2020-09-10 19:02:00,40.58127800000001,-78.71927099999998,40.585285,-78.714087,0.388132772204,Stationary traffic on US-219 from End Freeway (US-219) to Carroll St (Main St/US-219) due to roadwork.,,Ridge Rd,R,Carrolltown,Cambria,PA,15722,US,US/Eastern,KJST,2020-09-10 13:54:00,77.0,77.0,66.0,27.85,10.0,E,3.0,0.0,Mostly Cloudy,False,False,False,False,False,False,False,False,False,False,False,False,False,Day,Day,Day,Day
C-2734771,4,2019-02-01 21:02:35,2019-02-02 02:02:05,40.638572,-74.14350300000002,40.63796,-74.14478000000003,0.0791887551196,Closed at Morningstar Rd - Closed due to roadwork.,2461.0,Richmond Ter,R,Staten Island,Richmond,NY,10303,US,US/Eastern,KEWR,2019-02-01 20:51:00,19.0,9.0,50.0,30.39,10.0,West,8.1,,Partly Cloudy,False,False,False,False,False,False,False,False,False,False,False,False,False,Night,Night,Night,Night
C-2734772,2,2016-12-02 09:00:00,2016-12-02 15:00:00,40.655331,-73.67421,,,6.06,Intermittent lane closures due to construction work on NY-27 Sunrise Hwy both ways between Hook Creek Blvd and Broadway.,536.0,Sunrise Hwy,L,Lynbrook,Nassau,NY,11563-3273,US,US/Eastern,KJFK,2016-12-02 08:51:00,45.0,37.4,53.0,29.93,10.0,West,18.4,,Mostly Cloudy,True,False,True,False,False,False,False,False,True,False,False,True,False,Day,Day,Day,Day
C-2734773,2,2019-12-11 10:35:00,2021-12-30 10:07:00,42.456157,-90.776016,42.439924,-90.797948,1.5837511251700005,Lane closed on US-20 W from IA-20 (US-20) to CR-Y21/Peosta St/Sundown Rd (US-20) due to roadwork.,14699.0,Highway 20 W,R,Peosta,Dubuque,IA,52068-8031,US,US/Central,KDBQ,2021-07-21 05:53:00,67.0,67.0,90.0,28.97,5.0,ESE,6.0,0.0,Fair,False,False,False,False,False,False,False,False,False,False,False,False,False,Day,Day,Day,Day
C-2734774,2,2021-06-05 00:10:46,2021-06-05 06:45:00,40.71223,-73.954565,40.715043,-73.951891,0.239556299601,NYSDOT - Region 11: Construction construction on I-278 eastbound between Metropolitan Avenue; Williamsburg Bridge (New York) and Manhattan Avenue (New York) 2 Right lanes of 4 lanes closed until 6:00 A.M.,,Brooklyn Queens Expy,R,Brooklyn,Kings,NY,11211,US,US/Eastern,KJRB,2021-06-05 00:51:00,67.0,67.0,93.0,29.83,9.0,VAR,6.0,0.0,Fair,True,False,True,False,False,False,False,False,False,False,False,True,False,Night,Night,Night,Night
C-2734775,2,2017-10-26 07:02:00,2017-10-26 13:02:00,42.091424,-75.945564,42.09011,-75.91481,1.57946473882,At Pennsylvania Ave - Construction work.,,Vestal Pkwy E,R,Binghamton,Broome,NY,13903,US,US/Eastern,KBGM,2017-10-26 07:10:00,39.9,34.5,93.0,29.79,10.0,NW,8.1,,Overcast,False,False,False,False,False,False,False,False,False,False,False,False,False,Night,Day,Day,Day
C-2734776,2,2020-07-01 15:10:00,2020-07-03 06:56:13,48.225935,-122.095216,48.234035,-122.069436,1.31191461164,Eastbound &amp; westbound traffic is alternating on SR 530 at 115th Ave NE (MP 25) due to roadwork.,10028.0,State Route 530 NE,R,Arlington,Snohomish,WA,98223-8126,US,US/Pacific,KAWO,2020-07-01 15:16:00,57.0,57.0,88.0,29.78,10.0,E,8.0,0.0,Light Rain,False,False,False,False,False,False,False,False,False,False,False,False,False,Day,Day,Day,Night
C-2734777,2,2021-01-26 15:34:50,2021-01-26 18:36:40,32.49834,-98.535335,32.490803,-98.548151,0.910495282459,Roadwork on TX-16/Exit 361 (I-20) from E Loop 254/Exit 354 (I-20) to I-20 W.,,I-20 W,R,Ranger,Eastland,TX,76470,US,US/Central,KBKD,2021-01-26 15:35:00,57.0,57.0,39.0,28.52,10.0,E,3.0,0.0,Fair,False,False,False,False,False,False,False,False,False,False,False,False,False,Day,Day,Day,Day
C-2734778,2,2019-05-21 09:30:00,2019-05-21 15:00:00,45.132145,-89.64014399999998,,,5.13999986649,One lane closed due to maintenance work on US-51 Southbound between Exit 208 WI-64 and CR-Q.,,US-51 S,R,Merrill,Lincoln,WI,54452,US,US/Central,KRRL,2019-05-21 09:35:00,52.0,52.0,55.0,28.78,10.0,ESE,10.0,0.0,Fair,False,False,False,False,False,False,False,False,False,False,False,False,False,Day,Day,Day,Day
C-2734779,2,2020-11-18 17:49:17,2020-12-12 07:59:00,40.080091,-74.140589,40.080363,-74.14106600000002,0.0314500062298,Construction utility work on NJ 88 westbound CR 64/Jack Martin Blvd (Brick Twp) right shoulder of 2 lanes closed Until 2:00 PM,1550.0,State Highway 88,L,Brick,Ocean,NJ,08724-2384,US,US/Eastern,KBLM,2020-11-18 17:56:00,31.0,24.0,54.0,30.37,10.0,NW,7.0,0.0,Fair,False,False,False,False,False,False,False,False,False,False,False,False,False,Night,Night,Night,Day
C-2734780,2,2021-10-05 18:15:30,2021-10-05 20:25:06,33.480209,-112.06648,33.48095,-112.065079,0.0956028632109,Stationary traffic from N 5th St to E Verde Ln due to roadwork.,470.0,E Thomas Rd,L,Phoenix,Maricopa,AZ,85012,US,US/Mountain,KPHX,2021-10-05 17:51:00,80.0,80.0,47.0,28.66,10.0,E,14.0,0.0,Mostly Cloudy,False,False,False,False,False,False,False,False,False,False,False,False,False,Night,Day,Day,Day
C-2734781,2,2021-09-29 08:46:09,2021-09-29 09:06:09,40.779432,-73.979515,40.777543,-73.974999,0.269930323448,Slow traffic from Broadway to Central Park W due to roadwork.,139.0,W 74th St,R,New York,New York,NY,10023-2201,US,US/Eastern,KNYC,2021-09-29 08:51:00,56.0,,62.0,29.92,10.0,,,0.0,Fair,True,False,True,False,False,False,False,False,False,False,False,True,False,Day,Day,Day,Day
C-2734782,4,2018-07-28 15:48:50,2018-07-28 21:48:50,43.01941,-85.63615,43.016941,-85.684927,2.46995496868,Closed between Leonard St/Exit 36 and M-37/Alpine Ave/Exit 30 - Closed due to roadwork.,,Plainfield Ave NE,R,Grand Rapids,Kent,MI,49505,US,US/Eastern,KGRR,2018-07-28 15:53:00,78.1,,45.0,30.09,10.0,West,10.4,,Mostly Cloudy,False,False,False,False,False,False,False,False,False,False,False,False,False,Day,Day,Day,Day
C-2734783,2,2020-07-15 14:00:00,2020-07-16 06:59:59,40.18699,-74.57406800000003,40.18577,-74.570528,0.204988388726,Structure repairs on I-195 westbound area of Exit 8 - CR 539 (Robbinsville) Wednesday July 15th 2020 07:00 AM thru 05:00 PM right shoulder closed,,I-195 E,R,Trenton,Mercer,NJ,08691,US,US/Eastern,KTTN,2020-07-15 13:53:00,80.0,80.0,60.0,29.94,10.0,ESE,7.0,0.0,Mostly Cloudy,False,False,False,False,True,False,False,False,False,False,False,False,False,Day,Day,Day,Day
C-2734784,2,2021-11-04 08:18:00,2021-11-04 10:26:15,27.915606,-82.787704,27.916766,-82.78871600000002,0.101199096878,Slow traffic on FL-686 - US-19 Alt N - FL-595 from 8th Ave (US-19 Alt) to FL-686/Clearwater Largo Rd/W Bay Dr (US-19 Alt) due to roadwork.,144.0,Seminole Blvd,L,Largo,Pinellas,FL,33771,US,US/Eastern,KPIE,2021-11-04 07:53:00,69.0,69.0,90.0,30.04,10.0,ENE,7.0,0.0,Fair,False,False,True,False,False,False,True,False,True,False,False,False,False,Day,Day,Day,Day
C-2734785,2,2018-06-11 23:30:00,2018-06-12 05:00:00,42.371357,-71.062263,,,1.98000001907,Left lane closed due to maintenance work on Tobin Bridge Southbound from Tobin SB toll plaza to Rutherford Ave.,,US-1 S,R,Charlestown,Suffolk,MA,02129,US,US/Eastern,KBOS,2018-06-11 23:54:00,57.0,,67.0,30.18,10.0,SSW,13.8,,Clear,False,False,False,False,False,False,False,False,False,False,False,True,False,Night,Night,Night,Night
C-2734786,2,2020-04-06 21:47:13,2020-04-07 07:00:00,28.851540000000004,-81.55154,29.00553,-81.38574,14.6194903892,Between CR-437/Plymouth Sorrento Rd and CR-42 - Roadwork.,24500.0,State Road 44,R,Sorrento,Lake,FL,32776-8815,US,US/Eastern,KLEE,2020-04-06 21:53:00,72.0,72.0,64.0,30.02,10.0,E,7.0,0.0,Fair,False,False,False,False,False,False,False,False,False,False,False,True,False,Night,Night,Night,Night
C-2734787,2,2016-07-28 11:05:33,2016-07-28 16:00:00,37.51,-119.96398,37.51255,-119.96254,0.193057071497,At Merced - Roadwork. Left lane blocked.,5488.0,State Highway 140,R,Mariposa,Mariposa,CA,95338-9667,US,US/Pacific,KMCE,2016-07-28 10:53:00,93.9,,19.0,29.85,10.0,NW,6.9,,Clear,False,False,False,False,False,False,False,False,False,False,False,False,False,Day,Day,Day,Day
C-2734788,4,2020-08-31 19:55:00,2020-09-15 18:54:25,40.465768,-79.865429,40.473753,-79.856481,0.7249803201199999,Roadwork on SWISSVALE AV / PARK AV / MONTIER ST / LEECHBURG RD / HULTON RD / VERONA RD / ROBINSON BL / SALTSBURG RD / MILLTOWN UNITY RD both directions between MT CARMEL RD and LINCOLN RD. All lanes closed.,4230.0,Verona Rd,R,Verona,Allegheny,PA,15147-1636,US,US/Eastern,KAGC,2020-08-31 19:53:00,71.0,71.0,75.0,28.6,10.0,ESE,9.0,0.0,Mostly Cloudy,False,False,False,False,False,False,False,False,False,False,False,False,False,Night,Day,Day,Day
C-2734789,2,2020-09-29 07:09:30,2020-10-05 08:38:52,35.322336,-77.601837,35.326575,-77.594835,0.491515941338,Roadwork from Airport Rd (C.F. Harvey Pkwy) to NC-58 (C.F. Harvey Pkwy).,,C.F. Harvey Pkwy,R,Kinston,Lenoir,NC,28504,US,US/Eastern,KISO,2020-09-29 06:56:00,72.0,72.0,94.0,29.79,10.0,SE,5.0,0.0,Mostly Cloudy,False,False,False,False,False,False,False,False,False,False,False,False,False,Day,Day,Day,Day
C-2734790,2,2019-06-24 15:00:00,2019-09-23 11:39:58,41.379535,-85.074842,41.44089,-85.05351,4.38098010585,At US-6/Exit 134 - Roadwork on the hard shoulder.,,I-69 N,R,Auburn,DeKalb,IN,46706,US,US/Eastern,KGWB,2019-06-24 14:55:00,73.0,73.0,78.0,28.77,10.0,SW,7.0,0.0,Mostly Cloudy,False,False,False,False,False,False,False,False,False,False,False,False,False,Day,Day,Day,Day
C-2734791,2,2021-07-27 14:13:30,2021-07-27 16:16:57,41.912714,-88.338899,41.911819,-88.340176,0.0901953991326,Slow traffic on IL-64 from S 19th St to Oak St due to roadwork.,2098.0,W Main St,R,Saint Charles,Kane,IL,60174-1637,US,US/Central,KDPA,2021-07-27 13:52:00,83.0,83.0,58.0,29.2,10.0,SSW,13.0,0.0,Fair,False,False,False,False,False,False,False,False,False,False,False,False,False,Day,Day,Day,Day
C-2734792,4,2020-05-23 21:58:58,2020-05-23 23:58:23,37.80086,-122.28077,37.80221,-122.29558,0.81389054827,Between I-980 and Union St - Roadwork.,,I-880 N,R,Oakland,Alameda,CA,94607,US,US/Pacific,KOAK,2020-05-23 21:53:00,59.0,59.0,69.0,29.98,10.0,W,6.0,0.0,Mostly Cloudy,False,False,True,False,False,False,False,False,False,False,False,True,False,Night,Night,Night,Day
C-2734793,2,2021-03-17 06:11:30,2021-03-17 18:51:56,29.000346,-81.302736,28.998924,-81.301115,0.138740850778,Stationary traffic on FL-15A - US-92 W - US-17 S from W Chipola Ave to Plumosus Park Dr due to roadwork.,1586.0,S Woodland Blvd,R,Deland,Volusia,FL,32720-7709,US,US/Eastern,KDED,2021-03-17 06:15:00,66.0,66.0,90.0,29.98,10.0,CALM,0.0,0.0,Fair,False,False,False,False,False,False,False,False,False,False,False,False,False,Night,Night,Night,Night
C-2734794,2,2021-12-29 14:23:30,2021-12-29 14:37:30,47.241588,-122.392785,47.239401,-122.408078,0.733122306521,Slow traffic on I-5 S from Port of Tacoma Rd/Exit 136 (I-5) to WA-167/Exit 135 (I-5) due to roadwork.,,I-5 S,R,Fife,Pierce,WA,98424,US,US/Pacific,KTCM,2021-12-29 14:28:00,28.0,22.0,64.0,29.59,10.0,ENE,6.0,0.0,Mostly Cloudy,False,False,False,False,False,False,False,False,False,False,False,False,False,Day,Day,Day,Day
C-2734795,2,2020-04-01 09:51:23,2020-04-03 15:00:00,40.79995,-73.33681,40.78108,-73.41665,4.37527277341,Between Commack Rd/Exit 52 and RT-110/Broad Hollow Rd/Exit 49 - Construction work.,,Long Island Expy W,R,Huntington Station,Suffolk,NY,11746,US,US/Eastern,KFRG,2020-04-01 09:53:00,44.0,37.0,58.0,29.74,10.0,NNE,16.0,0.0,Fair,False,False,False,False,False,False,False,False,False,False,False,False,False,Day,Day,Day,Day
C-2734796,2,2021-12-01 21:07:00,2021-12-01 21:20:00,32.899929,-97.317328,32.894007,-97.317493,0.4092831851619999,Slow traffic on I-35W S from Park Glen Blvd/Exit 63 (I-35W) to US-287/US-81/Exit 60 (I-35W) due to roadwork.,,I-35W S,R,Fort Worth,Tarrant,TX,76177,US,US/Central,KAFW,2021-12-01 20:53:00,56.0,56.0,64.0,29.32,10.0,CALM,0.0,0.0,Fair,False,False,False,False,False,False,False,False,False,False,False,False,False,Night,Night,Night,Night
C-2734797,3,2019-08-05 00:15:22,2019-08-05 05:59:00,33.855068,-118.28334,,,0.439999997616,Entry ramp to I-110 Northbound at Exits 36 37B 38A 38B from I-405 Southbound closed due to construction work.,,I-405 S,R,Gardena,Los Angeles,CA,90248,US,US/Pacific,KHHR,2019-08-05 00:53:00,67.0,67.0,81.0,29.87,10.0,NW,3.0,0.0,Fair,False,False,False,False,False,False,False,False,False,False,False,False,False,Night,Night,Night,Night
C-2734798,2,2020-06-04 09:41:35,2020-06-04 15:00:00,41.66294,-71.49035,41.66294,-71.49035,0.0,At RI-4 - Construction work.,,RI-4 N,R,East Greenwich,Kent,RI,02818,US,US/Eastern,KPVD,2020-06-04 09:51:00,80.0,80.0,48.0,29.79,10.0,VAR,3.0,0.0,Fair,False,False,False,False,True,False,False,False,False,False,False,False,False,Day,Day,Day,Day
C-2734799,2,2020-09-19 11:48:30,2020-09-19 22:07:37,45.612914,-122.67816,45.618055,-122.675101,0.3847461902619999,Queuing traffic on I-5 from N Tomahawk Island Dr/Exit 308 (I-5) to Interstate Bridge (I-5) due to roadwork.,,N Hayden Island Dr,R,Portland,Multnomah,OR,97217,US,US/Pacific,KVUO,2020-09-19 11:53:00,65.0,65.0,70.0,30.07,10.0,VAR,5.0,0.0,Cloudy,False,False,False,False,True,False,False,False,False,False,False,False,False,Day,Day,Day,Day
C-2734800,3,2021-09-15 04:22:10,2021-09-15 06:00:00,39.382286,-77.40992,,,0.0,Intermittent lane closures due to construction on I-270 both ways at Exit 31 MD-85 Buckeystown Pike.,,Dwight D Eisenhower Hwy N,R,Frederick,Frederick,MD,21703,US,US/Eastern,KFDK,2021-09-15 04:15:00,66.0,66.0,94.0,29.63,3.0,CALM,0.0,0.0,Fair,False,False,False,False,False,False,False,False,False,False,False,False,False,Night,Night,Night,Night
C-2734801,4,2021-04-15 11:48:00,2021-05-05 23:59:00,36.732888,-119.672954,36.736898,-119.673067,0.277135256351,Closed road from E Lane Ave to E Kings Canyon Rd / Armstrong Ave due to roadwork.,318.0,S Armstrong Ave,L,Fresno,Fresno,CA,93727,US,US/Pacific,KFAT,2021-04-15 11:53:00,69.0,69.0,32.0,29.67,10.0,WSW,9.0,0.0,Fair,False,False,False,False,False,False,False,False,False,False,False,False,False,Day,Day,Day,Day
C-2734802,4,2021-02-15 10:30:00,2021-12-27 15:50:30,40.727384,-73.864101,40.728013,-73.863668,0.0490180678419,Closed road from Austin St to Queens Blvd due to roadwork.,9198.0,63rd Dr,R,Rego Park,Queens,NY,11374-3850,US,US/Eastern,KLGA,2021-08-15 20:51:00,77.0,77.0,50.0,30.14,10.0,CALM,0.0,0.0,Mostly Cloudy,True,False,True,False,False,False,False,False,False,False,False,True,False,Day,Day,Day,Day
C-2734803,2,2021-08-04 16:12:00,2021-08-04 18:13:50,33.45873,-112.203405,33.462586,-112.203283,0.266517020092,Slow traffic from W Van Buren St (N 67th Ave) to I-10/Papago Fwy (N 67th Ave) due to roadwork.,1001.0,N 67th Ave,R,Phoenix,Maricopa,AZ,85043-2443,US,US/Mountain,KGEU,2021-08-04 15:58:00,112.0,112.0,10.0,28.58,10.0,SSW,8.0,0.0,Fair,False,False,True,False,False,False,False,False,False,False,False,True,False,Day,Day,Day,Day
