ID,Severity,Start_Time,End_Time,Start_Lat,Start_Lng,End_Lat,End_Lng,Distance(mi),Description,Number,Street,Side,City,County,State,Zipcode,Country,Timezone,Airport_Code,Weather_Timestamp,Temperature(F),Wind_Chill(F),Humidity(%),Pressure(in),Visibility(mi),Wind_Direction,Wind_Speed(mph),Precipitation(in),Weather_Condition,Amenity,Bump,Crossing,Give_Way,Junction,No_Exit,Railway,Roundabout,Station,Stop,Traffic_Calming,Traffic_Signal,Turning_Loop,Sunrise_Sunset,Civil_Twilight,Nautical_Twilight,Astronomical_Twilight
C-2810018,2,2021-04-02 07:00:00,2021-04-02 16:15:00,40.515352,-74.632147,40.514842,-74.63220799999998,0.0353830213196,Construction on US-206 SB near COUNTY HWY-514 Construction. Shoulder closed.,321.0,US Highway 206,L,Hillsborough,Somerset,NJ,08844-4633,US,US/Eastern,KSMQ,2021-04-02 06:53:00,28.0,17.0,41.0,30.07,10.0,NNW,14.0,0.0,Fair,False,False,True,False,False,False,False,False,False,False,False,False,False,Day,Day,Day,Day
C-2810019,2,2018-06-17 08:00:00,2018-07-07 17:01:00,39.519978,-104.894753,,,0.0,Intermittent lane closures due to paving repairs and maintenance work on Deer Meadow Ln both ways from Quarry Rd to Highland View Ct.,559.0,Deer Meadow Ln,L,Lone Tree,Douglas,CO,80124-9712,US,US/Mountain,KAPA,2018-06-17 07:53:00,61.0,,83.0,29.77,10.0,Variable,4.6,,Overcast,False,False,False,False,False,False,False,False,False,False,False,False,False,Day,Day,Day,Day
C-2810020,2,2018-10-19 20:00:00,2018-10-20 06:00:00,28.672716,-81.390335,,,0.8100000023839999,Intermittent lane closures due to paving repairs on Central Pkwy both ways between Raymond Ave and Douglas Ave.,173.0,W Central Pkwy,L,Altamonte Springs,Seminole,FL,32714,US,US/Eastern,KORL,2018-10-19 19:53:00,79.0,,84.0,30.12,10.0,East,4.6,,Overcast,False,False,False,False,False,False,False,False,False,False,False,True,False,Night,Night,Night,Day
C-2810021,2,2021-11-09 16:20:30,2021-11-09 18:25:31,33.465941,-111.944745,33.466579,-111.943435,0.0874322787038,Stationary traffic from Bushmaster Blvd to Papago Park Rd due to roadwork.,6361.0,E McDowell Rd,R,Phoenix,Maricopa,AZ,85008,US,US/Mountain,KPHX,2021-11-09 15:51:00,80.0,80.0,20.0,28.8,10.0,SSW,5.0,0.0,Mostly Cloudy,False,False,False,False,False,False,False,False,False,False,False,False,False,Day,Day,Day,Day
C-2810022,2,2021-10-15 12:15:00,2021-10-15 17:50:19,35.10671,-106.568716,35.109056,-106.568008,0.1669600941099999,Stationary traffic from Coronado Loop to Chama St NE due to roadwork.,,Coronado Loop,R,Albuquerque,Bernalillo,NM,87110,US,US/Mountain,KABQ,2021-10-15 11:52:00,51.0,51.0,27.0,24.95,10.0,NW,5.0,0.0,Fair,True,False,False,False,False,False,False,False,False,False,False,True,False,Day,Day,Day,Day
C-2810023,2,2021-12-17 10:48:30,2021-12-17 13:02:35,33.887509,-117.328567,33.888609,-117.322902,0.333694609883,Stationary traffic from Wood Rd (Van Buren Blvd) to I-215 (Van Buren Blvd) due to roadwork.,19155.0,Van Buren Blvd,L,Riverside,Riverside,CA,92508,US,US/Pacific,KRIV,2021-12-17 10:58:00,58.0,58.0,35.0,28.49,10.0,NNW,5.0,0.0,Fair,False,False,False,False,False,False,False,False,False,False,False,False,False,Day,Day,Day,Day
C-2810024,2,2020-06-08 00:00:00,2021-10-11 03:00:17,25.775807,-80.20007199999998,25.775433,-80.199991,0.0263277991002,Construction on FL-925 SB near NW 1ST ST Allow extra time.,,NW 3rd Ct,R,Miami,Miami-Dade,FL,33128,US,US/Eastern,KMIA,2020-06-08 00:53:00,83.0,83.0,88.0,29.96,10.0,ESE,7.0,0.0,Cloudy,False,False,False,False,True,False,False,False,False,False,False,True,False,Night,Night,Night,Night
C-2810025,2,2021-12-15 00:00:00,2021-12-15 05:00:00,37.525372,-122.269089,,,0.0,Intermittent lane closures due to construction on US-101 Northbound at Exit 412 Ralston Ave.,,Bayshore Fwy S,R,Belmont,San Mateo,CA,94002,US,US/Pacific,KSQL,2021-12-15 00:15:00,41.0,41.0,87.0,30.13,10.0,CALM,0.0,0.0,Cloudy,False,False,False,False,False,False,False,False,False,False,False,False,False,Night,Night,Night,Night
C-2810026,2,2021-11-16 07:44:00,2021-11-16 10:01:09,33.392244,-112.062888,33.391559,-112.064671,0.1132240821849999,Stationary traffic from S 8th St to E Old Southern Ave due to roadwork.,773.0,E Southern Ave,R,Phoenix,Maricopa,AZ,85040-3142,US,US/Mountain,KPHX,2021-11-16 07:51:00,60.0,60.0,30.0,28.79,10.0,ESE,5.0,0.0,Mostly Cloudy,False,False,False,False,False,False,False,False,False,False,False,False,False,Day,Day,Day,Day
C-2810027,2,2020-12-30 17:12:00,2020-12-31 04:24:30,41.803854,-87.622697,41.799596,-87.62260699999999,0.29423629811,Stationary traffic from E 47th St (S Michigan Ave) to E 55th St/E Garfield Blvd (S Michigan Ave) due to roadwork.,5000.0,S Michigan Ave,R,Chicago,Cook,IL,60615-2113,US,US/Central,KMDW,2020-12-30 16:53:00,30.0,19.0,69.0,29.3,10.0,W,15.0,0.0,Cloudy,False,False,False,False,False,False,False,False,False,False,False,False,False,Night,Night,Day,Day
C-2810028,3,2018-10-30 22:00:00,2018-10-31 05:00:00,26.19084,-80.15218399999998,,,1.05999994278,Exit ramp from I-95 Southbound at Exit 32 to W Commercial Blvd Eastbound intermittent ramp closures due to construction work. Detour in operation - via Oakland Park Boulevard and I-95. Look out for flagman.,,I-95 S,R,Fort Lauderdale,Broward,FL,33309,US,US/Eastern,KFXE,2018-10-30 21:53:00,77.0,,62.0,30.13,10.0,NE,8.1,,Clear,False,False,False,False,False,False,False,False,False,False,False,False,False,Night,Night,Night,Night
C-2810029,2,2021-05-03 07:00:00,2021-05-07 23:59:00,39.449008,-74.63753299999998,39.449249,-74.63812,0.0354698452469,NJ DOT - TOC South: gas main work on US 40 westbound East of CR 575/Rangleboro Rd (Hamilton Twp) Monday May 3rd 2021 thru Friday May 7th 2021 Monday thru Friday 09:00 AM thru 04:00 PM 2 Left lanes of 4 lanes closed,4311.0,Black Horse Pike,R,Mays Landing,Atlantic,NJ,08330-3101,US,US/Eastern,KACY,2021-05-03 06:54:00,60.0,60.0,86.0,29.76,10.0,CALM,0.0,0.0,Fair,False,False,False,False,False,False,False,False,False,False,False,True,False,Day,Day,Day,Day
C-2810030,3,2018-11-16 19:00:00,2018-11-17 06:00:00,41.479923,-81.661674,,,0.519999980927,Exit ramp from I-77 Southbound at Exit 161B to E 55th St Eastbound closed due to construction work.,,I-490 W,R,Cleveland,Cuyahoga,OH,44127,US,US/Eastern,KBKL,2018-11-16 18:53:00,39.9,29.7,77.0,30.01,8.0,West,23.0,,Overcast,False,False,False,False,False,False,False,False,False,False,False,False,False,Night,Night,Night,Night
C-2810031,2,2021-03-10 06:14:30,2021-03-10 17:04:44,26.438242,-80.071709,26.439809000000004,-80.0722,0.112449987504,Slow traffic on US-1 N - FL-5 from Eve St to Old Dixie Hwy / Linton Blvd due to roadwork.,1881.0,S Federal Hwy,R,Delray Beach,Palm Beach,FL,33483-3310,US,US/Eastern,KBCT,2021-03-10 05:53:00,69.0,69.0,61.0,30.3,10.0,ENE,16.0,0.0,Mostly Cloudy,True,False,True,False,False,False,False,False,False,False,False,False,False,Night,Day,Day,Day
C-2810032,2,2020-09-11 13:06:00,2020-09-12 06:57:15,25.84702,-80.210123,25.847962,-80.209133,0.089586496749,Queuing traffic on FL-934 - US-441 N from NW 8th Ave to NW 81st St due to resurfacing work.,748.0,NW 79th St,L,Miami,Miami-Dade,FL,33150-3136,US,US/Eastern,KOPF,2020-09-11 12:53:00,88.0,88.0,65.0,29.88,10.0,E,12.0,0.0,Partly Cloudy,False,False,False,False,False,False,False,False,False,False,False,False,False,Day,Day,Day,Day
C-2810033,4,2021-04-18 00:19:35,2021-04-18 09:18:16,40.857166,-73.968475,,,1.59000003338,Main roadway closed due to construction work on I-95 George Washington Bridge Upper Level Southbound from New York to New Jersey.,2170.0,Center Ave,R,Fort Lee,Bergen,NJ,07024-5857,US,US/Eastern,KTEB,2021-04-18 00:51:00,49.0,49.0,61.0,29.8,10.0,CALM,0.0,0.0,Cloudy,False,False,False,False,False,False,False,False,False,False,False,False,False,Night,Night,Night,Night
C-2810034,2,2021-12-02 15:22:30,2021-12-02 18:05:26,33.508214,-111.986733,33.509629,-111.987445,0.10602325535,Stationary traffic from E Calle Feliz to E Medlock Dr due to roadwork.,4878.0,N 44th St,L,Phoenix,Maricopa,AZ,85018,US,US/Mountain,KPHX,2021-12-02 15:51:00,83.0,83.0,14.0,28.77,10.0,CALM,0.0,0.0,Fair,False,False,False,False,False,False,False,False,False,False,False,False,False,Day,Day,Day,Day
C-2810035,3,2018-10-31 03:49:15,2018-11-04 02:49:09,42.38248,-87.95203000000002,42.38621,-88.004467,2.68851005402,Between IL-21/Milwaukee Ave/N Riverside Dr and CR-74/CR-A16/E Sand Lake Rd - Roadwork.,5601.0,Grand Ave,R,Gurnee,Lake,IL,60031,US,US/Central,KUGN,2018-10-31 03:55:00,48.9,,86.0,29.82,5.0,NNW,5.8,,Mostly Cloudy,False,False,False,False,False,False,False,False,False,False,False,True,False,Night,Night,Night,Night
C-2810036,2,2020-10-07 13:42:27,2021-06-27 07:48:16,39.872249,-75.086134,39.874749,-75.096634,0.582957604184,Construction on I-295 SB near NJ-168 Drive with caution.,,I-295 S,R,Bellmawr,Camden,NJ,08031,US,US/Eastern,KPHL,2020-10-07 13:54:00,76.0,76.0,43.0,29.69,10.0,SW,24.0,0.0,Partly Cloudy / Windy,False,False,False,False,False,False,False,False,False,False,False,False,False,Day,Day,Day,Day
C-2810037,2,2021-05-22 04:57:30,2021-05-23 16:06:40,25.685158,-80.419893,25.685304,-80.41514699999998,0.295687576512,Slow traffic on FL-94 from 147th Ave (N Kendall Dr) to 130th Ave/132nd Ave (N Kendall Dr) due to roadwork.,13888.0,SW 88th St,L,Miami,Miami-Dade,FL,33186-1304,US,US/Eastern,KTMB,2021-05-22 04:53:00,73.0,73.0,64.0,30.16,10.0,ENE,8.0,0.0,Fair,False,False,True,False,False,False,False,False,False,False,False,True,False,Night,Night,Night,Night
C-2810038,2,2019-11-06 02:37:59,2019-11-08 03:06:00,41.485729,-87.365013,,,3.24000000954,Road closed due to maintenance work on IN-55 Taft St both ways from 65th Ave to CR-330 73rd Av.,7301.0,Taft St,L,Merrillville,Lake,IN,46410-4548,US,US/Central,KGYY,2019-11-06 02:35:00,34.0,34.0,62.0,29.75,10.0,CALM,0.0,0.0,Cloudy,False,False,False,False,False,False,False,False,False,False,False,True,False,Night,Night,Night,Night
C-2810039,2,2018-12-02 20:00:00,2018-12-03 05:30:00,39.54929,-104.86938,39.552389,-104.869838,0.215506270934,At CO-470/E-470/Exit 194 - Construction work.,,US-87 N,R,Englewood,Douglas,CO,80112,US,US/Mountain,KAPA,2018-12-02 19:53:00,27.0,20.5,72.0,30.09,10.0,East,5.8,,Overcast,False,False,False,False,True,False,False,False,False,False,False,False,False,Night,Night,Night,Night
C-2810040,2,2020-09-02 18:24:00,2020-09-02 19:04:00,33.717201,-85.02067199999998,33.721931,-84.945922,4.3082554574900005,Slow traffic on I-20 from GA-113/Exit 19 (I-20) to GA-61/GA-101/Exit 24 (I-20) due to roadwork.,,GA-402 E,R,Temple,Carroll,GA,30179,US,US/Eastern,KCTJ,2020-09-02 18:15:00,86.0,86.0,55.0,28.62,10.0,WSW,5.0,0.0,Partly Cloudy,False,False,False,False,True,False,False,False,False,False,False,False,False,Day,Day,Day,Day
C-2810041,2,2021-06-16 16:26:42,2021-06-16 19:17:09,26.681784000000004,-80.253135,26.679897,-80.247266,0.38507496037,Slow traffic on FL-80 - FL-700 - US-98 E - FL-882 - US-441 S from Big Blue Trce / F Rd to Quercus Ln / Quercus Ct due to roadwork.,13080.0,Southern Blvd,L,Loxahatchee,Palm Beach,FL,33470-9203,US,US/Eastern,KPBI,2021-06-16 16:53:00,77.0,77.0,88.0,30.01,10.0,SW,5.0,0.05,Light Rain,False,False,False,False,False,False,False,False,False,False,False,False,False,Day,Day,Day,Day
C-2810042,2,2019-01-17 23:00:00,2019-01-18 06:00:00,40.553818,-74.31794000000002,,,0.0,Left and center lane closed due to construction on US-1 Northbound after Garden State Pkwy.,,Garden State Pkwy S,R,Metuchen,Middlesex,NJ,08840,US,US/Eastern,KLDJ,2019-01-17 22:55:00,32.0,,60.0,30.25,10.0,Calm,,,Overcast,False,False,False,False,False,False,False,False,False,False,False,False,False,Night,Night,Night,Night
C-2810043,2,2021-05-21 07:00:00,2021-05-21 19:00:00,39.642716,-106.303914,39.622156,-106.278554,1.95935092478,Bridge deck is under repair at westbound MP 181 and MP 185. Motorists are urged to follow the speed limit and use caution when traveling over the bridge joint transition. There will be an east and westbound 14 ft.restriction during hours of operation.,,I-70 E,R,Vail,Eagle,CO,81657,US,US/Mountain,KCCU,2021-05-21 06:53:00,43.0,37.0,56.0,20.77,10.0,S,10.0,0.0,Mostly Cloudy,False,False,False,False,True,False,False,False,False,False,False,False,False,Day,Day,Day,Day
C-2810044,2,2019-02-13 08:00:00,2019-02-13 16:00:00,39.939233,-83.009491,39.94056,-83.01021999999998,0.0994882933813,At I-71 - Roadwork.,,I-71 N,R,Columbus,Franklin,OH,43223,US,US/Eastern,KTZR,2019-02-13 08:07:00,24.8,11.5,80.0,29.9,1.0,West,17.3,,Light Snow,False,False,False,False,False,False,False,False,False,False,False,False,False,Day,Day,Day,Day
C-2810045,2,2019-06-26 20:30:00,2019-06-27 06:30:00,28.631062,-81.383026,,,3.92000007629,Intermittent lane closures due to construction work on FL-414 Maitland Blvd both ways between CR-427 Maitland Ave and Hope Rd.,,W Maitland Blvd,R,Maitland,Orange,FL,32751,US,US/Eastern,KORL,2019-06-26 20:53:00,86.0,86.0,55.0,29.97,10.0,ENE,10.0,0.0,Fair,False,False,False,False,False,False,False,False,False,False,False,True,False,Night,Day,Day,Day
C-2810046,2,2021-07-09 13:54:11,2021-07-09 14:19:18,40.607219,-79.18119,40.60403,-79.185714,0.323830557435,Slow traffic on PA-286 from PA-286/Philadelphia St (PA-954/Philadelphia St/PA-286) to US-422 Bus/Indian Springs Rd (Oakland Ave/PA-286) due to roadwork.,2351.0,Oakland Ave,R,Indiana,Indiana,PA,15701-3392,US,US/Eastern,KIDI,2021-07-09 13:55:00,75.0,75.0,89.0,28.48,10.0,WNW,7.0,0.0,Mostly Cloudy,False,False,False,False,False,False,False,False,False,False,False,True,False,Day,Day,Day,Day
C-2810047,2,2021-12-02 13:52:00,2021-12-02 16:10:30,25.939399,-80.261341,25.940338,-80.262775,0.110216626949,Slow traffic on FL-953 - FL-860 from NW 181st St to NW 38th Ave due to roadwork.,18201.0,NW 37th Ave,R,Miami Gardens,Miami-Dade,FL,33056-3466,US,US/Eastern,KOPF,2021-12-02 13:53:00,79.0,79.0,48.0,30.08,10.0,NNW,13.0,0.0,Partly Cloudy,False,False,False,False,False,False,False,False,False,False,False,False,False,Day,Day,Day,Day
C-2810048,2,2021-12-03 07:35:00,2021-12-03 07:56:00,25.795989,-80.27346999999997,25.796574,-80.27758299999998,0.259034691246,Slow traffic from Business Rd to Miami due to roadwork.,,Central Blvd,R,Miami,Miami-Dade,FL,33122,US,US/Eastern,KMIA,2021-12-03 07:53:00,67.0,67.0,49.0,30.1,10.0,VAR,3.0,0.0,Fair,False,False,False,False,False,False,False,False,False,False,False,False,False,Day,Day,Day,Day
C-2810049,4,2020-05-19 21:53:14,2020-08-04 12:41:07,29.51311,-95.11996,29.51428,-95.12052,0.0875714790041,At I-45 - Exit ramp closed. Ramps closed. Construction work.,,I-45 N,R,Webster,Harris,TX,77598,US,US/Central,KEFD,2020-05-19 21:50:00,77.0,77.0,94.0,29.74,10.0,S,9.0,,Fair,False,False,False,False,True,False,False,False,False,False,False,False,False,Night,Night,Night,Night
C-2810050,2,2021-05-28 10:51:00,2021-05-28 12:26:00,38.590786,-75.292475,38.585381,-75.295362,0.4046915336559999,Stationary traffic on DE-24 - DE-30 from State St (Main St/DE-24) to US-113/Dupont Blvd (S Washington St/DE-24) due to roadwork.,115.0,W Church St,R,Millsboro,Sussex,DE,19966,US,US/Eastern,KGED,2021-05-28 10:54:00,74.0,74.0,55.0,29.92,10.0,ESE,14.0,0.0,Fair,False,False,False,False,False,False,False,False,False,True,False,True,False,Day,Day,Day,Day
C-2810051,2,2021-03-17 04:57:00,2021-03-17 05:33:30,32.459509999999995,-96.940607,32.464107,-96.947718,0.5222440327319999,Slow traffic on US-287 N from US-287 (Waxahachie) (West) (US-287) to S Midlothian Pkwy (US-287) due to roadwork.,4241.0,E Main St,L,Midlothian,Ellis,TX,76065-6159,US,US/Central,KJWY,2021-03-17 04:55:00,70.0,70.0,89.0,28.9,7.0,SW,10.0,0.01,Rain,False,False,False,False,False,False,False,False,False,False,False,False,False,Night,Night,Night,Night
C-2810052,2,2021-03-20 11:00:30,2021-03-20 12:18:00,41.58407800000001,-124.086552,41.619368,-124.109302,2.7068316821700003,Slow traffic on US-101 S - US-101 N from CA-169/Klamath Glen Rd/Chapman St (Redwood Hwy/US-101) to Humboldt Rd/Endert Beach Rd (Redwood Hwy/US-101) due to roadwork.,15500.0,US Highway 101 N,R,Klamath,Del Norte,CA,95548-9351,US,US/Pacific,KCEC,2021-03-20 10:56:00,46.0,41.0,86.0,30.31,8.0,S,9.0,0.0,Cloudy,False,False,False,False,False,False,False,False,False,False,False,False,False,Day,Day,Day,Day
C-2810053,2,2017-12-13 11:35:46,2017-12-23 23:59:00,28.39752,-80.613281,,,4.53999996185,Intermittent lane closures due to construction on FL-A1A Astronaut Blvd both ways from FL-528 to Imperial Blvd.,699.0,Imperial Blvd,R,Cape Canaveral,Brevard,FL,32920,US,US/Eastern,KXMR,2017-12-13 11:58:00,57.7,,37.0,30.09,10.0,NW,10.4,,Clear,False,False,True,False,False,False,False,False,False,False,False,False,False,Day,Day,Day,Day
C-2810054,2,2019-06-04 23:00:00,2019-06-06 05:00:00,40.72873,-74.03166,40.726292,-74.013113,0.98563051309,Between Boyle Plz and Hudson St/Exit 1/Exit 2 - Construction work. Lane blocked.,,Holland Tunl E,R,Jersey City,Hudson,NJ,07310,US,US/Eastern,KJRB,2019-06-04 22:51:00,66.0,66.0,40.0,29.85,10.0,VAR,5.0,0.0,Fair,True,False,True,False,False,False,False,False,False,False,False,False,False,Night,Night,Night,Night
C-2810055,2,2020-08-04 04:01:00,2020-08-04 12:46:00,32.74519,-117.18849,32.7434,-117.18462,0.256664305787,Construction on I-5 SB near HANCOCK ST Construction. Expect long delays.,,I-5 S,R,San Diego,San Diego,CA,92110,US,US/Pacific,KSAN,2020-08-04 03:51:00,63.0,63.0,97.0,29.93,1.0,S,6.0,0.0,Fog,False,False,False,False,True,False,False,False,False,False,False,False,False,Night,Night,Night,Night
C-2810056,2,2021-07-27 08:33:30,2021-07-27 09:04:00,44.883459,-93.210519,44.881249,-93.209353,0.163017567752,Slow traffic at Northwest Dr due to roadwork.,,Glumack Dr,R,Saint Paul,Hennepin,MN,55111,US,US/Central,KMSP,2021-07-27 08:53:00,80.0,80.0,64.0,29.06,9.0,CALM,0.0,0.0,Fair,True,False,False,False,False,False,False,False,False,False,False,False,False,Day,Day,Day,Day
C-2810057,2,2021-06-15 20:00:00,2021-06-16 06:00:00,32.955002,-97.039909,,,0.0,Two lanes closed due to construction work on TX-121 Northbound at Bass Pro.,,TX-121 N,R,Grapevine,Tarrant,TX,76051,US,US/Central,KDFW,2021-06-15 19:53:00,92.0,92.0,37.0,29.31,10.0,E,6.0,0.0,Fair,False,False,False,False,False,False,False,False,False,False,False,False,False,Day,Day,Day,Day
C-2810058,2,2020-04-06 21:00:00,2020-04-10 06:00:00,28.535549,-81.38485,,,0.0399999991059,Entry ramp to East-West Expy Westbound from S Division Ave Southbound closed due to maintenance work.,553.0,S Division Ave,L,Orlando,Orange,FL,32805,US,US/Eastern,KORL,2020-04-06 20:53:00,72.0,72.0,64.0,29.97,10.0,E,8.0,0.0,Fair,False,False,False,False,False,False,False,False,False,False,False,False,False,Night,Night,Night,Day
C-2810059,2,2021-12-16 12:28:00,2021-12-16 14:35:42,40.166059,-75.288682,40.166451,-75.290872,0.118760688613,Stationary traffic on US-202 S - US-202 N - PA-73 from Crestline Dr to I-476 N due to roadwork.,1328.0,Skippack Pike,L,Blue Bell,Montgomery,PA,19422-1249,US,US/Eastern,KLOM,2021-12-16 12:35:00,60.0,60.0,46.0,29.73,10.0,SSW,8.0,0.0,Fair,False,False,False,False,False,False,False,False,False,False,False,False,False,Day,Day,Day,Day
C-2810060,2,2021-03-04 05:05:00,2021-03-04 20:25:06,25.791338,-80.141182,25.792028,-80.141903,0.0654577167967,Stationary traffic on FL-907 from Lincoln Rd to Dade Blvd / Bay Rd due to roadwork.,1673.0,Alton Rd,R,Miami Beach,Miami-Dade,FL,33139-2427,US,US/Eastern,KMIA,2021-03-04 04:53:00,60.0,60.0,80.0,29.98,10.0,W,8.0,0.0,Cloudy,True,False,False,False,False,False,False,False,False,True,True,False,False,Night,Night,Night,Night
C-2810061,2,2021-12-27 16:59:00,2021-12-27 19:03:13,47.820974,-122.296123,47.821463,-122.292343,0.178588824137,Slow traffic on WA-524 from 48th Ave W to 194th St SW due to roadwork.,4616.0,196th St SW,R,Lynnwood,Snohomish,WA,98036-5515,US,US/Pacific,KPAE,2021-12-27 16:53:00,19.0,19.0,81.0,29.16,10.0,VAR,3.0,0.0,Cloudy,False,False,False,False,False,False,False,False,False,False,False,False,False,Night,Night,Day,Day
C-2810062,2,2020-04-27 17:40:17,2020-08-20 15:00:00,28.99785,-95.38498,29.01532000000001,-95.39316,1.30434699789,Between TX-332 and Plantation Dr - Construction work.,,TX-288,R,Freeport,Brazoria,TX,77541,US,US/Central,KLBX,2020-04-27 17:53:00,78.0,78.0,64.0,30.03,10.0,SE,14.0,0.0,Mostly Cloudy,False,False,False,False,True,False,False,False,False,False,False,True,False,Day,Day,Day,Day
C-2810064,2,2020-10-24 00:45:32,2020-10-24 02:40:30,40.692814,-73.854682,40.693616,-73.85225600000003,0.138646830735,Slow traffic from 75th St (Jamaica Ave) to Woodhaven Blvd (Jamaica Ave) due to resurfacing work.,8682.0,90th St,R,Woodhaven,Queens,NY,11421-1332,US,US/Eastern,KJFK,2020-10-24 00:51:00,62.0,62.0,93.0,30.03,10.0,SSW,6.0,0.0,Mostly Cloudy,True,False,False,False,False,False,True,False,True,False,False,True,False,Night,Night,Night,Night
C-2810065,3,2019-09-13 20:00:00,2019-09-14 07:00:00,39.163536,-84.510452,,,3.75999999046,One lane closed due to construction work on I-75 Northbound between Exits 3 4 I-74 and Exit 6 Mitchell Ave.,,W Mitchell Ave,R,Cincinnati,Hamilton,OH,45232,US,US/Eastern,KLUK,2019-09-13 19:53:00,83.0,83.0,56.0,29.53,10.0,SW,7.0,0.0,Fair,False,False,False,False,False,False,False,False,False,False,False,False,False,Night,Day,Day,Day
C-2810066,2,2019-09-14 19:00:25,2019-09-18 21:48:06,42.00619,-93.59082,42.00679,-93.58243,0.432742788248,At Dayton Ave/Exit 150 - Roadwork.,,US-30 E,R,Ames,Story,IA,50010,US,US/Central,KAMW,2019-09-14 21:53:00,69.0,69.0,90.0,28.99,10.0,SE,6.0,0.0,Mostly Cloudy,False,False,False,False,False,False,False,False,False,False,False,False,False,Day,Day,Day,Day
C-2810067,4,2021-09-29 00:04:22,2021-10-06 23:59:00,47.571358,-122.361009,47.571571,-122.362132,0.0543782922279,Bridge closure from W Seattle Brg E to SW Spokane St.,,W Seattle Brg E,R,Seattle,King,WA,98106,US,US/Pacific,KBFI,2021-09-29 00:53:00,54.0,54.0,77.0,30.08,10.0,S,6.0,0.0,Cloudy,False,False,True,False,True,False,False,False,False,False,False,True,False,Night,Night,Night,Night
C-2810068,2,2020-03-30 09:15:24,2020-04-01 15:00:00,40.65856,-74.43905,40.65153,-74.45845,1.12694820011,At CR-531/Exit 40 - Roadwork. Right lane closed.,,I-78 W,R,Watchung,Somerset,NJ,07069,US,US/Eastern,KLDJ,2020-03-30 09:35:00,46.0,46.0,83.0,29.96,10.0,CALM,0.0,0.0,Cloudy,False,False,False,False,False,False,False,False,False,False,False,False,False,Day,Day,Day,Day
C-2810069,2,2020-11-24 13:00:51,2020-11-25 09:57:31,35.191537,-101.87945,35.19159699999999,-101.88936,0.5595854549620001,Roadwork on Julian Blvd/Paramount Blvd/Exit 68A (I-40) from Western St/Exit 67 (I-40) to I-40 W.,,I-40 W,R,Amarillo,Potter,TX,79102,US,US/Central,KAMA,2020-11-24 12:53:00,59.0,59.0,39.0,26.04,10.0,W,28.0,0.0,Mostly Cloudy / Windy,False,False,False,False,True,False,False,False,False,False,False,False,False,Day,Day,Day,Day
C-2810070,4,2021-01-15 15:30:00,2021-01-16 01:00:00,40.608397,-81.366323,40.625967,-81.360073,1.2574481816299998,OH-800 is closed from Sandyville Rd NE to Jennie Brick Rd NE / Dover Zoar Rd NE due to roadwork.,9002.0,State Route 800 NE,L,Mineral City,Tuscarawas,OH,44656-9203,US,US/Eastern,KPHD,2021-01-15 15:43:00,34.0,30.0,96.0,28.68,2.0,S,5.0,0.02,Light Snow,False,False,False,False,False,False,False,False,False,False,False,False,False,Day,Day,Day,Day
C-2810071,2,2020-07-16 14:00:00,2020-07-16 23:45:00,32.398392,-85.745469,32.395016,-85.751088,0.402330210272,Construction on US-80 WB near MM 170 Drive with caution.,,County Road 67,R,Tuskegee,Macon,AL,36083,US,US/Central,KAUO,2020-07-16 13:56:00,88.0,88.0,57.0,29.33,10.0,VAR,5.0,0.0,Fair,False,False,False,False,False,False,False,False,False,False,False,False,False,Day,Day,Day,Day
C-2810072,2,2018-06-13 09:01:18,2018-06-13 15:01:18,40.624641,-74.141468,40.62428900000001,-74.138756,0.144285744648,At Marianne St - Construction work. Lane blocked.,1.0,Crystal Ave,L,Staten Island,Richmond,NY,10302-2513,US,US/Eastern,KEWR,2018-06-13 08:51:00,69.1,,81.0,29.99,10.0,SSW,8.1,0.0,Light Rain,False,False,True,False,False,False,False,False,True,True,False,True,False,Day,Day,Day,Day
C-2810073,2,2019-05-08 21:00:00,2019-05-09 05:00:00,29.710011,-98.44857,,,0.0,Intermittent lane closures and restrictions due to construction during the night on US-281 Westbound at Borgfeld Dr.,27900.0,US Highway 281 N,R,San Antonio,Bexar,TX,78260-2149,US,US/Central,KSAT,2019-05-08 20:51:00,75.0,75.0,79.0,28.85,10.0,E,6.0,0.0,Mostly Cloudy,False,False,False,False,False,False,False,False,False,False,False,False,False,Night,Night,Day,Day
C-2810074,2,2020-10-28 15:45:00,2020-10-28 22:15:00,34.350224,-118.504081,34.383814,-118.486061,2.53821798091,Lane closure due to Slope Repair Work between Newhall Ave and Placerita Canyon Rd,,Antelope Valley Fwy N,R,Newhall,Los Angeles,CA,91321,US,US/Pacific,K3A6,2020-10-28 15:51:00,77.0,77.0,26.0,29.12,10.0,SE,9.0,0.0,Fair,False,False,False,False,False,False,False,False,False,False,False,False,False,Day,Day,Day,Day
C-2810075,2,2021-06-07 14:09:00,2021-10-05 15:56:00,42.476355,-83.082915,42.476314,-83.085494,0.131457109998,Slow traffic from Ryan Rd (E 10 Mile Rd) to Service Rd/Dei St (E 10 Mile Rd) due to roadwork.,2002.0,E 10 Mile Rd,R,Warren,Macomb,MI,48091-1380,US,US/Eastern,KDET,2021-06-07 13:53:00,81.0,81.0,67.0,29.34,10.0,SSW,12.0,0.0,Cloudy,False,False,False,False,False,False,False,False,False,False,False,False,False,Day,Day,Day,Day
C-2810076,2,2018-08-07 04:13:00,2018-08-08 23:59:00,37.421547,-77.83606,,,0.0,Road closed due to barrier repairs on Petersburg Rd both ways from VA-639 Pilkington Rd to Skinquarter Rd.,23798.0,Skinquarter Rd,R,Moseley,Chesterfield,VA,23120-1339,US,US/Eastern,KFCI,2018-08-07 04:56:00,70.0,,100.0,30.06,4.0,Calm,,,Clear,False,False,False,False,False,False,False,False,False,False,False,False,False,Night,Night,Night,Night
C-2810077,4,2021-10-09 05:43:24,2021-10-12 23:59:00,41.58968400000001,-81.198993,41.589454,-81.200775,0.0934482653429999,Closed road from Maple Ave to Downing Dr due to roadwork.,201.0,Chardon Ave,R,Chardon,Geauga,OH,44024-1019,US,US/Eastern,KCGF,2021-10-09 05:35:00,67.0,67.0,93.0,29.09,10.0,SSE,5.0,0.0,Cloudy,False,False,False,False,False,False,False,False,False,False,False,False,False,Night,Night,Night,Night
C-2810078,3,2018-05-04 02:06:30,2018-05-04 06:00:00,41.54081,-72.994606,,,5.73999977112,Left lane closed due to construction work on I-84 Eastbound from Exits 19 20 CT-8 to Exit 25 Plank Rd.,,Scott Rd,R,Waterbury,New Haven,CT,06705,US,US/Eastern,KOXC,2018-05-04 01:51:00,66.9,,90.0,29.96,10.0,WSW,4.6,0.01,Scattered Clouds,False,False,False,False,False,False,False,False,False,False,False,False,False,Night,Night,Night,Night
C-2810079,2,2021-04-20 13:53:00,2021-04-20 15:36:00,39.725678,-105.013467,39.720147,-105.007508,0.49631429014,Slow traffic on US-85 S - I-25 S - US-87 S from Zuni St/Exit 209 (I-25) to CO-26/Alameda Ave/Exit 208 (I-25) due to roadwork.,,I-25 S,R,Denver,Denver,CO,80204,US,US/Mountain,KBJC,2021-04-20 13:45:00,32.0,26.0,44.0,24.53,10.0,E,6.0,0.0,Partly Cloudy,False,False,False,False,True,False,False,False,False,False,False,False,False,Day,Day,Day,Day
C-2810080,2,2021-07-08 23:49:00,2021-07-09 03:45:00,42.28765300000001,-95.6513,42.298,-95.626899,1.4375009683200002,Construction on IA-175 EB near IA-141 Allow extra time.,5216.0,Highway 175,R,Battle Creek,Ida,IA,51006-8601,US,US/Central,KDNS,2021-07-08 23:55:00,66.0,66.0,94.0,28.6,10.0,ESE,8.0,0.0,Cloudy,False,False,False,False,False,False,False,False,False,False,False,False,False,Night,Night,Night,Night
C-2810081,2,2021-09-26 10:54:30,2021-09-26 11:14:30,40.765746,-73.962951,40.76865,-73.969814,0.411384945603,Slow traffic from 2nd Ave (E 66th St) to 5th Ave (E 66th St) due to roadwork.,201.0,E 66th St,L,New York,New York,NY,10065-0110,US,US/Eastern,KNYC,2021-09-26 10:51:00,66.0,66.0,48.0,29.83,10.0,VAR,7.0,0.0,Fair,False,False,True,False,False,False,False,False,False,False,False,True,False,Day,Day,Day,Day
C-2810082,2,2021-07-01 19:00:00,2021-07-01 23:45:00,41.633259,-91.015516,41.633999,-90.923446,4.754860977190001,Construction on I-80 EB near IA-38 Construction. Right lane closed.,,I-80 E,R,Wilton,Cedar,IA,52778,US,US/Central,KMUT,2021-07-01 18:55:00,82.0,82.0,48.0,29.43,10.0,NE,10.0,0.0,Fair,False,False,False,False,True,False,False,False,False,False,False,False,False,Day,Day,Day,Day
C-2810084,2,2021-04-07 05:29:00,2021-12-30 14:48:58,33.481233,-111.92625,33.480269,-111.925222,0.0891405256583,Stationary traffic from E Earll Dr to N 73rd St due to roadwork.,2930.0,N Scottsdale Rd,L,Scottsdale,Maricopa,AZ,85251-7208,US,US/Mountain,KPHX,2021-12-30 12:51:00,58.0,58.0,62.0,28.75,10.0,E,3.0,0.0,Mostly Cloudy,False,False,False,False,False,False,False,False,True,False,False,False,False,Night,Night,Day,Day
C-2810085,2,2020-05-28 16:30:00,2020-07-04 00:00:59,33.244918,-111.772638,33.246508,-111.772638,0.109858537083,Lindsay Rd. - Construction - 24 hour closure on Lindsay Rd. from Brooks Farm Rd to Glacier Rd,,S Lindsay Rd,R,Chandler,Maricopa,AZ,85249,US,US/Mountain,KCHD,2020-05-28 16:47:00,108.0,108.0,6.0,28.49,10.0,W,8.0,,Fair,False,False,False,False,False,False,False,False,False,True,False,False,False,Day,Day,Day,Day
C-2810087,2,2021-06-16 09:15:00,2021-06-17 12:19:20,40.06098400000001,-76.276515,40.118364,-76.04799100000002,12.7135209576,Construction on PA-23 EB near STATE RTE-8024 Allow extra time.,1344.0,New Holland Pike,R,Lancaster,Lancaster,PA,17601-5612,US,US/Eastern,KLNS,2021-06-16 08:53:00,67.0,67.0,49.0,29.49,10.0,N,9.0,0.0,Partly Cloudy,False,False,True,True,False,False,False,False,False,False,False,True,False,Day,Day,Day,Day
C-2810088,2,2020-11-12 14:18:00,2020-11-13 01:40:38,28.261942,-81.48618499999998,28.255342,-81.484276,0.4705834511289999,Slow traffic on US-92 E - US-17 N from Kissimmee to Business Center Ln due to roadwork.,1548.0,S Poinciana Blvd,R,Kissimmee,Osceola,FL,34746,US,US/Eastern,KISM,2020-11-12 13:56:00,82.0,82.0,85.0,29.75,10.0,W,18.0,0.0,Cloudy,False,False,False,False,False,False,False,False,False,False,False,False,False,Day,Day,Day,Day
C-2810089,2,2020-02-07 09:05:26,2020-02-11 09:07:27,40.11537,-75.16613000000002,40.11537,-75.16613000000002,0.0,At Jenkintown Rd - Roadwork. Open.,3016.0,Limekiln Pike,L,Glenside,Montgomery,PA,19038-1620,US,US/Eastern,KLOM,2020-02-07 09:15:00,56.0,56.0,99.0,28.61,5.0,S,20.0,0.04,Heavy Rain,False,False,False,False,False,False,False,False,False,False,False,False,False,Day,Day,Day,Day
C-2810090,2,2021-12-02 18:39:00,2021-12-02 20:44:46,30.718124,-86.569437,30.725546,-86.568593,0.515255847386,Slow traffic on FL-85 from P J Adams Pkwy (FL-85) to I-10/FL-8 (FL-85) due to roadwork.,4403.0,S Ferdon Blvd,L,Crestview,Okaloosa,FL,32539,US,US/Central,KCEW,2021-12-02 18:53:00,56.0,56.0,93.0,29.94,8.0,CALM,0.0,0.0,Fair,False,False,False,False,False,False,False,False,False,False,False,False,False,Night,Night,Night,Night
C-2810091,2,2017-05-16 05:31:54,2017-05-16 11:31:54,38.88873,-77.05184,38.886829,-77.05703299999998,0.308627794162,At Arlington Memorial Brg - Construction work.,,Lincoln Memorial Cir SW,R,Washington,District of Columbia,DC,20037,US,US/Eastern,KDCA,2017-05-16 05:52:00,55.9,,67.0,30.06,10.0,Calm,,,Mostly Cloudy,False,False,False,False,False,False,False,False,False,False,False,False,False,Night,Day,Day,Day
C-2810092,2,2016-06-01 05:01:10,2016-06-01 11:01:10,34.10662,-117.43579,34.106192,-117.435781,0.0295764655814,At Miller Ave - Construction work.,,Foothill Blvd,R,Fontana,San Bernardino,CA,92335,US,US/Pacific,KONT,2016-06-01 04:53:00,60.1,,86.0,29.84,4.0,SSW,4.6,,Overcast,False,False,True,False,False,False,False,False,True,False,False,False,False,Night,Night,Day,Day
C-2810093,2,2021-01-25 05:19:30,2021-01-25 05:50:00,32.882928,-96.695458,32.878919,-96.688721,0.479102310387,Stationary traffic on I-635 E - LBJ Fwy E from Greenville Ave exit [18A] to exit [12] due to roadwork.,,I-635 E,R,Dallas,Dallas,TX,75238,US,US/Central,KDAL,2021-01-25 05:37:00,59.0,59.0,83.0,29.11,10.0,NW,16.0,0.0,Cloudy,False,False,False,False,False,False,False,False,False,False,False,False,False,Night,Night,Night,Night
C-2810094,2,2021-05-12 08:54:06,2021-05-12 16:45:00,41.337507,-72.978647,41.341497,-72.974047,0.364616187984,ConnDOT: Road Work on RT15 Northbound between Exits 59 and 60 (3.4 miles) in effect today until 4:00 pm. The right lane is closed. Reported Wednesday May 12 at 8:55 am.,,CT-15 N,R,New Haven,New Haven,CT,06515,US,US/Eastern,KHVN,2021-05-12 08:53:00,53.0,53.0,52.0,30.12,10.0,WNW,7.0,0.0,Fair,False,False,False,False,True,False,False,False,False,False,False,False,False,Day,Day,Day,Day
C-2810095,2,2021-10-19 18:04:10,2021-10-19 20:09:29,40.734574,-74.168079,40.733373,-74.16676600000002,0.107756317608,Stationary traffic on County Hwy-510 - NJ-21 from Mulberry St to Edison Pl due to roadwork.,248.0,Market St,R,Newark,Essex,NJ,07102,US,US/Eastern,KEWR,2021-10-19 17:51:00,68.0,68.0,33.0,29.91,10.0,W,14.0,0.0,Fair,False,False,False,False,False,False,False,False,False,False,False,True,False,Day,Day,Day,Day
C-2810096,2,2021-10-22 16:46:00,2021-10-22 17:07:00,33.480417,-112.201414,33.481027000000005,-112.203275,0.115231722805,Slow traffic from N 65th Ave to W Catalina Dr due to roadwork.,6548.0,W Thomas Rd,L,Phoenix,Maricopa,AZ,85033-5736,US,US/Mountain,KGEU,2021-10-22 16:58:00,88.0,88.0,16.0,28.68,10.0,S,5.0,0.0,Fair,False,False,False,False,False,False,False,False,True,False,False,False,False,Day,Day,Day,Day
C-2810097,3,2021-08-19 21:00:00,2021-08-20 05:00:00,38.830494,-76.87365,,,0.0,Intermittent lane closures due to construction work on I-495 Capital Beltway both ways at MD-337.,,Suitland Pkwy,R,Suitland,Prince George's,MD,20746,US,US/Eastern,KWBC,2021-08-19 21:56:00,76.0,76.0,86.0,29.66,10.0,WSW,8.0,0.0,Fair,False,False,False,False,False,False,False,False,False,False,False,False,False,Night,Night,Night,Day
C-2810098,3,2018-05-10 04:45:33,2018-05-10 05:00:00,39.11599,-84.500099,,,0.389999985695,Exit ramp from I-71 Northbound at Exit 2 to US-42 Northbound closed due to maintenance work.,,I-71 N,R,Cincinnati,Hamilton,OH,45202,US,US/Eastern,KLUK,2018-05-10 04:44:00,66.0,,84.0,29.85,10.0,SSW,10.4,0.01,Thunderstorm,False,False,False,False,True,False,False,False,False,False,False,False,False,Night,Night,Night,Day
C-2810099,4,2020-09-21 17:01:00,2021-02-23 09:43:14,41.976315,-91.668028,41.975614,-91.669631,0.0955283963261,Bridge closure from 1st St SE to I-380 N / 3rd Ave SW.,265.0,1st St SE,R,Cedar Rapids,Linn,IA,52401,US,US/Central,KCID,2020-09-21 16:52:00,74.0,74.0,40.0,29.26,10.0,S,10.0,0.0,Fair,False,False,True,False,False,False,False,False,False,False,False,True,False,Day,Day,Day,Day
C-2810100,2,2021-06-21 07:11:00,2021-06-21 08:40:30,39.379469,-100.553164,39.379285,-100.571676,0.988744471297,Stationary traffic on US-24 E - US-24 W from KS-23/Main St (Oak Ave/US-24) to KS-188 (US-24) due to roadwork.,,Road 60W,R,Hoxie,Sheridan,KS,67740,US,US/Central,KHLC,2021-06-21 06:53:00,61.0,61.0,87.0,27.74,10.0,N,9.0,0.01,Cloudy,False,False,False,False,False,False,False,False,False,False,False,False,False,Day,Day,Day,Day
C-2810101,2,2021-02-25 08:21:00,2021-02-25 15:40:00,40.510965,-78.398804,40.50862,-78.40093900000002,0.1970543812139999,Slow traffic on PA-764 from 8th St (7th Ave/6th Ave/PA-764) to 17th St (7th Ave/6th Ave/PA-764) due to roadwork.,1351.0,7th Ave,L,Altoona,Blair,PA,16602,US,US/Eastern,KAOO,2021-02-25 07:53:00,32.0,25.0,61.0,28.55,10.0,NW,8.0,0.0,Partly Cloudy,False,False,False,False,False,False,False,False,False,False,False,True,False,Day,Day,Day,Day
C-2810102,2,2017-10-10 09:01:10,2017-10-10 15:01:10,25.895423,-80.24361999999998,25.893667,-80.24355200000002,0.121401642825,At SR-924/Gratigny Rd - Construction work.,,NW 27th Ave,R,Opa Locka,Miami-Dade,FL,33054,US,US/Eastern,KOPF,2017-10-10 08:53:00,84.0,,72.0,30.01,10.0,East,12.7,,Partly Cloudy,False,False,False,False,False,False,False,False,True,False,False,False,False,Day,Day,Day,Day
C-2810103,3,2017-01-06 01:00:00,2017-01-06 08:00:00,47.636703,-122.323296,,,0.76,One lane closed due to construction work on I-5 Northbound from Exits 166 167 Eastlake Ave to Exit 168A Boylston Ave.,,I-5 S,R,Seattle,King,WA,98102,US,US/Pacific,KBFI,2017-01-06 00:53:00,26.1,16.8,78.0,30.15,10.0,SSE,9.2,,Clear,False,False,False,False,False,False,False,False,False,False,False,False,False,Night,Night,Night,Night
C-2810104,2,2021-11-09 15:31:18,2021-11-09 15:51:18,35.62556400000001,-87.834661,35.634244,-87.829769,0.65966155895,Slow traffic on TN-13 from US-412/TN-100/TN-20/E Main St (TN-13) to TN-438/Old TN-13 (TN-13) due to roadwork.,565.0,Lobelville Hwy,L,Linden,Perry,TN,37096-6018,US,US/Central,KMRC,2021-11-09 15:30:00,72.0,72.0,38.0,29.4,6.0,S,9.0,0.0,Haze,False,False,False,False,False,False,False,False,False,False,False,False,False,Day,Day,Day,Day
C-2810105,2,2021-03-30 11:38:48,2021-03-30 16:45:00,41.10643,-73.415526,41.10791,-73.408606,0.37449097356,Construction on I-95 NB near EXIT 16 Construction. Right lane closed.,,Governor John Davis Lodge Tpke,R,Norwalk,Fairfield,CT,06854,US,US/Eastern,KHPN,2021-03-30 11:56:00,54.0,54.0,35.0,29.92,10.0,S,16.0,0.0,Fair,False,False,False,False,False,False,False,False,False,False,False,False,False,Day,Day,Day,Day
C-2810106,2,2020-10-11 23:10:00,2020-10-12 03:27:00,41.061373,-114.522882,41.073305,-114.546806,1.4942618719,Slow traffic on I-80 from NV-233/Exit 378 (I-80) to Exit 373 (I-80) due to roadwork.,,I-80 W,R,Montello,Elko,NV,89830,US,US/Pacific,,,,,,,,,,,,False,False,False,False,False,False,False,False,False,False,False,False,False,Night,Night,Night,Night
C-2810107,2,2021-05-11 04:26:00,2021-05-11 12:40:29,40.719787,-73.99853399999998,40.721064,-73.998196,0.0899901005431,Slow traffic from Canal St to Lafayette St due to roadwork.,228.0,Centre St,R,New York,New York,NY,10013-3612,US,US/Eastern,KJRB,2021-05-11 04:51:00,50.0,50.0,66.0,29.92,10.0,NW,3.0,0.0,Fair,True,False,True,False,False,False,False,False,False,False,False,True,False,Night,Night,Night,Day
C-2810108,2,2018-01-18 09:00:00,2018-09-01 15:00:00,38.77962,-76.99715,38.781409,-76.997496,0.125005108295,Between Kerby Hill Rd/Livingston Rd and I-95/I-295/I-495/Oxon Hill Rd - Construction work.,7974.0,Indian Head Hwy,L,Fort Washington,Prince George's,MD,20744-4502,US,US/Eastern,KDCA,2018-01-18 08:52:00,25.0,14.8,45.0,30.2,10.0,WNW,10.4,,Partly Cloudy,False,False,False,False,False,False,False,False,False,False,False,False,False,Day,Day,Day,Day
C-2810109,2,2020-04-23 20:02:08,2020-04-27 20:01:34,34.01874,-118.49235,34.01739,-118.49077,0.129953574752,At Broadway - Construction work.,700.0,Santa Monica Blvd,R,Santa Monica,Los Angeles,CA,90401-2602,US,US/Pacific,KSMO,2020-04-23 19:51:00,68.0,68.0,68.0,29.66,10.0,S,6.0,0.0,Fair,True,False,False,False,False,False,False,False,False,False,False,True,False,Night,Night,Day,Day
C-2810110,2,2020-11-30 15:27:00,2020-12-01 00:27:14,41.132629,-112.064497,41.140956,-112.064456,0.575344860412,Slow traffic on UT-108 from W 800 N (N 2000 W/UT-108) to W 6000 S (S 3500 W/UT-108) due to roadwork.,1848.0,W 1300 N,R,Clearfield,Davis,UT,84015-8208,US,US/Mountain,KHIF,2020-11-30 14:58:00,44.0,44.0,33.0,25.3,10.0,WSW,3.0,0.0,Fair,False,False,False,False,False,False,False,False,True,False,False,True,False,Day,Day,Day,Day
C-2810111,2,2020-03-26 02:08:00,2020-03-26 04:08:00,38.8691,-77.04758000000002,38.83347,-77.10291,3.8631938139,Between GW Pky/Exit 11 and VA-7/King St/Exit 5 - Roadwork. Center lane closed.,,Henry Shirley Memorial Hwy S,R,Arlington,Arlington,VA,22202,US,US/Eastern,KDCA,2020-03-26 01:52:00,46.0,42.0,86.0,30.09,10.0,NNW,7.0,0.0,Cloudy,False,False,False,False,True,False,False,False,False,False,False,False,False,Night,Night,Night,Night
C-2810112,2,2019-02-14 09:03:45,2019-02-19 09:03:18,26.754801,-80.10882099999998,26.75985,-80.10844,0.349643691956,Between Shiloh Dr and 45th St - Roadwork. Lane blocked.,5100.0,N Military Trl,R,West Palm Beach,Palm Beach,FL,33407,US,US/Eastern,KPBI,2019-02-14 08:53:00,62.1,,75.0,30.06,10.0,North,9.2,,Partly Cloudy,False,False,False,False,False,False,False,False,False,False,False,True,False,Day,Day,Day,Day
C-2810113,2,2020-09-09 01:18:30,2020-09-09 03:22:00,43.151594,-79.03269499999998,43.150923,-79.030082,0.139635077609,Stationary traffic on I-190 from Lewiston Queenston Bridge (I-190) to NY-265/Exit 25 (I-190) due to roadwork.,,I-190 S,R,Lewiston,Niagara,NY,14092,US,US/Eastern,KIAG,2020-09-09 00:53:00,61.0,61.0,,,,E,8.0,0.0,,False,True,False,False,False,False,False,False,False,False,True,False,False,Night,Night,Night,Night
C-2810114,2,2021-12-10 14:47:14,2021-12-10 17:18:58,26.28562,-80.188526,26.286888,-80.186255,0.165734646397,Slow traffic from N State Road 7 to Hilton Rd / Banyan Trails Dr due to roadwork.,4746.0,Wiles Rd,R,Pompano Beach,Broward,FL,33073,US,US/Eastern,KPMP,2021-12-10 14:53:00,82.0,82.0,67.0,30.06,10.0,E,12.0,0.0,Partly Cloudy,False,False,False,False,False,False,False,False,False,False,False,False,False,Day,Day,Day,Day
C-2810115,2,2021-09-28 14:30:30,2021-09-28 14:58:30,25.942304,-80.31026999999997,25.943457,-80.3069,0.224024444226,Slow traffic on FL-860 from Bobolink Dr to NW 188th Ter due to roadwork.,,NW 186th St,R,Hialeah,Miami-Dade,FL,33015,US,US/Eastern,KOPF,2021-09-28 14:53:00,89.0,89.0,40.0,29.96,10.0,ENE,12.0,0.0,Fair,False,False,False,False,False,False,False,False,True,False,False,True,False,Day,Day,Day,Day
C-2810116,2,2021-09-07 07:00:00,2021-09-10 23:59:59,38.331631,-75.087486,38.331561,-75.086156,0.0722470873076999,BRICK/CONCRETE WORK. WORCESTER COUNTY: MD-528 SOUTH AT (US-50) N DIVISION ST,199.0,N Division St,R,Ocean City,Worcester,MD,21842-4034,US,US/Eastern,KOXB,2021-09-07 06:53:00,,,,29.99,,,,0.0,,True,False,True,False,False,False,False,False,False,False,False,True,False,Day,Day,Day,Day
C-2810117,2,2021-06-03 09:54:30,2021-06-03 11:44:00,48.178599,-103.199276,48.178347,-103.183425,0.730500455434,Stationary traffic on ND-1804 from 116th Ave NW to 115th Ave NW due to roadwork.,,116th Ave NW,R,Ray,Williams,ND,58849,US,US/Central,KD60,2021-06-03 09:55:00,79.0,79.0,34.0,27.46,10.0,VAR,6.0,0.0,Fair,False,False,False,False,False,False,False,False,False,False,False,False,False,Day,Day,Day,Day
C-2810118,2,2020-12-18 12:16:30,2020-12-19 01:30:41,40.750738,-73.99452,40.753134,-73.995717,0.17700682209,Slow traffic from W 31st St to Dyer Ave due to roadwork.,441.0,8th Ave,L,New York,New York,NY,10001-2755,US,US/Eastern,KNYC,2020-12-18 11:51:00,30.0,22.0,59.0,30.16,10.0,WNW,9.0,0.0,Cloudy,True,False,True,False,False,False,False,False,True,False,False,True,False,Day,Day,Day,Day
C-2810119,2,2020-05-25 17:30:10,2020-07-29 16:58:18,41.04178,-86.59836,41.02316,-86.58345,1.50300554994,At S 250 East/Oak St - Roadwork. Single alternate lane traffic.,199.0,Michigan,L,Winamac,Pulaski,IN,46996,US,US/Central,KOXI,2020-05-28 05:55:00,68.0,68.0,88.0,29.17,10.0,SSE,5.0,,Cloudy,False,False,False,False,False,False,False,False,False,False,False,False,False,Day,Day,Day,Day
C-2810120,2,2021-08-30 15:59:30,2021-08-30 16:19:30,40.116435,-88.221944,40.116201,-88.219459,0.1322949790839999,Stationary traffic on US-45 S - US-45 N - US-150 W - US-150 E from N Harvey St to N Lincoln Ave due to roadwork.,1074.0,W University Ave,R,Urbana,Champaign,IL,61801-2441,US,US/Central,KCMI,2021-08-30 15:53:00,79.0,79.0,82.0,29.13,10.0,SE,13.0,0.0,Partly Cloudy,True,False,True,False,False,False,True,False,False,False,False,True,False,Day,Day,Day,Day
C-2810121,2,2021-02-22 05:47:30,2021-02-22 17:39:30,47.690482,-122.307938,47.687485,-122.312193,0.286434273328,Stationary traffic on WA-522 from Ravenna Ave (WA-522) to 80th St (WA-522) due to roadwork.,8510.0,Lake City Way NE,R,Seattle,King,WA,98115-3259,US,US/Pacific,KBFI,2021-02-22 05:53:00,50.0,50.0,86.0,30.17,10.0,S,15.0,0.0,Cloudy,True,False,True,False,False,False,False,False,False,False,False,True,False,Night,Night,Night,Day
C-2810122,2,2021-01-19 19:35:00,2021-01-19 22:34:30,39.953648,-82.992952,39.955199,-82.98436099999998,0.467462439824,Slow traffic on I-70 E - East Fwy E from US-23/4th St/Exit 100 (I-70/I-71) to I-70/I-71 (Columbus) (East) (I-70/I-71) due to roadwork.,,I-70 E,R,Columbus,Franklin,OH,43215,US,US/Eastern,KCMH,2021-01-19 19:51:00,36.0,30.0,57.0,29.24,10.0,SW,7.0,0.0,Cloudy,False,False,False,False,False,False,False,False,False,False,False,False,False,Night,Night,Night,Night
C-2810123,2,2021-06-07 13:58:33,2021-06-07 16:01:12,43.66500900000001,-116.354553,43.662487,-116.35456299999998,0.174254320944,Slow traffic on ID-55 from ID-44 Byp/S Eagle Rd (ID-55) to W McMillan Rd (ID-55) due to roadwork.,3287.0,S Eagle Rd,L,Eagle,Ada,ID,83616,US,US/Mountain,KBOI,2021-06-07 13:53:00,71.0,71.0,20.0,26.83,10.0,VAR,7.0,0.0,Fair,False,False,True,False,False,False,False,False,False,False,False,False,False,Day,Day,Day,Day
C-2810124,2,2020-08-06 07:01:00,2020-08-17 07:44:00,40.906261,-73.85629300000002,40.937481,-73.8374,2.37190938116,Construction on BRONX RIVER PKWY NB near YONKERS Construction. Right lane closed.,,Bronx River Pkwy N,R,Yonkers,Westchester,NY,10704,US,US/Eastern,KLGA,2020-08-06 06:51:00,74.0,74.0,68.0,30.07,10.0,NE,8.0,0.0,Mostly Cloudy,False,False,False,False,True,False,False,False,False,False,False,False,False,Day,Day,Day,Day
C-2810125,2,2016-07-27 09:01:18,2016-07-27 15:01:18,39.218424,-76.658052,39.20456,-76.63928,1.38835480125,Between MD-295/Wash-Balt Pky/Exit 7 and MD-648/Exit 5 - Roadwork.,,I-695 E,R,Linthicum Heights,Anne Arundel,MD,21090,US,US/Eastern,KBWI,2016-07-27 08:54:00,82.9,,58.0,29.95,10.0,North,4.6,,Mostly Cloudy,False,False,False,False,False,False,False,False,False,False,False,False,False,Day,Day,Day,Day
C-2810126,2,2019-06-24 21:04:25,2019-06-29 21:02:30,34.07918,-84.64746,34.07977,-84.65963,0.6976493859239999,At GA-92/Exit 277 - Construction work.,,I-75 N,R,Acworth,Cherokee,GA,30102,US,US/Eastern,KRYY,2019-06-25 20:50:00,82.0,82.0,54.0,28.98,10.0,W,3.0,0.0,Fair,False,False,False,False,True,False,False,False,False,False,False,False,False,Night,Day,Day,Day
C-2810127,3,2021-04-20 23:00:30,2021-04-21 05:00:00,32.661949,-117.108437,,,0.300000011921,Entry ramp to I-5 Northbound from Mile Of Cars Way Westbound closed due to maintenance work.,,I-5 N,R,National City,San Diego,CA,91950,US,US/Pacific,KNRS,2021-04-20 22:56:00,57.0,57.0,77.0,29.93,10.0,S,8.0,0.0,Cloudy,False,False,False,False,False,False,False,False,False,False,False,False,False,Night,Night,Night,Night
C-2810128,2,2021-03-17 11:30:00,2021-12-22 21:07:50,27.331457,-82.556793,27.335719,-82.549973,0.511806854103,Stationary traffic on FL-789 from Harding Cir/S Blvd of Presidents (FL-789) to US-41/FL-45/Bayfront Dr/Tamiami Trl (N Gulfstream Ave/John Ringling Blvd/FL-789) due to roadwork.,,John Ringling Cswy,R,Sarasota,Sarasota,FL,34236-1321,US,US/Eastern,KSRQ,2021-11-26 16:53:00,71.0,71.0,70.0,29.96,10.0,W,5.0,0.0,Cloudy,False,False,True,False,False,False,False,False,False,False,False,True,False,Day,Day,Day,Day
C-2810129,2,2020-05-11 07:00:00,2020-07-07 13:50:17,46.937144,-88.796128,46.941904,-88.791448,0.396116535382,Construction on MI-26 NB near TWIN LAKES RD Expect delays.,35998.0,State Highway M26,R,Toivola,Houghton,MI,49965-9425,US,US/Eastern,KCMX,2020-05-11 06:53:00,27.0,20.0,53.0,29.01,10.0,N,6.0,0.0,Fair,False,False,False,False,False,False,False,False,False,False,False,False,False,Day,Day,Day,Day
C-2810130,2,2020-12-07 17:31:00,2020-12-07 17:57:30,40.739546,-73.98692199999998,40.73817,-73.983614,0.197559360805,Slow traffic from Park Ave S to 3rd Ave due to roadwork.,300.0,Park Ave S,L,New York,New York,NY,10010-5312,US,US/Eastern,KNYC,2020-12-07 17:51:00,37.0,32.0,46.0,29.62,10.0,NW,6.0,0.0,Fair,True,False,True,False,False,False,True,False,True,False,False,True,False,Night,Night,Day,Day
C-2810131,2,2019-02-20 09:02:59,2019-02-25 09:02:02,37.375867,-121.920328,37.37309000000001,-121.91826,0.2229536772639999,At E Brokaw Rd - Construction work.,2113.0,N 1st St,L,San Jose,Santa Clara,CA,95131-2004,US,US/Pacific,KSJC,2019-02-21 08:53:00,45.0,40.1,76.0,29.76,10.0,NW,9.2,,Partly Cloudy,False,False,True,False,False,False,True,False,False,False,False,True,False,Day,Day,Day,Day
C-2810132,2,2021-09-24 15:44:34,2021-09-24 16:30:24,27.89182000000001,-81.599677,27.897765000000003,-81.599763,0.410793949116,Stationary traffic on FL-25 - US-27 N from CR-17B/Hunt Brothers Rd (US-27) to FL-60 (US-27) due to roadwork.,,Highway 27,R,Lake Wales,Polk,FL,33853,US,US/Eastern,KBOW,2021-09-24 15:50:00,90.0,90.0,55.0,29.81,10.0,NE,7.0,0.0,Partly Cloudy,False,False,False,False,False,False,False,False,False,False,False,False,False,Day,Day,Day,Day
C-2810133,2,2017-11-20 04:04:23,2017-11-20 10:04:23,41.644921,-91.114124,41.64489,-91.11274,0.0714907238535,At IA-38/Exit 267 - Roadwork.,,I-80 E,R,Tipton,Cedar,IA,52772,US,US/Central,KIOW,2017-11-20 03:52:00,32.0,24.8,75.0,29.94,10.0,SSE,8.1,,Clear,False,False,False,False,False,False,False,False,False,False,False,False,False,Night,Night,Night,Night
C-2810134,2,2021-01-27 14:19:00,2021-01-28 01:09:08,30.243173,-90.920794,30.246893,-90.920842,0.25704348829,Stationary traffic on LA-44 from LA-429/LA-3038 (LA-44) to US-61/N Airline Hwy (N Burnside Ave/LA-44) due to roadwork.,1410.0,N Burnside Ave,R,Gonzales,Ascension,LA,70737-2106,US,US/Central,KL38,2021-01-27 13:53:00,66.0,66.0,52.0,30.04,10.0,N,18.0,0.0,Fair,False,False,True,False,False,False,True,False,False,False,False,False,False,Day,Day,Day,Day
C-2810135,2,2021-05-01 16:27:56,2021-05-01 17:18:49,40.016384,-75.175086,40.019094,-75.164231,0.604139897771,Slow traffic on US-1 N - Roosevelt Expy N from Fox St (Roosevelt Expy/US-1) to Roberts Ave (Roosevelt Expy/US-1) due to roadwork.,,Roosevelt Expy N,R,Philadelphia,Philadelphia,PA,19129,US,US/Eastern,KLOM,2021-05-01 16:35:00,65.0,65.0,22.0,29.59,10.0,WSW,9.0,0.0,Fair,False,False,False,False,False,False,False,False,False,False,False,False,False,Day,Day,Day,Day
C-2810136,2,2021-12-18 15:45:45,2021-12-18 16:57:30,36.06081,-95.873582,36.060782,-95.858412,0.8473168849670001,Stationary traffic from S Memorial Dr (71st St) to US-169 (71st St) due to roadwork.,,E 71st St,R,Tulsa,Tulsa,OK,74133,US,US/Central,KRVS,2021-12-18 15:40:00,40.0,33.0,63.0,29.6,10.0,N,10.0,0.0,Mostly Cloudy,False,False,True,False,False,False,False,False,True,False,False,True,False,Day,Day,Day,Day
C-2810137,2,2020-09-23 18:06:00,2020-09-24 18:51:00,44.606098,-71.525171,44.610014,-71.530102,0.363373333192,Construction on US-3 NB near BROWN RD Expect long delays.,200.0,State St,R,Groveton,Coos,NH,03582-5017,US,US/Eastern,KHIE,2020-09-23 17:52:00,66.0,66.0,56.0,28.64,10.0,WNW,6.0,0.0,Mostly Cloudy,False,False,False,False,False,False,False,False,False,False,False,False,False,Day,Day,Day,Day
C-2810138,4,2017-09-05 22:32:25,2017-09-06 04:32:25,42.99974,-88.03813000000002,42.99974,-88.03813000000002,0.0,At National Ave/Exit 2 - Entry ramp closed. Maintenance work.,,I-894 W,R,Milwaukee,Milwaukee,WI,53227,US,US/Central,KMWC,2017-09-05 22:35:00,51.8,,76.0,29.95,10.0,WNW,6.9,,Overcast,False,False,False,False,False,False,False,False,False,False,False,False,False,Night,Night,Night,Night
C-2810139,2,2018-04-26 07:00:00,2018-04-26 14:31:00,39.86179,-105.082458,,,0.0,Intermittent lane closures due to maintenance work on CO-121 Wadsworth Pkwy Northbound near Yukon St.,9168.0,Wadsworth Pkwy,R,Broomfield,Jefferson,CO,80021-4544,US,US/Mountain,KBJC,2018-04-26 07:59:00,44.6,39.7,57.0,30.27,25.0,NNW,9.2,,Mostly Cloudy,False,False,False,False,False,False,False,False,False,False,False,False,False,Day,Day,Day,Day
C-2810140,2,2020-08-10 18:25:02,2020-08-11 09:18:02,39.681844,-75.462977,39.680417,-75.472064,0.4931576489329999,Emergency repairs on US 40 westbound East of New Jersey Turnpike/I-295 (Carneys Point Twp) Not currently scheduled,356.0,Us Highway 40,R,Penns Grove,Salem,NJ,08069-5024,US,US/Eastern,KILG,2020-08-10 18:51:00,84.0,84.0,72.0,29.88,10.0,SSE,15.0,0.0,Fair,False,False,False,False,False,False,False,False,False,False,False,False,False,Day,Day,Day,Day
C-2810141,2,2021-09-28 15:41:31,2021-09-28 16:13:33,40.761329,-73.964147,40.763582,-73.969453,0.318335960975,Slow traffic from 2nd Ave/Queensboro Bridge (E 60th St) to Park Ave (E 60th St) due to roadwork.,256.0,E 60th St,R,New York,New York,NY,10022-1402,US,US/Eastern,KNYC,2021-09-28 15:51:00,70.0,,76.0,29.71,10.0,,,0.0,Partly Cloudy,True,False,True,False,False,False,False,False,True,False,False,True,False,Day,Day,Day,Day
C-2810142,2,2021-09-22 08:23:30,2021-09-22 12:37:30,41.814631,-87.72374,41.823377,-87.723957,0.604394344738,Slow traffic from W 47th St (S Pulaski Rd) to I-55/Adlai E Stevenson Expy (S Pulaski Rd) due to roadwork.,4301.0,S Pulaski Rd,L,Chicago,Cook,IL,60632-4008,US,US/Central,KMDW,2021-09-22 07:53:00,58.0,58.0,81.0,29.42,10.0,N,13.0,0.01,Cloudy,False,False,False,False,False,False,False,False,False,False,False,True,False,Day,Day,Day,Day
C-2810143,2,2021-02-16 05:41:49,2021-02-16 13:51:12,31.663262,-96.664295,31.669436,-96.61658,2.83820549785,Roadwork on FM-1245 (US-84) from FM-2705 (US-84) to US-84 E - US-84 W.,5998.0,US Highway 84 W,L,Prairie Hill,Limestone,TX,76678,US,US/Central,KCNW,2021-02-16 06:55:00,3.0,-6.0,78.0,29.74,10.0,NW,5.0,,Fair,False,False,False,False,False,False,False,False,False,False,False,False,False,Night,Night,Night,Night
C-2810144,2,2020-10-06 13:22:30,2020-10-06 20:52:00,39.105609,-94.48608,39.156419,-94.49794,3.5677191961300005,Stationary traffic on I-435 from US-24/Winner Rd/Exit 59 (I-435) to MO-210/Exit 55 (I-435) due to roadwork.,,I-435 N,R,Kansas City,Jackson,MO,64125,US,US/Central,KMKC,2020-10-06 12:54:00,72.0,72.0,51.0,29.23,10.0,S,6.0,0.0,Fair,False,False,False,False,True,False,False,False,False,False,False,False,False,Day,Day,Day,Day
C-2810145,2,2020-12-30 16:36:59,2020-12-31 01:21:59,43.008739,-123.30421,43.022328,-123.298999,0.975118294042,Construction on I-5 NB near MP 107 Allow extra time.,,I-5 N,R,Myrtle Creek,Douglas,OR,97457,US,US/Pacific,KRBG,2020-12-30 16:53:00,47.0,45.0,86.0,29.42,10.0,SSE,5.0,0.01,Light Rain,False,False,False,False,False,False,False,False,False,False,False,False,False,Day,Day,Day,Day
C-2810146,2,2020-01-24 09:00:00,2020-01-24 16:00:00,33.615398,-84.61380799999998,,,0.0,Right lane blocked due to construction on GA-92 Campbellton Fairburn Rd Southbound at Hall Rd.,,Highway 92,R,Fairburn,Fulton,GA,30213,US,US/Eastern,KATL,2020-01-24 08:52:00,44.0,39.0,89.0,28.89,0.25,E,9.0,0.0,Fog,False,False,False,False,False,False,False,False,False,False,False,False,False,Day,Day,Day,Day
C-2810147,2,2021-04-22 05:23:00,2021-11-30 20:28:01,26.18094,-80.156743,26.182174,-80.154883,0.143422814694,Slow traffic on FL-845 from NW 10th Ave to NW 47th Ct due to roadwork.,,NW 10th Ave,R,Fort Lauderdale,Broward,FL,33309,US,US/Eastern,KFXE,2021-11-10 06:53:00,67.0,67.0,90.0,30.09,10.0,NW,3.0,0.0,Fair,False,False,True,False,False,False,True,False,False,False,False,True,False,Night,Night,Night,Night
C-2810148,4,2020-11-28 08:00:00,2020-12-06 08:44:00,34.04962800000001,-118.518515,34.04782,-118.518106,0.127096304652,Construction on KAGAWA ST SB near BASHFORD ST Road closed. Take alternate route.,14645.0,Albright St,R,Pacific Palisades,Los Angeles,CA,90272-3863,US,US/Pacific,KSMO,,,,,,,,,,,False,False,False,False,False,False,False,False,False,True,False,False,False,Day,Day,Day,Day
C-2810149,4,2020-03-18 07:00:16,2020-03-18 16:00:00,39.11271,-84.5159,39.11173,-84.51565,0.0690252408951,Closed at US-42/Central Pky - Closed due to roadwork.,1.0,E Liberty St,R,Cincinnati,Hamilton,OH,45202-6405,US,US/Eastern,KLUK,2020-03-18 06:53:00,35.0,29.0,92.0,29.75,10.0,NE,7.0,0.0,Fair,True,False,True,False,False,False,False,False,False,False,False,True,False,Night,Night,Day,Day
C-2810150,2,2020-06-16 01:14:58,2020-06-20 01:14:36,39.22792000000001,-76.69464,39.22512,-76.69731,0.240520034759,Between US-1-ALT/Washington Blvd and I-195/Metropolitan Blvd - Construction work.,,Washington Blvd,R,Halethorpe,Baltimore County,MD,21227,US,US/Eastern,KBWI,2020-06-16 00:54:00,65.0,65.0,61.0,30.19,10.0,E,10.0,0.0,Cloudy,False,False,False,False,False,False,False,False,False,False,False,False,False,Night,Night,Night,Night
C-2810151,2,2020-12-08 03:01:00,2020-12-08 14:01:00,34.200363,-118.856603,34.278594,-118.860547,5.40993977579,Lane closure due to Pavement Rehabilitation between Janss Rd and New Los Angeles Ave,,CA-23 N,R,Thousand Oaks,Ventura,CA,91362,US,US/Pacific,KCMA,2020-12-08 02:55:00,74.0,74.0,9.0,29.95,10.0,ENE,24.0,0.0,Fair / Windy,False,False,False,False,True,False,False,False,False,False,False,False,False,Night,Night,Night,Night
C-2810152,2,2021-10-04 18:11:00,2021-10-04 18:48:30,25.59516,-80.37348100000001,25.591,-80.380735,0.535671966026,Slow traffic on FL-994 from FL-821/Florida's Tpke (Quail Roost Dr/FL-994) to Burr Rd/SW 127th Ave (Quail Roost Dr/FL-994) due to roadwork.,,Quail Roost Dr,R,Miami,Miami-Dade,FL,33157,US,US/Eastern,KTMB,2021-10-04 17:53:00,85.0,85.0,61.0,29.91,10.0,E,9.0,0.0,Fair,False,False,True,False,False,False,False,False,False,False,False,True,False,Day,Day,Day,Day
C-2810153,3,2019-12-23 22:08:14,2020-12-20 14:08:14,36.08199000000001,-79.07958,36.06939000000001,-79.06319,1.2631901146200002,At Lawrence Rd - Construction work.,1197.0,US Highway 70 E,R,Hillsborough,Orange,NC,27278,US,US/Eastern,KIGX,,,,,,,,,,,False,False,False,False,False,False,False,False,False,False,False,True,False,Night,Night,Night,Night
C-2810154,2,2021-02-20 06:01:00,2021-02-20 10:01:00,35.400534,-119.043356,35.395454,-119.044766,0.359866133623,Lane closure due to Survey Work between Airport Drive Over-Crossing and California Avenue Under-Crossing,,Airport Dr,R,Bakersfield,Kern,CA,93308,US,US/Pacific,KBFL,2021-02-20 05:54:00,47.0,45.0,77.0,29.71,7.0,NW,5.0,0.0,Cloudy,False,False,False,False,False,False,False,False,False,False,False,False,False,Night,Night,Day,Day
C-2810155,2,2021-06-22 13:46:30,2021-06-22 14:28:30,39.689756,-104.940564,39.696588,-104.940546,0.472047212408,Slow traffic on CO-2 from E Florida Ave (S Colorado Blvd/CO-2) to E Mississippi Ave (S Colorado Blvd/CO-2) due to roadwork.,1476.0,S Colorado Blvd,L,Denver,Denver,CO,80222-3605,US,US/Mountain,KAPA,2021-06-22 13:53:00,88.0,88.0,15.0,24.13,10.0,W,6.0,0.0,Fair,False,False,False,False,False,False,False,False,True,False,False,True,False,Day,Day,Day,Day
C-2810156,2,2021-07-30 16:12:56,2021-07-30 17:02:21,25.806516,-80.124313,25.811736,-80.12321,0.367135149398,Slow traffic on FL-A1A from FL-A1A/26th St (FL-A1A) to Arthur Godfrey Rd/41st St (FL-A1A) due to roadwork.,3099.0,Collins Ave,R,Miami Beach,Miami-Dade,FL,33140-4106,US,US/Eastern,KMIA,2021-07-30 15:53:00,91.0,91.0,57.0,30.03,10.0,VAR,3.0,0.0,Thunder,False,False,True,False,False,False,False,False,False,True,False,False,False,Day,Day,Day,Day
C-2810157,2,2021-10-13 05:31:00,2021-10-13 07:58:27,40.603624,-74.06930200000002,40.60266,-74.065983,0.186414087229,Stationary traffic from Fingerboard Rd to I-278 E due to roadwork.,313.0,Fingerboard Rd,R,Staten Island,Richmond,NY,10305-3741,US,US/Eastern,KEWR,2021-10-13 05:20:00,65.0,65.0,81.0,30.03,10.0,CALM,0.0,0.0,Cloudy,False,False,False,False,False,False,False,False,True,False,False,True,False,Night,Night,Night,Night
C-2810158,2,2020-09-30 11:33:30,2020-09-30 18:32:30,40.68705300000001,-73.847652,40.691261,-73.850818,0.33473145155,Stationary traffic from 103rd Ave (Woodhaven Blvd) to Jamaica Ave (Woodhaven Blvd) due to resurfacing work.,,Woodhaven Blvd,R,Ozone Park,Queens,NY,11416,US,US/Eastern,KJFK,2020-09-30 11:51:00,66.0,66.0,56.0,29.73,10.0,W,20.0,0.0,Partly Cloudy,False,False,False,False,False,False,False,False,True,True,False,True,False,Day,Day,Day,Day
C-2810159,2,2021-12-03 10:57:30,2021-12-03 22:39:05,39.077376,-108.511682,39.077368,-108.51224,0.0299344968599,Roadwork on I-70 Bus Loop (US-6) from 12th St/27 Rd (US-6) to US-6 W.,501.0,Morning Glory Ln,R,Grand Junction,Mesa,CO,81504-5313,US,US/Mountain,KGJT,2021-12-03 10:53:00,49.0,47.0,41.0,25.28,10.0,SE,6.0,0.0,Fair,False,False,False,False,False,False,False,False,False,True,False,False,False,Day,Day,Day,Day
C-2810160,2,2020-01-27 12:26:01,2020-01-27 16:26:01,44.09268,-121.30449,44.09268,-121.30449,0.0,At NE Empire Ave - Maintenance work.,,N Highway 97,R,Bend,Deschutes,OR,97703,US,,,,,,,,,,,,,False,False,False,False,False,False,False,False,False,False,False,False,False,Day,Day,Day,Day
C-2810161,2,2019-04-02 08:30:00,2019-04-02 14:30:00,43.082535,-88.185661,,,0.0,Right lane closed due to maintenance work on WI-190 Capitol Dr Westbound at CR-SR.,,Capitol Dr,R,Pewaukee,Waukesha,WI,53072,US,US/Central,KUES,2019-04-02 08:45:00,39.0,34.0,70.0,28.95,10.0,SW,8.0,0.0,Partly Cloudy,False,False,False,False,False,False,False,False,False,False,False,True,False,Day,Day,Day,Day
C-2810162,4,2021-03-20 01:01:00,2021-03-20 09:44:00,33.467873,-117.670159,33.469755,-117.673422,0.228645273421,Construction on I-5 NB near CA-1 Take alternate route.,,I-5 N,R,San Juan Capistrano,Orange,CA,92675,US,US/Pacific,KSNA,2021-03-20 00:53:00,56.0,56.0,90.0,30.09,9.0,SSW,6.0,0.0,Cloudy,False,False,False,False,False,False,False,False,False,False,False,False,False,Night,Night,Night,Night
C-2810163,2,2019-07-11 11:18:46,2019-07-16 08:03:09,46.73473,-92.09776,46.74944,-92.10104,1.02816113788,Between WI-35 and Wisconsin/Minnesota State Line - Construction work.,,I-535 N,R,Superior,Douglas,WI,54880,US,US/Central,KSUW,2019-07-11 11:17:00,72.0,72.0,46.0,29.42,10.0,ESE,6.0,0.0,Partly Cloudy,False,False,False,False,True,False,False,False,False,False,False,False,False,Day,Day,Day,Day
C-2810164,2,2021-12-26 14:19:00,2021-12-26 15:17:30,39.377546,-106.057327,39.358421,-106.061003,1.33592061691,Slow traffic on CO-9 from CR-850/Blue Lakes Rd (CO-9) to CR-10/Park Hill Rd (S Main St/CO-9) due to roadwork.,1684.0,Highway 9,R,Breckenridge,Summit,CO,80424,US,US/Mountain,KCCU,2021-12-26 14:15:00,20.0,9.0,78.0,20.33,1.0,SW,10.0,0.0,Light Snow,False,False,False,False,False,False,False,False,False,False,False,False,False,Day,Day,Day,Day
C-2810165,4,2018-08-30 21:32:04,2018-08-30 23:31:46,39.95018,-83.01971,39.95026,-83.017964,0.0926457637768,At I-71/OH-315/Exit 99C - Roadwork.,,I-70 E,R,Columbus,Franklin,OH,43223,US,US/Eastern,KTZR,2018-08-30 21:35:00,71.6,,84.0,30.14,10.0,North,4.6,,Scattered Clouds,False,False,False,False,False,False,False,False,False,False,False,False,False,Night,Night,Night,Day
C-2810167,2,2021-03-06 06:05:00,2021-03-06 17:53:49,28.254969,-81.47697600000002,28.256064,-81.48734,0.635280508934,Slow traffic on US-92 E - US-17 N - US-92 W - US-17 S from CR-535/Broad St/Ham Brown Rd (US-92/US-17) to CR-532/Osceola Polk Line Rd (US-92/US-17) due to roadwork.,4873.0,S Orange Blossom Trl,R,Kissimmee,Osceola,FL,34758-2035,US,US/Eastern,KISM,2021-03-06 05:56:00,62.0,62.0,84.0,29.89,,E,7.0,0.0,Partly Cloudy,False,False,False,False,False,False,False,False,False,False,False,False,False,Night,Night,Day,Day
C-2810168,2,2021-09-09 15:35:00,2021-09-09 16:06:30,41.908216,-87.840712,41.909104,-87.834912,0.304482073142,Stationary traffic on IL-171 - IL-64 from Riverwoods Dr to N River Rd due to roadwork.,474.0,W North Ave,R,Melrose Park,Cook,IL,60160,US,US/Central,KORD,2021-09-09 15:51:00,74.0,74.0,40.0,29.26,10.0,NNW,5.0,0.0,Partly Cloudy,False,False,False,False,False,False,False,False,True,False,False,False,False,Day,Day,Day,Day
C-2810169,2,2020-08-06 16:00:43,2020-08-07 06:59:00,43.029298,-76.06205600000001,43.031475,-76.058696,0.2267687431309999,Overhead sign repair on I-481 northbound between Exit 3E - NY 92; NY 5 (De Witt) and Exit 4 - I-690 (De Witt) Thursday August 6th 2020 09:00 AM thru 02:00 PM alternate lanes closed,,I-481 N,R,Fayetteville,Onondaga,NY,13066,US,US/Eastern,KSYR,2020-08-06 15:54:00,78.0,78.0,43.0,29.68,10.0,NNE,5.0,0.0,Mostly Cloudy,False,False,False,False,False,False,False,False,False,False,False,False,False,Day,Day,Day,Day
C-2810170,2,2020-09-10 14:00:00,2020-09-11 01:45:00,37.148771,-120.824715,37.320382,-120.85118500000002,11.9462638967,One-Way Traffic closure due to AC Paving between Wolfsen Road (Right) and San Joaquin River Bridge,,Lander Ave,R,Gustine,Merced,CA,95322,US,US/Pacific,KMER,2020-09-10 13:45:00,88.0,88.0,24.0,29.78,2.0,CALM,0.0,0.0,Smoke,False,False,False,False,False,False,False,False,False,False,False,False,False,Day,Day,Day,Day
C-2810171,2,2021-09-14 16:18:30,2021-09-14 16:38:30,39.741957,-104.865789,39.740093,-104.864947,0.136338079651,Slow traffic on US-40 E - I-70 Bus E - US-287 S from E 16th Ave to Iola St due to roadwork.,1598.0,Havana St,R,Aurora,Adams,CO,80010-2326,US,US/Mountain,KBKF,2021-09-14 15:58:00,77.0,77.0,30.0,24.41,10.0,SSE,12.0,0.0,Mostly Cloudy,False,False,True,False,False,False,False,False,False,True,False,False,False,Day,Day,Day,Day
C-2810172,3,2018-08-13 21:00:00,2018-08-14 05:00:00,42.34116,-71.265694,,,0.649999976158,Entry ramp to I-90 Westbound from I-95 Northbound lane closed due to maintenance work.,57.0,South Ave,R,Weston,Middlesex,MA,02493-2324,US,US/Eastern,KBED,2018-08-13 20:56:00,68.0,,93.0,30.0,3.0,NE,6.9,0.0,Light Rain,False,False,False,False,False,False,False,False,False,False,False,False,False,Night,Night,Night,Day
C-2810173,2,2021-10-18 17:43:13,2021-10-19 23:59:00,42.591582,-76.135994,42.590736,-76.134419,0.0991724449286,NYSDOT - Region 3: roadwork on US 11 southbound between NY 41; US 11 (Cortlandville) and Harter Rd (Cortlandville) Tuesday October 19th 2021 08:00 AM thru 11:00 AM 1 Left lane of 2 lanes closed,3801.0,US Route 11,L,Cortland,Cortland,NY,13045-9718,US,US/Eastern,KN03,2021-10-19 07:55:00,37.0,37.0,100.0,28.76,10.0,SW,3.0,,Partly Cloudy,False,False,False,False,False,False,False,False,False,False,False,False,False,Day,Day,Day,Day
C-2810174,2,2020-12-07 15:46:30,2020-12-07 18:36:30,40.137843,-75.123211,40.137255,-75.121217,0.11289056178,Stationary traffic from N Hills Ave (Old Welsh Rd) to Easton Rd (Old Welsh Rd) due to roadwork.,1799.0,Park Ave,R,Willow Grove,Montgomery,PA,19090-4517,US,US/Eastern,KPNE,2020-12-07 15:54:00,39.0,34.0,49.0,29.62,10.0,WNW,7.0,0.0,Fair,False,False,True,False,False,False,False,False,False,False,False,True,False,Day,Day,Day,Day
C-2810175,2,2021-09-25 15:37:25,2021-09-25 15:57:25,40.785833,-73.97863000000002,40.785104,-73.976896,0.10375962391,Stationary traffic from Broadway to Amsterdam Ave due to roadwork.,2281.0,Broadway,L,New York,New York,NY,10024-4906,US,US/Eastern,KNYC,2021-09-25 15:51:00,74.0,74.0,41.0,29.85,10.0,CALM,0.0,0.0,Fair,True,False,True,False,False,False,False,False,False,False,False,True,False,Day,Day,Day,Day
C-2810176,2,2021-04-20 04:50:00,2021-04-20 11:11:21,25.813347,-80.267988,25.810393,-80.26402,0.320269163667,Slow traffic on US-27 S - FL-25 from Flamingo Way/4th Ave (US-27) to FL-953/8th Ave/Le Jeune Rd (US-27) due to roadwork.,656.0,E Okeechobee Rd,R,Hialeah,Miami-Dade,FL,33010,US,US/Eastern,KMIA,2021-04-20 04:53:00,71.0,71.0,87.0,29.95,10.0,CALM,0.0,0.05,Light Rain,False,False,False,False,False,False,False,False,False,False,False,False,False,Night,Night,Night,Night
C-2810177,2,2021-03-10 09:14:36,2021-03-10 23:59:00,39.726503,-75.46376500000002,39.725921,-75.464161,0.0453857383358,Pothole repair on US 130 northbound NJ 48 (Penns Grove) to South of CR 620/Center Square Rd (Oldmans Twp) Not currently Scheduled,1.0,N Virginia Ave,L,Penns Grove,Salem,NJ,08069-1400,US,US/Eastern,KILG,2021-03-10 08:51:00,48.0,44.0,50.0,30.42,10.0,E,8.0,0.0,Fair,False,False,False,False,False,False,False,False,False,False,False,True,False,Day,Day,Day,Day
C-2810178,2,2021-10-04 18:01:00,2021-10-04 20:26:15,25.7717,-80.312289,25.770157,-80.311396,0.120221702403,Stationary traffic on FL-969 - FL-968 from NW 2nd St to Tamiami Canal Rd due to roadwork.,118.0,NW 72nd Ave,R,Miami,Miami-Dade,FL,33126-4200,US,US/Eastern,KMIA,2021-10-04 17:53:00,84.0,84.0,63.0,29.91,10.0,ESE,8.0,0.0,Partly Cloudy,False,False,False,False,False,False,False,False,False,False,False,False,False,Day,Day,Day,Day
C-2810179,2,2021-12-02 13:41:00,2021-12-02 14:09:00,29.53554,-95.808342,29.532533,-95.808328,0.20776561721,Slow traffic on TX-36 from US-90 Alt/Avenue H (US-90 Alt/1st St/Avenue H/TX-36) to US-59/Southwest Fwy (1st St/TX-36) due to roadwork.,3177.0,1st St,R,Rosenberg,Fort Bend,TX,77471-5852,US,US/Central,KSGR,2021-12-02 13:53:00,78.0,78.0,62.0,30.02,10.0,SSW,5.0,0.0,Fair,False,False,False,False,False,False,False,False,False,False,False,True,False,Day,Day,Day,Day
C-2810180,2,2021-11-23 18:24:03,2021-11-23 20:33:31,26.238543,-80.280415,26.240523,-80.278428,0.184063665455,Slow traffic on FL-814 from Riverside Dr to NW 11th Ct due to roadwork.,11576.0,W Atlantic Blvd,R,Coral Springs,Broward,FL,33071,US,US/Eastern,KFXE,2021-11-23 18:53:00,65.0,65.0,63.0,30.04,10.0,NNW,12.0,0.0,Fair,False,False,False,False,False,False,False,False,False,False,False,False,False,Night,Night,Night,Day
C-2810181,2,2021-10-08 17:10:26,2021-10-08 18:59:42,43.880649,-94.168528,43.842929,-94.163198,2.6196950726400003,Stationary traffic on US-169 S - US-169 N from MN-30/W Main St/Twp-22 (US-169) to 240th St (US-169) due to roadwork.,52599.0,112th St,R,Amboy,Blue Earth,MN,56010-4444,US,US/Central,KJYG,2021-10-08 17:16:00,81.0,81.0,42.0,28.74,10.0,S,8.0,0.0,Fair,False,False,False,False,False,False,False,False,False,False,False,False,False,Day,Day,Day,Day
C-2810182,2,2021-06-24 15:48:04,2021-12-26 01:58:00,41.84997,-87.665927,41.852335,-87.6671,0.1742011501449999,Slow traffic from I-55 S to S Paulina St due to roadwork.,2319.0,S Ashland Ave,L,Chicago,Cook,IL,60608-5303,US,US/Central,KMDW,2021-06-24 15:53:00,71.0,71.0,84.0,29.34,7.0,S,8.0,0.02,Cloudy,False,False,False,False,False,False,False,False,False,False,False,False,False,Day,Day,Day,Day
C-2810183,2,2021-03-22 07:00:00,2021-04-01 13:45:00,40.730692,-91.563622,40.668259,-91.563512,4.31371331109,Construction on US-218 SB near COUNTY HWY-J38 Drive with caution.,1567.0,180 Ave,L,West Point,Lee,IA,52656,US,US/Central,KFSW,2021-03-22 06:55:00,52.0,52.0,54.0,29.27,10.0,S,10.0,0.0,Fair,False,False,False,False,False,False,False,False,False,False,False,False,False,Night,Day,Day,Day
C-2810184,2,2021-10-12 07:39:00,2021-10-12 08:06:30,26.170461,-80.187012,26.18038,-80.187174,0.685411243081,Slow traffic from FL-816/W Oakland Park Blvd (31st Ave/N Martin Luther King Ave) to FL-870/W Commercial Blvd/NW 50th St (31st Ave) due to roadwork.,3352.0,NW 31st Ave,L,Fort Lauderdale,Broward,FL,33309,US,US/Eastern,KFXE,2021-10-12 07:53:00,75.0,75.0,94.0,29.94,10.0,CALM,0.0,0.11,Light Rain,False,False,True,False,False,False,False,False,False,False,False,True,False,Day,Day,Day,Day
C-2810185,2,2020-09-24 12:50:00,2020-09-24 17:27:30,42.742625,-73.698202,42.739523,-73.67971999999997,0.962032056279,Slow traffic on NY-7 from US-9 (NY-7) to Lake Ave (Hoosick St/NY-7) due to roadwork.,,NY-7 E,R,Watervliet,Albany,NY,12189,US,US/Eastern,KALB,2020-09-24 12:51:00,68.0,68.0,65.0,29.67,10.0,S,6.0,0.0,Cloudy,False,False,False,False,False,False,False,False,False,False,False,True,False,Day,Day,Day,Day
C-2810186,2,2021-11-19 11:09:00,2021-11-19 11:30:00,28.803038,-81.888396,28.804074,-81.88755400000002,0.0878786217538,Slow traffic on FL-25 - US-27 N - FL-44 from Lynch Ave to Buena Vista Ave due to roadwork.,1408.0,South St,R,Leesburg,Lake,FL,34748-6628,US,US/Eastern,KLEE,2021-11-19 10:53:00,79.0,79.0,66.0,30.11,10.0,NNE,13.0,0.0,Fair,False,False,False,False,False,False,False,False,False,False,False,False,False,Day,Day,Day,Day
C-2810189,2,2021-03-06 03:34:00,2021-03-07 14:12:52,28.190865,-82.378695,28.193852000000003,-82.382995,0.333409418432,Stationary traffic on FL-56 from CR-581/Bruce B Downs Blvd (FL-56) to I-75 (FL-56) due to roadwork.,26502.0,State Road 56,L,Wesley Chapel,Pasco,FL,33544,US,US/Eastern,KVDF,,,,,,,,,,,False,False,False,False,False,False,False,False,False,False,False,True,False,Night,Night,Night,Night
C-2810190,2,2021-10-21 08:29:00,2021-10-21 10:40:33,25.747475,-80.339425,25.748123,-80.335622,0.240871576543,Slow traffic on County Hwy-913 - FL-973 - FL-972 from SW 89th Ave to SW 21st St / SW 21st Ter due to roadwork.,8874.0,SW 24th St,L,Miami,Miami-Dade,FL,33165-2008,US,US/Eastern,KMIA,2021-10-21 08:53:00,82.0,82.0,65.0,30.1,10.0,ENE,8.0,0.0,Partly Cloudy,True,False,True,False,False,False,False,False,False,False,False,False,False,Day,Day,Day,Day
C-2810191,2,2020-03-04 22:00:00,2020-03-06 05:00:00,41.35667,-74.69263000000002,41.35667,-74.69263000000002,0.0,At US-6/CR-15/Exit 1 - Roadwork. Right lane blocked.,,I-84 E,R,Port Jervis,Orange,NY,12771,US,US/Eastern,KFWN,2020-03-04 21:53:00,43.0,43.0,76.0,29.43,10.0,VAR,3.0,0.01,Light Rain,False,False,False,False,False,False,False,False,False,False,False,False,False,Night,Night,Night,Night
C-2810192,2,2016-06-16 11:29:04,2016-06-16 14:00:00,34.35929,-118.55393,34.38112,-118.5667,1.67492763744,Between Calgrove Blvd/Exit 166 and Lyons Ave/Pico Cyn Rd - Construction work.,,I-5 N,R,Newhall,Los Angeles,CA,91321,US,US/Pacific,K3A6,2016-06-16 11:51:00,76.0,76.0,38.0,29.17,10.0,SSE,10.0,0.0,Fair,False,False,False,False,False,False,False,False,False,False,False,False,False,Day,Day,Day,Day
C-2810193,2,2017-05-03 09:53:03,2017-10-31 18:00:00,33.948475,-83.397148,,,0.0,Road closed due to maintenance work on Benning St both ways at Collins Ave.,316.0,Collins Ave,L,Athens,Clarke,GA,30606-3732,US,US/Eastern,KAHN,2017-05-03 09:51:00,72.0,,44.0,30.08,10.0,Calm,,,Clear,False,False,False,False,False,False,False,False,False,False,False,False,False,Day,Day,Day,Day
C-2810194,2,2021-10-07 07:36:00,2021-10-07 09:40:23,27.844685,-82.381553,27.849778000000004,-82.38126199999998,0.35234157191,Slow traffic on FL-45 - US-41 N from Mottie Rd to Gibsonton Dr due to roadwork.,10836.0,S US Highway 41,R,Gibsonton,Hillsborough,FL,33534-4708,US,US/Eastern,KTPF,2021-10-07 07:35:00,73.0,73.0,94.0,30.04,5.0,CALM,0.0,0.0,Fair,False,False,True,False,False,False,True,False,True,False,False,False,False,Day,Day,Day,Day
C-2810195,2,2021-11-24 11:49:00,2021-11-24 12:12:30,41.938112,-83.406688,41.943618,-83.40358499999998,0.412502496671,Slow traffic on US-24 S - US-24 N from Custer Dr/W Elm Ave (N Telegraph Rd/US-24) to Stewart Rd (N Telegraph Rd/US-24) due to roadwork.,1248.0,N Telegraph Rd,R,Monroe,Monroe,MI,48162-3369,US,US/Eastern,KTTF,2021-11-24 11:55:00,46.0,40.0,46.0,29.47,10.0,S,14.0,0.0,Fair,False,False,False,False,False,False,False,False,False,False,False,True,False,Day,Day,Day,Day
C-2810196,2,2020-06-25 19:48:49,2020-06-29 19:49:30,40.99701,-76.64348000000003,40.99016,-76.67849,1.88613731428,Between PA-42/Exit 232 and PA-254/Exit 215 - Roadwork. Lane blocked.,,I-80 W,R,Danville,Montour,PA,17821,US,US/Eastern,KSEG,2020-06-25 19:53:00,69.0,69.0,75.0,29.49,10.0,VAR,3.0,0.0,Cloudy,False,False,False,False,False,False,False,False,False,False,False,False,False,Day,Day,Day,Day
C-2810197,2,2021-05-29 19:39:52,2021-05-29 21:58:43,25.890445,-80.18243299999997,25.891171,-80.18645500000002,0.254983682895,Stationary traffic on FL-915 - FL-922 from NE 8th Ave to NE 126th St due to roadwork.,12501.0,NE 8th Ave,R,North Miami,Miami-Dade,FL,33161-4966,US,US/Eastern,KOPF,2021-05-29 19:53:00,81.0,81.0,62.0,29.93,10.0,S,13.0,0.0,Fair,False,False,False,False,False,False,False,False,True,False,False,True,False,Day,Day,Day,Day
C-2810198,2,2018-05-11 09:00:00,2018-05-18 21:00:00,37.589375,-77.529076,,,0.0,Intermittent lane closures due to paving repairs on Ripley Ave both ways from Hanover Ave to VA-6 Patterson Ave.,6797.0,Patterson Ave,L,Richmond,Richmond City,VA,23226-3418,US,US/Eastern,KOFP,2018-05-11 08:54:00,70.0,,78.0,30.04,7.0,Calm,,,Clear,False,False,False,False,False,False,False,False,False,False,False,False,False,Day,Day,Day,Day
C-2810199,2,2020-11-11 10:02:30,2020-11-12 23:41:49,40.847422,-73.912564,40.851807,-73.90920899999998,0.3500572326359999,Slow traffic from I-95/US-1/Cross Bronx Expy (Jerome Ave) to Tremont Ave (Jerome Ave) due to roadwork.,1723.0,Jerome Ave,L,Bronx,Bronx,NY,10453-5703,US,US/Eastern,KLGA,2020-11-11 09:51:00,68.0,68.0,84.0,30.04,10.0,SSW,10.0,0.0,Cloudy,False,False,False,False,False,False,True,False,False,False,False,True,False,Day,Day,Day,Day
C-2810200,2,2021-02-17 17:56:30,2021-02-17 20:55:10,32.581485,-94.910374,32.57369,-94.918483,0.7162226384110001,Roadwork on Private Road 1997 from US Highway 271 S to FM-1844.,6566.0,FM 1844,L,Gladewater,Upshur,TX,75647-5918,US,US/Central,KJXI,2021-02-17 17:55:00,25.0,18.0,89.0,29.75,5.0,N,6.0,0.02,Partly Cloudy,False,False,False,False,False,False,False,False,False,False,False,False,False,Day,Day,Day,Day
C-2810201,2,2020-03-27 06:34:02,2020-03-30 06:34:02,40.49395,-75.17578,40.57944000000001,-75.19725,6.01342376726,Between S Park Rd and PA-212 - Long-term roadwork.,8345.0,Easton Rd,R,Ottsville,Bucks,PA,18942-9686,US,US/Eastern,KDYL,2020-03-27 06:54:00,50.0,50.0,77.0,29.38,10.0,W,5.0,0.0,Cloudy,False,False,False,False,False,False,False,False,False,False,False,False,False,Night,Day,Day,Day
C-2810202,2,2021-04-27 08:12:00,2021-05-07 19:45:00,36.771525,-78.047494,36.766358,-78.069197,1.25314047159,Construction on I-85 SB near MM 20 Construction. Right lane closed.,,I-85 S,R,Brodnax,Mecklenburg,VA,23920,US,US/Eastern,KAVC,2021-04-27 08:15:00,58.0,58.0,71.0,29.73,10.0,CALM,0.0,0.0,Fair,False,False,False,False,False,False,False,False,False,False,False,False,False,Day,Day,Day,Day
C-2810203,2,2021-09-15 07:11:00,2021-09-15 07:49:11,41.423311,-73.367149,41.424462,-73.379178,0.628260318762,Slow traffic on I-84 W from CT-25/Exit 9 (I-84) to US-6/Newtown Rd/Exit 8 (I-84) due to roadwork.,36.0,Old Hawleyville Rd,R,Newtown,Fairfield,CT,06470-1240,US,US/Eastern,KOXC,2021-09-15 06:51:00,69.0,69.0,100.0,29.21,1.0,S,6.0,0.0,Fog,False,False,False,False,False,False,False,False,False,False,False,False,False,Day,Day,Day,Day
C-2810204,4,2020-12-18 06:59:24,2020-12-25 07:59:00,34.056038,-118.000131,34.055149,-118.000844,0.0737478692705,Closed road from East San Gabriel Valley to I-605 N / Perez Pl due to roadwork.,258.0,N Covina Ln,R,La Puente,Los Angeles,CA,91746-1410,US,US/Pacific,KEMT,2020-12-18 07:01:00,49.0,49.0,80.0,30.03,10.0,E,3.0,0.0,Fair,False,False,False,False,False,False,False,False,False,False,False,False,False,Day,Day,Day,Day
C-2810205,2,2021-03-11 07:01:00,2021-03-11 15:46:00,36.368288,-121.900881,36.398976,-121.904296,2.1288308737,Construction on CA-1 NB near COAST RD Expect long delays.,40176.0,Highway 1,L,Big Sur,Monterey,CA,93920,US,US/Pacific,KMRY,2021-03-11 06:54:00,45.0,41.0,86.0,29.8,10.0,SSE,7.0,0.05,Light Rain,False,False,False,False,False,False,False,False,False,False,False,False,False,Day,Day,Day,Day
C-2810206,2,2021-06-07 16:19:02,2021-06-07 20:18:07,40.836535,-117.186216,40.819575,-117.164506,1.63139724257,Roadwork - on I-80 in both directions between Pumpernickel Valley and Valmy in Humboldt County Nevada. Shoulder work. Lanes reduced to one with a width limit of 14 feet and the speed limit reduced to 55 miles per hour. Decrease speed and move over for highway workers and equipment.,,I-80 E,R,Golconda,Humboldt,NV,89414,US,US/Pacific,KWMC,2021-06-07 15:56:00,86.0,86.0,10.0,25.34,10.0,WSW,15.0,0.0,Fair,False,False,False,False,False,False,False,False,False,False,False,False,False,Day,Day,Day,Day
C-2810207,2,2021-12-14 16:20:24,2021-12-14 18:26:25,25.850268,-80.180396,25.849671,-80.18471,0.271396835539,Slow traffic on US-1 N - FL-934 - US-1 S - FL-5 from NE 8th Ct to NE 81st St due to roadwork.,788.0,NE 82nd St,R,Miami,Miami-Dade,FL,33138-4161,US,US/Eastern,KOPF,2021-12-14 15:53:00,79.0,79.0,64.0,30.17,10.0,ENE,15.0,0.0,Mostly Cloudy,False,False,True,False,False,False,False,False,True,False,False,True,False,Day,Day,Day,Day
C-2810208,3,2018-12-07 05:58:27,2018-12-07 06:27:22,28.661949,-81.388603,,,0.0,Intermittent lane closures due to construction work on I-4 Eastbound at Exit 92 FL-436 Semoran Blvd.,,I-4 W,R,Altamonte Springs,Seminole,FL,32714,US,US/Eastern,KORL,2018-12-07 05:53:00,52.0,,93.0,30.36,10.0,Calm,,,Clear,False,False,False,False,False,False,False,False,False,False,False,False,False,Night,Night,Night,Day
C-2810209,4,2020-09-23 13:33:13,2020-10-01 06:59:00,41.779149,-87.722844,41.780433,-87.724678,0.129613784372,Closed road from S Pulaski Rd to W 62nd St due to roadwork.,6254.0,S Pulaski Rd,R,Chicago,Cook,IL,60629-4610,US,US/Central,KMDW,2020-09-23 13:53:00,78.0,78.0,45.0,29.35,10.0,W,9.0,0.0,Mostly Cloudy,False,False,False,False,False,False,False,False,False,False,False,False,False,Day,Day,Day,Day
C-2810210,2,2021-02-17 21:00:00,2021-02-19 06:00:00,39.533497,-119.787529,39.537267,-119.788329,0.263947451415,Overnight Roadwork (Minor Delays) - on I-580 North at I-80 Interchange in Reno Washoe County Nevada. Beginning on 2/15/21 to 2/19/21 from 9 PM t0 6 AM the I-580 northbound to I-80 eastbound and westbound ramps will be closed intermittently with a detour in place. Consider an alternate route. Estimated End Time is 6:00 AM on 02/19/21,,Martin Luther King Jr Memorial Fwy,R,Reno,Washoe,NV,89512,US,US/Pacific,KRNO,2021-02-17 20:55:00,28.0,22.0,51.0,25.75,10.0,S,6.0,0.0,Fair,False,False,False,False,False,False,False,False,False,False,False,False,False,Night,Night,Night,Night
C-2810211,2,2020-05-06 09:01:36,2020-05-09 15:59:59,39.06093,-84.59723000000002,39.06093,-84.59723000000002,0.0,At KY-8/River Rd - Roadwork during the day time.,2587.0,Amsterdam Rd,L,Ft Mitchell,Kenton,KY,41017,US,US/Eastern,KCVG,2020-05-07 08:52:00,50.0,50.0,54.0,29.1,10.0,W,9.0,0.0,Fair,False,False,False,False,False,False,False,False,False,False,False,False,False,Day,Day,Day,Day
C-2810212,2,2019-03-20 07:00:00,2019-03-21 19:00:00,38.014793,-108.921034,38.01651500000001,-108.920729,0.120131666349,At S8 Rd - Construction work.,13010.0,Highway 141,R,Egnar,San Miguel,CO,81325,US,US/Mountain,KAIB,2019-03-20 06:55:00,30.2,23.4,60.0,30.29,10.0,East,6.9,,Clear,False,False,False,False,False,False,False,False,False,False,False,False,False,Night,Day,Day,Day
C-2810213,2,2020-10-24 14:01:00,2020-10-25 03:15:00,38.685498,-121.539998,38.685503,-121.540309,0.0167768870513,Construction on ELKHORN BLVD WB near CA-99 Expect delays.,,W Elkhorn Blvd,R,Sacramento,Sacramento,CA,95836,US,US/Pacific,KSMF,2020-10-24 13:53:00,72.0,72.0,43.0,29.87,10.0,S,7.0,0.0,Fair,False,False,False,False,False,False,False,False,False,False,False,False,False,Day,Day,Day,Day
C-2810214,2,2018-05-18 06:32:45,2018-05-18 12:34:39,40.800318,-77.877997,40.801722,-77.880583,0.166445656981,At Blue Course Dr/W Clinton Ave - Roadwork. Lane blocked.,1006.0,N Atherton St,L,State College,Centre,PA,16803-3542,US,US/Eastern,KUNV,2018-05-18 06:53:00,57.2,,88.0,30.15,10.0,NE,6.9,,Scattered Clouds,False,False,True,False,False,False,False,False,True,True,False,True,False,Day,Day,Day,Day
C-2810215,2,2021-01-19 13:24:00,2021-01-19 21:59:26,25.947317,-80.151248,25.94743900000001,-80.148239,0.187134739756,Stationary traffic on FL-860 from 19th Ave (FL-860) to US-1/FL-5/Biscayne Blvd (FL-860) due to roadwork.,,NE 24th Pl,R,Miami,Miami-Dade,FL,33180,US,US/Eastern,KHWO,2021-01-19 13:53:00,74.0,74.0,46.0,30.27,10.0,E,12.0,0.0,Light Rain,False,False,True,False,False,False,False,False,False,False,False,False,False,Day,Day,Day,Day
C-2810216,2,2021-12-27 17:01:30,2021-12-27 17:21:30,26.61294,-81.80515600000003,26.612823,-81.81120899999998,0.37400065765,Stationary traffic on FL-884 from I-75 (Colonial Blvd) to Ben C Pratt-6 Mile Cypress Pkwy (Colonial Blvd) due to roadwork.,4899.0,Colonial Blvd,R,Fort Myers,Lee,FL,33966-1089,US,US/Eastern,KFMY,2021-12-27 16:53:00,78.0,78.0,58.0,30.02,10.0,W,7.0,0.0,Fair,False,False,True,False,False,False,False,False,False,False,False,True,False,Day,Day,Day,Day
C-2810217,2,2021-10-14 16:32:09,2021-10-14 18:33:46,27.916764,-82.798447,27.916664,-82.795813,0.160961846048,Slow traffic on County Hwy-416 - FL-686 from Howard Dr to Ridge Rd SW due to roadwork.,951.0,W Bay Dr,L,Largo,Pinellas,FL,33770,US,US/Eastern,KPIE,2021-10-14 16:53:00,90.0,90.0,48.0,29.87,10.0,VAR,3.0,0.0,Fair,False,False,False,False,False,False,False,False,True,False,False,True,False,Day,Day,Day,Day
C-2810218,2,2020-09-26 11:05:30,2020-09-26 19:06:57,40.74245,-73.911937,40.74332,-73.918679,0.3580150764249999,Queuing traffic on NY-25 from 58th St (Queens Blvd/NY-25) to 39th St (Queens Blvd/NY-25) due to roadwork.,,Queens Blvd,R,Woodside,Queens,NY,11377,US,US/Eastern,KLGA,2020-09-26 10:51:00,71.0,71.0,66.0,30.08,10.0,ESE,5.0,0.0,Cloudy,False,False,False,False,False,False,True,False,True,False,False,True,False,Day,Day,Day,Day
C-2810219,2,2021-08-24 12:58:30,2021-08-24 13:49:30,29.724914,-95.345641,29.726844,-95.342888,0.212291956529,Stationary traffic from Holman St to State Highway 35 due to roadwork.,3289.0,Cullen Blvd,L,Houston,Harris,TX,77004-2654,US,US/Central,KMCJ,2021-08-24 12:53:00,94.0,94.0,44.0,29.96,10.0,S,3.0,0.0,Partly Cloudy,False,False,True,False,False,False,False,False,False,False,False,False,False,Day,Day,Day,Day
C-2810220,4,2020-10-28 02:00:00,2020-10-28 12:45:00,30.00740900000001,-90.266048,30.007585,-90.263671,0.142739922122,Construction on I-10 EB near LOYOLA DR Take alternate route.,,Loyola Dr,R,Kenner,Jefferson,LA,70062,US,US/Central,KMSY,2020-10-28 01:53:00,78.0,78.0,87.0,29.9,10.0,ENE,5.0,0.0,Mostly Cloudy,False,False,False,False,False,False,False,False,False,False,False,True,False,Night,Night,Night,Night
C-2810221,2,2021-12-23 16:39:54,2021-12-23 17:00:42,42.094663,-76.00948199999998,42.095856,-76.000564,0.464591970763,Stationary traffic on NY-434 from NY-26 (Vestal Pkwy/NY-434) to NY-201 (Vestal Pkwy/NY-434) due to roadwork.,2498.0,Vestal Pkwy E,R,Vestal,Broome,NY,13850,US,US/Eastern,KBGM,2021-12-23 16:53:00,21.0,21.0,78.0,28.34,10.0,ESE,3.0,0.0,Fair,False,False,False,False,False,False,False,False,False,False,False,True,False,Night,Day,Day,Day
C-2810222,2,2020-08-06 04:01:00,2020-08-06 12:46:00,33.913282,-118.12771399999998,33.918992,-118.196154,3.94396270167,Construction on I-105 WB near I-710 Expect delays.,,Glenn Anderson Fwy W,R,Downey,Los Angeles,CA,90242,US,US/Pacific,KLGB,2020-08-06 03:53:00,65.0,65.0,81.0,29.84,10.0,S,5.0,0.0,Cloudy,False,False,False,False,False,False,False,False,False,False,False,False,False,Night,Night,Night,Night
C-2810223,2,2021-03-08 09:30:00,2021-03-08 14:45:00,40.703093,-73.482187,40.69417,-73.543594,3.27524243629,Construction on SOUTHERN STATE PKWY WB near NY-107 Construction. Right lane closed.,,Southern State Pkwy W,R,Massapequa,Nassau,NY,11758,US,US/Eastern,KFRG,2021-03-08 09:53:00,32.0,24.0,35.0,30.37,10.0,NNW,10.0,0.0,Fair,False,False,False,False,False,False,False,False,False,False,False,False,False,Day,Day,Day,Day
C-2810224,4,2020-12-22 11:33:33,2020-12-30 07:59:00,29.687449,-98.145984,29.685937,-98.143618,0.176303834093,Closed road from Katy St to W San Antonio St / S Hidalgo Ave due to roadwork.,2299.0,Katy St,R,New Braunfels,Comal,TX,78130-6744,US,US/Central,KBAZ,2020-12-22 11:51:00,71.0,71.0,55.0,29.45,10.0,S,13.0,0.0,Mostly Cloudy,False,False,False,False,False,False,False,False,False,False,False,False,False,Day,Day,Day,Day
C-2810225,2,2021-10-21 14:41:30,2021-10-21 16:44:53,40.234759,-79.581476,40.241531,-79.57674499999997,0.53027932146,Slow traffic on US-119 N from Burton Ave (US-119) to Fairview St (US-119) due to roadwork.,298.0,S 3rd St,L,Youngwood,Westmoreland,PA,15697-1627,US,US/Eastern,KLBE,2021-10-21 14:50:00,72.0,72.0,60.0,28.64,10.0,SW,17.0,0.0,Partly Cloudy,False,False,False,False,False,False,False,False,False,False,False,False,False,Day,Day,Day,Day
C-2810226,2,2021-10-08 15:29:28,2021-10-08 18:05:40,27.846472,-82.381535,27.85101400000001,-82.381884,0.314545739613,Stationary traffic on FL-45 - US-41 N from Symmes Rd (US-41) to CR-676A/Pendola Point Rd/Madison Ave (US-41) due to roadwork.,10734.0,S US Highway 41,R,Gibsonton,Hillsborough,FL,33534,US,US/Eastern,KTPF,2021-10-08 15:35:00,82.0,82.0,79.0,29.96,10.0,CALM,0.0,0.0,Cloudy,False,False,False,False,False,False,False,False,True,False,False,False,False,Day,Day,Day,Day
C-2810227,4,2019-11-06 14:47:34,2019-11-10 14:47:14,38.98767,-76.58672,38.98778,-76.58538,0.0723649058139,Closed at Crownsville Rd - Closed due to roadwork.,538.0,Defense Hwy,R,Crownsville,Anne Arundel,MD,21032-2314,US,US/Eastern,KNAK,2019-11-06 14:54:00,54.0,54.0,51.0,30.37,10.0,SE,8.0,0.0,Fair,False,False,False,False,False,False,False,False,False,False,False,True,False,Day,Day,Day,Day
C-2810228,2,2021-09-22 17:08:14,2021-09-22 17:21:14,40.759449,-74.002789,40.757122,-73.99701999999998,0.3420682457819999,Slow traffic on NY-495 E from Toll Plaza (NJ-495) to 35th St/36th St (NY-495) due to roadwork.,,Lincoln Tunl E,R,New York,New York,NY,10018,US,US/Eastern,KNYC,2021-09-22 16:51:00,77.0,,76.0,29.92,10.0,,,0.0,Mostly Cloudy,False,False,True,False,False,False,False,False,False,False,False,True,False,Day,Day,Day,Day
C-2810229,2,2019-09-30 20:30:00,2019-10-01 07:00:00,40.661868,-87.031378,40.570662,-86.943802,7.79801935723,Between US-231/Exit 193 and IN-43/Exit 178 - Maintenance work. Right lane closed.,,I-65 S,R,Chalmers,White,IN,47929,US,US/Eastern,KLAF,2019-09-30 20:54:00,74.0,74.0,82.0,29.35,10.0,W,3.0,0.0,Fair,False,False,False,False,False,False,False,False,False,False,False,False,False,Night,Night,Night,Day
C-2810230,4,2020-06-01 23:43:31,2020-06-02 04:38:23,37.74063,-122.40793,37.73515,-122.40685,0.383202970004,At I-280/Alemany Blvd - Roadwork.,,James Lick Fwy S,R,San Francisco,San Francisco,CA,94110,US,US/Pacific,KSFO,2020-06-01 23:56:00,57.0,57.0,81.0,29.97,10.0,W,6.0,0.0,Partly Cloudy,False,False,False,False,False,False,False,False,False,False,False,False,False,Night,Night,Night,Night
C-2810231,4,2021-07-06 06:17:25,2021-07-13 23:59:00,29.488823,-98.499277,29.488543,-98.499278,0.019346250958,Closed road from I-410 (San Pedro Ave) to Basse Rd (San Pedro Ave) due to roadwork.,5915.0,San Pedro Ave,L,San Antonio,Bexar,TX,78212-1253,US,US/Central,KSAT,2021-07-06 06:06:00,75.0,75.0,96.0,29.03,0.5,ENE,12.0,0.0,Light Rain,False,False,True,False,False,False,False,False,False,False,False,True,False,Night,Day,Day,Day
C-2810232,2,2020-06-18 21:58:16,2020-06-30 00:09:14,41.101731,-74.169076,41.109471,-74.164586,0.583639918811,Construction drainage improvements on I-287 northbound at Exit 66 - NJ 17 (Mahwah Twp) various lane closed for repairs until 3:00 P.M.,,I-287 N,R,Mahwah,Bergen,NJ,07430,US,US/Eastern,KCDW,2020-06-18 21:53:00,73.0,73.0,79.0,29.95,10.0,CALM,0.0,0.0,Fair,False,False,False,False,False,False,False,False,False,False,False,False,False,Night,Night,Night,Day
C-2810233,2,2021-03-10 04:21:00,2021-12-27 13:00:17,42.671695,-82.94806,42.671909,-82.940628,0.377841088347,Stationary traffic from Hayes Rd (23 Mile Rd) to Romeo Plank Rd (23 Mile Rd) due to roadwork.,17632.0,23 Mile Rd,R,Macomb,Macomb,MI,48044,US,US/Eastern,KMTC,2021-09-10 15:56:00,73.0,73.0,53.0,29.43,10.0,ENE,5.0,0.0,Mostly Cloudy,False,False,True,False,False,False,False,False,False,False,False,True,False,Night,Night,Night,Night
C-2810234,2,2021-12-18 13:52:30,2021-12-18 14:16:30,40.347343,-121.597385,40.344997,-121.604408,0.403789349067,Stationary traffic on CA-36 from CA-172/Husky Way (CA-36) to CR-A6/Manton Rd/Long Rd (CA-36) due to roadwork.,38579.0,State Highway 36 E,R,Mill Creek,Tehama,CA,96061,US,US/Pacific,KRBL,2021-12-18 13:54:00,50.0,50.0,59.0,29.82,10.0,ESE,5.0,0.0,Fair,False,False,False,False,False,False,False,False,False,False,False,False,False,Day,Day,Day,Day
C-2810235,2,2021-12-13 17:08:00,2021-12-13 19:18:35,33.554251,-112.099755,33.553078,-112.098237,0.11919944719,Slow traffic from N 19th Dr to N 17th Dr due to roadwork.,7996.0,N 19th Ave,L,Phoenix,Maricopa,AZ,85021,US,US/Mountain,KDVT,2021-12-13 16:53:00,66.0,,40.0,28.41,10.0,,,0.0,Fair,False,False,False,False,False,False,False,False,False,False,False,False,False,Day,Day,Day,Day
C-2810236,2,2019-01-04 09:00:00,2019-01-04 15:00:00,38.041969,-84.505432,,,0.5,One lane closed due to construction on US-27 Bolivar St between Broadway and Upper St.,573.0,S Upper St,R,Lexington,Fayette,KY,40508-2935,US,US/Eastern,KLEX,2019-01-04 08:54:00,42.1,37.7,79.0,29.84,10.0,ESE,6.9,,Scattered Clouds,False,False,False,False,False,False,False,False,False,False,False,True,False,Day,Day,Day,Day
C-2810237,2,2021-10-27 15:33:00,2021-10-27 17:45:43,41.72068,-87.70549100000002,41.720307,-87.70190500000002,0.186721932492,Slow traffic on US-12 E - US-20 W - US-12 W - US-20 E from S Turner Ave to W 96th St due to roadwork.,3329.0,W 95th St,L,Evergreen Park,Cook,IL,60805-2234,US,US/Central,KMDW,2021-10-27 15:53:00,56.0,56.0,47.0,29.23,10.0,E,15.0,0.0,Mostly Cloudy,False,False,False,False,False,False,False,False,False,False,False,False,False,Day,Day,Day,Day
C-2810238,2,2020-08-19 07:00:00,2020-08-31 18:41:21,38.50038,-121.540549,38.498162,-121.540437,0.153368826065,Construction on TREASURE WAY near RIVERBOAT WAY Drive with caution.,401.0,Ark Way,R,Sacramento,Sacramento,CA,95831-2507,US,US/Pacific,KSAC,2020-08-19 06:53:00,70.0,70.0,59.0,29.84,10.0,SW,3.0,0.0,Cloudy,False,False,False,False,False,False,False,False,False,False,False,False,False,Day,Day,Day,Day
C-2810239,2,2020-10-01 13:21:30,2020-10-01 19:41:49,40.609169,-73.969962,40.609557,-73.966302,0.193841821926,Slow traffic from 65th St (Avenue P) to Coney Island Ave (Avenue P) due to roadwork.,1700.0,E 4th St,R,Brooklyn,Kings,NY,11223-1933,US,US/Eastern,KJRB,2020-10-01 12:51:00,70.0,70.0,47.0,29.8,10.0,VAR,6.0,0.0,Fair,False,False,True,False,False,False,False,False,False,False,False,True,False,Day,Day,Day,Day
C-2810240,2,2020-11-17 13:22:00,2020-11-18 00:36:11,27.748548,-82.335175,27.740771,-82.335202,0.537342060353,Stationary traffic on US-301 S - FL-43 - US-301 N from CR-672 (US-301) to FL-674/Sun City Center Blvd (US-301) due to roadwork.,14699.0,S US Highway 301,L,Sun City Center,Hillsborough,FL,33573,US,US/Eastern,KMCF,2020-11-17 12:56:00,75.0,75.0,33.0,30.2,10.0,ENE,12.0,0.0,Fair,False,False,False,False,False,False,False,False,False,False,False,True,False,Day,Day,Day,Day
C-2810241,2,2021-12-30 16:10:43,2021-12-30 18:14:37,27.821096,-82.68156,27.822206,-82.679473,0.148814177697,Slow traffic on US-19 N from 35th Way N to 58th Ave N due to roadwork.,5350.0,35th Way N,L,Saint Petersburg,Pinellas,FL,33714-2306,US,US/Eastern,KSPG,2021-12-30 15:53:00,77.0,77.0,79.0,30.0,10.0,SSW,9.0,0.0,Fair,True,False,True,False,False,False,False,False,True,False,False,False,False,Day,Day,Day,Day
C-2810242,2,2021-10-29 16:43:30,2021-10-29 19:14:06,42.03691,-88.341105,42.035106,-88.338901,0.168311162756,Stationary traffic on County Hwy-34 from Win Haven Dr to Brookside Dr due to roadwork.,,Win Haven Dr,R,Elgin,Kane,IL,60123,US,US/Central,KDPA,2021-10-29 16:52:00,54.0,54.0,90.0,28.81,10.0,N,18.0,0.0,Light Rain,False,False,False,False,False,False,False,False,False,False,False,False,False,Day,Day,Day,Day
C-2810243,2,2021-02-16 00:55:30,2021-02-16 02:25:00,26.109189,-81.76005500000002,26.108729,-81.757856,0.140085778625,Stationary traffic from Bayshore Dr (Thomasson Dr) to US-41/FL-90/Tamiami Trl E (Thomasson Dr) due to roadwork.,4799.0,Lombardy Ln,L,Naples,Collier,FL,34112-6659,US,US/Eastern,KAPF,2021-02-16 00:53:00,76.0,76.0,87.0,29.97,8.0,S,9.0,0.0,Partly Cloudy,False,False,False,False,False,False,False,False,False,False,False,False,False,Night,Night,Night,Night
C-2810244,2,2021-11-03 19:00:00,2021-11-04 05:00:00,39.535767,-76.115593,,,4.94000005722,Intermittent lane closures due to construction on US-40 Pulaski Hwy both ways between Robin Hood Rd and MD-7.,,Pulaski Hwy,R,Havre de Grace,Harford,MD,21078,US,US/Eastern,KAPG,2021-11-03 18:58:00,39.0,39.0,83.0,30.25,7.0,CALM,0.0,0.0,Partly Cloudy,False,False,False,False,False,False,False,False,False,False,False,True,False,Night,Night,Night,Day
C-2810245,2,2021-09-22 22:34:30,2021-09-23 02:02:00,29.536931,-98.394901,29.536352,-98.394483,0.0472420131625,Roadwork from Schertz Rd/Chapala Way (Thousand Oaks Dr) to I-35 (Thousand Oaks Dr).,4770.0,Thousand Oaks Dr,L,San Antonio,Bexar,TX,78233,US,US/Central,KRND,2021-09-22 22:56:00,62.0,62.0,58.0,29.32,10.0,NNW,7.0,0.0,Fair,False,False,False,False,False,False,False,False,False,False,False,False,False,Night,Night,Night,Night
C-2810246,2,2021-09-06 12:06:45,2021-09-06 12:27:18,39.115912,-74.715568,39.119512,-74.715684,0.248814026197,Stationary traffic on County Hwy-619 from CR-601/Avalon Blvd (Ocean Dr/CR-619) to CR-625/John F Kennedy Blvd (Landis Ave/CR-619) due to roadwork.,,Ocean Dr,R,Avalon,Cape May,NJ,08202,US,US/Eastern,KWWD,,,,,,,,,,,False,False,False,False,False,False,False,False,False,False,False,True,False,Day,Day,Day,Day
C-2810247,2,2021-01-18 15:48:30,2021-01-19 01:01:56,30.546305,-89.669162,30.545058,-89.669626,0.0904753355249,Slow traffic on MS-43 - US-11 S from Old MS-11 (US-11) to MS-43/Memorial Blvd (US-11) due to roadwork.,2301.0,Highway 11 N,L,Picayune,Pearl River,MS,39466-2063,US,US/Central,KASD,2021-01-18 15:53:00,62.0,62.0,26.0,30.12,10.0,SSW,8.0,0.0,Fair,False,False,False,False,False,False,False,False,False,False,False,False,False,Day,Day,Day,Day
C-2810248,3,2018-05-16 09:00:55,2018-05-16 15:00:55,41.61058,-87.69721,41.62953,-87.69329,1.3248833545299998,Ramp to I-294 Northbound - Roadwork.,,I-57 N,R,Markham,Cook,IL,60428,US,US/Central,KIGQ,2018-05-16 08:55:00,61.9,,73.0,30.04,10.0,North,4.6,,Clear,False,False,False,False,False,False,False,False,False,False,False,False,False,Day,Day,Day,Day
C-2810249,2,2021-12-17 18:19:00,2021-12-17 18:33:00,39.89902100000001,-75.17410100000002,39.90136500000001,-75.152286,1.16761065964,Slow traffic on I-95 N from Enterprise Ave/Exit 15 (I-95) to I-76/Packer Ave/Exit 19 (I-95) due to roadwork.,,Terminal Ave,R,Philadelphia,Philadelphia,PA,19148,US,US/Eastern,KPHL,2021-12-17 17:54:00,56.0,56.0,22.0,30.18,10.0,WNW,8.0,0.0,Mostly Cloudy,False,False,False,False,False,False,False,False,False,False,False,False,False,Night,Night,Night,Night
C-2810250,2,2021-06-17 13:57:00,2021-06-17 14:32:33,41.023336,-78.367041,41.021084,-78.345078,1.15540996323,Slow traffic on I-80 E from PA-879/Exit 120 (I-80) to PA-970/Exit 123 (I-80) due to roadwork.,,I-80 E,R,Woodland,Clearfield,PA,16881,US,US/Eastern,KFIG,2021-06-17 13:54:00,70.0,70.0,31.0,28.46,10.0,WSW,8.0,0.0,Fair,False,False,False,False,False,False,False,False,False,False,False,False,False,Day,Day,Day,Day
C-2810251,3,2021-04-12 06:00:00,2021-07-02 17:00:00,42.737026,-86.095673,,,2.28999996185,One lane closed due to construction on I-196 Southbound from I-196 / M-40 Lincoln Rd to I-196 / Lincoln Ave.,,56th St,R,Holland,Allegan,MI,49423,US,US/Eastern,KBIV,2021-04-12 05:53:00,44.0,42.0,79.0,28.88,10.0,WNW,5.0,0.0,Cloudy,False,False,False,False,False,False,False,False,False,False,False,False,False,Night,Night,Night,Day
C-2810252,2,2019-04-17 05:34:50,2019-04-21 05:34:27,35.78798,-78.637757,35.7881,-78.639612,0.104298390692,At US-401/US-70/NC-50/Capital Blvd - Maintenance work. Lane blocked.,96.0,E Peace St,R,Raleigh,Wake,NC,27604-1164,US,US/Eastern,KRDU,2019-04-17 05:51:00,50.0,50.0,80.0,29.64,10.0,SW,5.0,0.0,Partly Cloudy,False,False,True,False,False,False,False,False,True,False,False,False,False,Night,Night,Night,Day
C-2810253,2,2021-03-03 05:57:00,2021-03-03 16:37:36,40.865373,-73.869973,40.865434,-73.86739,0.135032209875,Slow traffic from Bronx Park (Allerton Ave) to US-1/Boston Rd (Allerton Ave) due to roadwork.,630.0,Allerton Ave,R,Bronx,Bronx,NY,10467-7404,US,US/Eastern,KLGA,2021-03-03 05:51:00,35.0,28.0,40.0,29.92,10.0,SW,9.0,0.0,Fair,True,False,False,False,False,False,True,False,True,False,False,True,False,Night,Night,Day,Day
C-2810254,4,2019-11-06 11:06:59,2019-11-06 16:06:36,43.60753,-116.59983,43.6092,-116.59765,0.158771864521,Closed at I-84/US-30 - Closed due to roadwork.,,ID-55,R,Nampa,Canyon,ID,83651,US,US/Mountain,KMAN,2019-11-06 11:15:00,46.0,44.0,53.0,27.55,9.0,NW,6.0,0.0,Fair,False,False,False,False,False,False,False,False,False,False,False,True,False,Day,Day,Day,Day
C-2810255,2,2020-10-18 23:57:00,2020-10-19 00:26:00,38.277424,-84.560815,38.27633400000001,-84.55759300000003,0.190298595762,Queuing traffic on KY-3487 from US-25/Cincinnati Rd (Delaplain Rd/KY-3487) to I-75 (Cherry Blossom Way/KY-3487) due to roadwork.,243.0,Cherry Blossom Way,L,Georgetown,Scott,KY,40324-8967,US,US/Eastern,KLEX,2020-10-18 23:54:00,55.0,55.0,80.0,29.15,10.0,ESE,3.0,0.0,Light Rain,False,False,False,False,False,False,False,False,False,False,False,False,False,Night,Night,Night,Night
C-2810256,2,2021-11-12 12:09:00,2021-11-12 12:29:00,27.340403,-82.546837,27.335855,-82.547657,0.318241720918,Slow traffic on FL-45 - FL-789 - US-41 S - FL-780 from Boulevard of the Arts to John Ringling Cswy / Sunset Dr due to roadwork.,457.0,N Tamiami Trl,L,Sarasota,Sarasota,FL,34236,US,US/Eastern,KSRQ,2021-11-12 11:53:00,78.0,78.0,76.0,30.03,10.0,NE,3.0,0.0,Partly Cloudy,False,False,False,False,False,False,False,False,False,False,False,False,False,Day,Day,Day,Day
