ID,Severity,Start_Time,End_Time,Start_Lat,Start_Lng,End_Lat,End_Lng,Distance(mi),Description,Number,Street,Side,City,County,State,Zipcode,Country,Timezone,Airport_Code,Weather_Timestamp,Temperature(F),Wind_Chill(F),Humidity(%),Pressure(in),Visibility(mi),Wind_Direction,Wind_Speed(mph),Precipitation(in),Weather_Condition,Amenity,Bump,Crossing,Give_Way,Junction,No_Exit,Railway,Roundabout,Station,Stop,Traffic_Calming,Traffic_Signal,Turning_Loop,Sunrise_Sunset,Civil_Twilight,Nautical_Twilight,Astronomical_Twilight
C-4124495,2,2021-11-23 15:03:52,2021-11-23 17:37:36,28.593131,-81.364094,28.593923,-81.365093,0.081655208159,Slow traffic on FL-424A - US-92 E - FL-426 - US-17 N - US-92 W - US-17 S from Harper St to W Comstock Ave due to roadwork.,592.0,Harper St,R,Winter Park,Orange,FL,32789,US,US/Eastern,KORL,2021-11-23 14:53:00,66.0,66.0,36.0,29.97,10.0,NNE,14.0,0.0,Fair,False,False,True,False,False,False,False,False,False,False,False,False,False,Day,Day,Day,Day
C-4124496,2,2021-12-08 17:43:49,2021-12-08 18:07:23,29.507044,-95.186239,29.509245,-95.188364,0.19863033465,Slow traffic on FM-518 from Bay Area Blvd (FM-518) to Parkwood Ave (S Friendswood Dr/FM-518) due to roadwork.,1725.0,S Friendswood Dr,L,Friendswood,Galveston,TX,77546-5409,US,US/Central,KLVJ,2021-12-08 17:53:00,64.0,64.0,87.0,29.96,7.0,ESE,9.0,0.0,Cloudy,False,False,False,False,False,False,False,False,False,False,False,True,False,Night,Day,Day,Day
C-4124497,2,2021-12-30 11:18:00,2021-12-30 13:32:16,40.881083,-73.87849399999998,40.88081500000001,-73.883496,0.261957456384,Slow traffic from Bainbridge Ave to Mosholu Pkwy N due to roadwork.,3498.0,Bainbridge Ave,R,Bronx,Bronx,NY,10467-2802,US,US/Eastern,KLGA,2021-12-30 10:51:00,46.0,44.0,86.0,29.93,5.0,E,5.0,0.0,Cloudy,False,False,False,False,False,False,False,False,False,False,False,True,False,Day,Day,Day,Day
C-4124498,3,2019-02-24 14:55:30,2019-07-11 22:52:39,42.029351,-91.70434,42.03015,-91.70893,0.24195208302,At Edgewood Rd NE - Roadwork.,,Collins Rd NE,R,Cedar Rapids,Linn,IA,52411,US,US/Central,KCID,2019-02-24 14:52:00,15.1,-6.5,80.0,30.15,4.0,WNW,34.5,0.0,Light Snow,False,False,False,False,False,False,False,False,False,False,False,False,False,Day,Day,Day,Day
C-4124499,4,2019-09-23 20:19:54,2019-09-24 01:19:43,42.859697,-78.870338,42.883738,-78.879021,1.7182811331,Closed between Fuhrmann Blvd/Tifft St and Edward St/Goodell St - Closed due to roadwork.,,Buffalo Skwy N,R,Buffalo,Erie,NY,14203,US,US/Eastern,KBUF,2019-09-23 19:54:00,63.0,63.0,90.0,29.06,10.0,WSW,6.0,0.0,Mostly Cloudy,False,False,True,False,True,False,False,False,False,False,False,True,False,Night,Night,Night,Day
C-4124500,2,2018-08-08 09:03:00,2018-08-08 15:03:00,33.7645,-84.38750999999998,33.760963000000004,-84.38758,0.244416500116,Between Porter Pl NE and Baker St NE - Construction work.,1.0,Porter Pl NE,R,Atlanta,Fulton,GA,30308,US,US/Eastern,KFTY,2018-08-08 08:53:00,75.0,,90.0,30.09,10.0,WSW,3.5,,Clear,True,False,True,False,False,False,False,False,False,False,False,True,False,Day,Day,Day,Day
C-4124501,2,2021-03-15 06:25:17,2021-06-23 21:30:27,28.663063,-81.36196600000002,28.663873,-81.357883,0.253784462196,Stationary traffic on County Hwy-427 - FL-436 from Maitland Ave to Leonard St due to roadwork.,848.0,E Altamonte Dr,R,Altamonte Springs,Seminole,FL,32701-5002,US,US/Eastern,KORL,2021-03-15 06:53:00,63.0,63.0,93.0,29.98,10.0,CALM,0.0,0.0,Fair,False,False,False,False,False,False,False,False,False,False,False,False,False,Night,Night,Night,Day
C-4124502,2,2021-08-15 22:00:00,2021-12-28 14:43:34,45.7806,-123.345474,45.773706,-123.373755,1.4436845537600005,Slow traffic on US-26 E - US-26 W from Timber Rd/NW Vernonia Rd (US-26) to OR-103 (US-26) due to roadwork.,61811.0,NW Sunset Hwy,R,Vernonia,Columbia,OR,97064,US,US/Pacific,KSPB,2021-12-28 09:17:00,32.0,32.0,92.0,29.76,2.0,CALM,0.0,0.0,Fog,False,False,False,False,False,False,False,False,False,False,False,False,False,Night,Night,Night,Day
C-4124503,2,2018-04-27 04:30:02,2018-04-27 11:24:01,40.72583,-74.01093,40.750039,-74.00826500000002,1.67849115003,Between Canal St and 11th Ave - Construction work.,,West St,R,New York,New York,NY,10013,US,US/Eastern,KJRB,2018-04-27 04:35:00,55.4,,63.0,,10.0,NE,9.2,,,False,False,True,False,False,False,False,False,False,False,False,True,False,Night,Night,Night,Day
C-4124504,2,2021-09-02 09:00:00,2021-09-02 16:00:00,33.617667,-84.39836600000002,33.621728000000004,-84.399438,0.287287514701,Roadwork on GA-331/Forest Pkwy/Exit 237 (I-75) from GA-85/Exit 237 (I-75) to I-75 N - GA-401 N.,,Forest Pkwy,R,Forest Park,Clayton,GA,30297,US,US/Eastern,KATL,2021-09-02 08:52:00,75.0,75.0,69.0,28.84,10.0,ENE,8.0,0.0,Fair,False,False,False,False,False,False,False,False,False,False,False,False,False,Day,Day,Day,Day
C-4124505,2,2021-12-10 15:08:21,2021-12-10 15:29:00,26.65070200000001,-80.188123,26.650798,-80.17831899999999,0.605460263709,Slow traffic on FL-882 from Entrance Ln (FL-882) to Florida's Tpke (FL-882) due to roadwork.,8534.0,Forest Hill Blvd,R,Wellington,Palm Beach,FL,33414,US,US/Eastern,KPBI,2021-12-10 14:53:00,81.0,81.0,69.0,30.08,10.0,E,10.0,0.0,Partly Cloudy,False,False,False,False,False,False,False,False,False,False,False,True,False,Day,Day,Day,Day
C-4124506,2,2020-06-12 08:06:58,2020-06-12 15:00:00,40.69922,-74.23161,40.69911,-74.23925,0.400276374669,At CR-30/CR-630/Vaux Hall Rd - Roadwork. Right lane closed.,1345.0,Liberty Ave,R,Hillside,Union,NJ,07205-1804,US,US/Eastern,KEWR,2020-06-12 07:51:00,75.0,75.0,55.0,30.08,10.0,N,10.0,0.0,Fair,False,False,True,False,False,False,True,False,False,False,False,False,False,Day,Day,Day,Day
C-4124507,3,2017-08-14 21:24:45,2017-08-15 03:24:47,34.19511,-118.33205,34.200774,-118.33826299999998,0.528408500808,At N Victory Pl/N Lincoln St - Roadwork.,,I-5 N,R,Burbank,Los Angeles,CA,91504,US,US/Pacific,KBUR,2017-08-14 21:53:00,64.9,,81.0,29.85,10.0,South,6.9,,Clear,False,False,False,False,False,False,False,False,False,False,False,False,False,Night,Night,Night,Night
C-4124508,2,2020-12-03 04:23:36,2020-12-03 18:00:00,39.371193,-77.391937,,,0.0,Intermittent lane closures due to construction on MD-355 Urbana Pike both ways at Araby Church Rd.,,Urbana Pike,R,Frederick,Frederick,MD,21704,US,US/Eastern,KFDK,2020-12-03 04:15:00,34.0,34.0,60.0,29.94,10.0,S,3.0,0.0,Fair,False,False,False,False,False,False,True,False,False,False,False,False,False,Night,Night,Night,Night
C-4124509,2,2021-08-02 17:12:57,2021-08-02 20:36:59,44.94733,-93.276654,44.94865,-93.276656,0.0912033662437,Slow traffic on County Hwy-3 from E 31st St to I-35W S due to roadwork.,3044.0,1st Ave S,R,Minneapolis,Hennepin,MN,55408-3101,US,US/Central,KMSP,2021-08-02 16:53:00,80.0,80.0,38.0,29.2,8.0,W,7.0,0.0,Mostly Cloudy,False,False,True,False,False,False,False,False,True,False,False,False,False,Day,Day,Day,Day
C-4124510,3,2016-07-21 05:04:59,2016-07-21 09:00:00,34.04797,-118.266563,,,0.0,Entry ramp closed due to bridge maintenance work on CA-110 Southbound at 8th St.,,CA-110 S,R,Los Angeles,Los Angeles,CA,90017,US,US/Pacific,KCQT,2016-07-21 04:47:00,68.0,,73.0,29.92,10.0,Calm,,,Clear,False,False,False,False,False,False,False,False,False,False,False,False,False,Night,Night,Day,Day
C-4124511,2,2021-10-25 16:12:30,2021-10-25 18:16:47,25.942666,-80.204071,25.94164,-80.20523399999998,0.101225940463,Slow traffic on FL-7 - FL-860 - US-441 S from NE 183rd St / N Miami Ave to US-441 due to roadwork.,145.0,NW 183rd St,R,Miami,Miami-Dade,FL,33169-4509,US,US/Eastern,KHWO,2021-10-25 15:53:00,87.0,87.0,63.0,29.9,10.0,WSW,13.0,0.0,Fair,False,False,False,False,False,False,False,False,True,False,False,False,False,Day,Day,Day,Day
C-4124512,4,2021-11-16 21:14:00,2021-11-17 00:00:21,33.927145,-118.239169,33.928037,-118.237048,0.136323669797,Bridge closure from Wilmington Ave to I-105 E.,11713.0,Wilmington Ave,L,Los Angeles,Los Angeles,CA,90059-2542,US,US/Pacific,KHHR,2021-11-16 20:53:00,59.0,59.0,81.0,29.93,9.0,SE,7.0,0.0,Cloudy,False,False,True,False,False,False,True,False,False,False,False,True,False,Night,Night,Night,Night
C-4124513,4,2020-12-15 18:10:00,2020-12-17 02:01:26,41.97152,-72.334695,41.971404,-72.33643000000002,0.0894856253683,CT-190 is closed from CT-32/Topsy Dr/Monson Rd (W Main St/W Stafford Rd/CT-190) to Orcuttville Rd (W Stafford Rd/CT-190) due to roadwork.,,W Stafford Rd,R,Stafford Springs,Tolland,CT,06076,US,US/Eastern,KIJD,2020-12-15 17:52:00,30.0,22.0,36.0,30.05,10.0,WNW,8.0,0.0,Fair,False,False,True,False,False,False,False,False,False,False,False,False,False,Night,Night,Night,Night
C-4124514,2,2020-03-25 09:15:09,2020-03-25 15:00:00,40.69911,-74.23925,40.69922,-74.23161,0.400276374669,At CR-21/CR-628/Hillside Ave - Roadwork.,513.0,US Highway 22,R,Hillside,Union,NJ,07205-1914,US,US/Eastern,KEWR,2020-03-25 08:51:00,43.0,38.0,74.0,30.07,10.0,ENE,8.0,0.0,Cloudy,False,False,True,False,False,False,True,False,False,False,False,False,False,Day,Day,Day,Day
C-4124515,2,2021-07-20 12:06:15,2021-07-20 12:33:07,43.579075,-116.61309,43.576034,-116.613048,0.2101236056879999,Stationary traffic from Orchard Ave (N Middleton Rd) to Lone Star Rd (N Middleton Rd) due to roadwork.,43.0,N Middleton Rd,L,Nampa,Canyon,ID,83651-7605,US,US/Mountain,KMAN,2021-07-20 12:15:00,82.0,82.0,45.0,27.41,7.0,E,5.0,0.0,,False,False,True,False,False,False,False,False,False,True,False,True,False,Day,Day,Day,Day
C-4124516,2,2021-02-03 13:27:30,2021-02-04 00:13:00,40.164886,-76.157375,40.163354,-76.151584,0.323575045986,Slow traffic on US-322 E - US-322 W from State St (Main St/US-322) to US-222 (Main St/28th Division Hwy/US-322) due to roadwork.,,E Main St,R,Ephrata,Lancaster,PA,17522,US,US/Eastern,KLNS,2021-02-03 13:53:00,34.0,22.0,56.0,29.19,10.0,NW,21.0,0.0,Cloudy / Windy,False,False,False,False,False,False,False,False,False,False,False,False,False,Day,Day,Day,Day
C-4124517,2,2020-11-15 13:42:00,2020-11-15 21:16:30,33.666996000000005,-112.030015,33.669562,-112.03073899999998,0.182116296429,Stationary traffic from Union Hills Dr (N Cave Creek Rd) to Beardsley Rd (N Cave Creek Rd) due to roadwork.,19852.0,N Cave Creek Rd,R,Phoenix,Maricopa,AZ,85024-1226,US,US/Mountain,KDVT,2020-11-15 13:53:00,78.0,78.0,12.0,28.47,10.0,SSW,8.0,0.0,Fair,True,False,True,False,False,False,False,False,False,True,False,True,False,Day,Day,Day,Day
C-4124518,4,2020-09-14 03:00:00,2020-09-14 13:00:00,39.874495,-83.052102,39.882366,-83.046938,0.608873852084,Construction on I-71 NB near STRINGTOWN RD Use alternate exit ramp.,,I-71 N,R,Grove City,Franklin,OH,43123,US,US/Eastern,KTZR,2020-09-14 02:55:00,63.0,63.0,86.0,29.19,10.0,N,8.0,0.0,Fair,False,False,False,False,True,False,False,False,False,False,False,False,False,Night,Night,Night,Night
C-4124519,2,2021-04-28 09:00:00,2021-04-28 14:00:00,34.232632,-117.29483799999998,,,0.0,Intermittent lane closures due to maintenance work on CA-18 both ways from Cloudland Truck Trl to Mormon Rd.,22510.0,Rim of the World Hwy,L,Cedarpines Park,San Bernardino,CA,92322,US,US/Pacific,KSBD,2021-04-28 08:53:00,73.0,73.0,15.0,28.83,10.0,N,15.0,0.0,Fair,False,False,False,False,False,False,False,False,False,True,False,False,False,Day,Day,Day,Day
C-4124520,2,2021-06-11 21:19:30,2021-06-11 23:24:08,39.763707,-86.334998,39.763717,-86.337968,0.157742182204,Slow traffic on US-36 E - US-36 W from Raceway Rd (Rockville Rd/US-36) to IN-267 (US-36) due to roadwork.,10640.0,E US Highway 36,L,Avon,Hendricks,IN,46123-7900,US,US/Eastern,KIND,2021-06-11 21:07:00,79.0,79.0,72.0,28.97,8.0,W,9.0,0.0,Light Rain with Thunder,False,False,False,False,False,False,False,False,False,False,False,False,False,Night,Day,Day,Day
C-4124521,2,2018-07-03 04:29:01,2018-11-30 10:00:00,34.276306,-86.241928,,,1.51999998093,Road closed due to construction on AL-205 both ways from Gethsemane Rd to Cole Dr.,1670.0,AL Highway 205 N,R,Albertville,Marshall,AL,35950-5332,US,US/Central,K8A0,2018-07-03 04:35:00,71.6,,100.0,30.09,10.0,Calm,,,Scattered Clouds,False,False,False,False,False,False,False,False,False,False,False,False,False,Night,Night,Night,Day
C-4124522,2,2021-05-28 20:38:30,2021-05-28 21:08:00,43.045609000000006,-91.161812,43.044192,-91.171837,0.515591166678,Stationary traffic on US-18 W - WI-60 - US-18 E from N Main St (US-18) to IA--WI State Border (US-18) due to roadwork.,,US Highway 18,R,Prairie du Chien,Crawford,WI,53821,US,US/Central,KPDC,2021-05-28 20:35:00,50.0,50.0,76.0,29.46,10.0,CALM,0.0,0.0,Partly Cloudy,False,False,False,False,False,False,False,False,False,False,False,False,False,Night,Day,Day,Day
C-4124523,2,2020-06-08 18:14:55,2020-12-07 16:45:50,40.814262,-97.044543,40.814222,-97.006283,2.0006996731,Construction on US-6 EB near FAIRWAY DR Construction. Expect long delays.,,S Highway 6,R,Milford,Seward,NE,68405,US,US/Central,KLNK,2020-06-08 17:54:00,89.0,89.0,43.0,28.39,10.0,SSE,18.0,0.0,Fair,False,False,False,False,False,False,False,False,False,False,False,False,False,Day,Day,Day,Day
C-4124524,2,2019-07-23 07:55:07,2019-07-23 16:30:00,42.5906,-117.87305,42.51918,-117.88034,4.94858127393,At Old Ion Hwy (South) - Maintenance work.,5943.0,Highway 95 S,L,Jordan Valley,Malheur,OR,97910-9400,US,US/Mountain,KMAN,2019-07-23 07:55:00,72.0,72.0,60.0,27.39,10.0,ESE,6.0,0.0,Fair,False,False,False,False,False,False,False,False,False,False,False,False,False,Day,Day,Day,Day
C-4124525,2,2019-07-04 06:55:57,2019-08-05 12:00:00,37.94146,-76.460899,,,0.0,Road closed due to construction work on Spring Rd both ways from US-360 Northumberland Hwy to Mantua Rd.,831.0,Coan Wharf Rd,L,Heathsville,Northumberland,VA,22473,US,US/Eastern,KNUI,2019-07-04 06:53:00,83.0,83.0,82.0,29.96,10.0,ENE,3.0,0.0,Partly Cloudy,False,False,False,False,False,False,False,False,False,False,False,False,False,Day,Day,Day,Day
C-4124526,4,2019-11-13 12:16:22,2019-11-17 12:16:07,38.78025,-76.99749,38.78025,-76.99749,0.0,Closed at MD-210/Indian Head Hwy - Closed due to roadwork.,7905.0,Indian Head Hwy,R,Fort Washington,Prince Georges,MD,20744-4503,US,US/Eastern,KDCA,2019-11-13 11:52:00,36.0,30.0,37.0,30.43,10.0,NW,8.0,0.0,Partly Cloudy,False,False,False,False,False,False,False,False,False,False,False,True,False,Day,Day,Day,Day
C-4124527,4,2021-04-05 20:00:00,2021-04-19 08:45:00,30.424929,-90.084489,30.428029,-90.080619,0.314703037258,Construction on I-12 EB near US-190 Take alternate route.,,Highway 190,R,Covington,St. Tammany,LA,70433,US,US/Central,KHDC,2021-04-05 19:55:00,63.0,63.0,77.0,30.03,10.0,SE,6.0,0.0,Fair,False,False,False,False,False,False,False,False,False,False,False,False,False,Night,Night,Day,Day
C-4124528,3,2017-12-19 20:31:24,2017-12-24 22:04:01,38.891903000000006,-94.798485,38.893527,-94.795335,0.203189805998,Between E Santa Fe St and W 127th St/E Harold St - Roadwork.,1239.0,E Kansas City Rd,R,Olathe,Johnson,KS,66061-3002,US,US/Central,KIXD,2017-12-19 20:15:00,44.1,39.5,76.0,30.08,10.0,NE,8.1,,Scattered Clouds,False,False,True,False,False,False,False,False,False,False,False,False,False,Night,Night,Night,Night
C-4124530,2,2020-06-22 17:25:05,2020-06-23 17:25:05,30.20101,-97.86725,30.20101,-97.86725,0.0,At TX-1-LOOP/Mo-Pac Expy - Construction work.,,W Slaughter Ln,R,Austin,Travis,TX,78749,US,US/Central,KATT,2020-06-22 17:51:00,93.0,93.0,54.0,29.13,10.0,VAR,7.0,0.0,Partly Cloudy,False,False,True,False,False,False,False,False,False,False,False,True,False,Day,Day,Day,Day
C-4124531,2,2021-12-16 10:02:30,2021-12-17 00:13:42,32.724021,-96.83031,32.719725,-96.830356,0.296837373966,Slow traffic on TX-354 from W Clarendon Dr (S Zang Blvd/TX-354) to W Saner Ave (S Zang Blvd/TX-354) due to roadwork.,501.0,Wynnewood Dr,R,Dallas,Dallas,TX,75224-1951,US,US/Central,KRBD,2021-12-16 09:53:00,73.0,73.0,79.0,29.29,10.0,SSW,8.0,0.0,Mostly Cloudy,False,False,False,False,False,False,False,False,False,False,False,False,False,Day,Day,Day,Day
C-4124532,2,2021-03-20 23:14:00,2021-03-21 01:54:30,39.612075,-107.14366,39.557475,-107.24503,6.58548810561,Slow traffic on I-70 W - US-6 W from Exit 129 (I-70) to Exit 121 (I-70) due to roadwork.,,I-70 W,R,Glenwood Springs,Garfield,CO,81601,US,US/Mountain,K5SM,2021-03-20 23:15:00,28.0,16.0,93.0,20.12,0.25,WSW,18.0,,Heavy Snow,False,False,False,False,True,False,False,False,False,False,False,False,False,Night,Night,Night,Night
C-4124533,2,2020-11-05 17:16:30,2020-11-05 17:45:00,34.720943,-86.670402,34.727008000000005,-86.66932,0.423532422192,Slow traffic on AL-255 from Old Madison Pike NW to Bradford Dr NW due to roadwork.,,Highway 255,R,Huntsville,Madison,AL,35806,US,US/Central,KHUA,2020-11-05 16:58:00,64.0,64.0,56.0,29.53,10.0,CALM,0.0,0.0,Fair,False,False,False,False,False,False,False,False,False,False,False,False,False,Night,Night,Day,Day
C-4124534,2,2021-01-16 00:13:02,2021-01-16 00:40:35,40.636203,-73.94900200000002,40.636459,-73.94513,0.203786277743,Slow traffic from Flatbush Ave to New York Ave due to roadwork.,2901.0,Farragut Rd,L,Brooklyn,Kings,NY,11210-1535,US,US/Eastern,KJRB,2021-01-16 00:51:00,45.0,41.0,90.0,29.61,10.0,ENE,8.0,0.02,Cloudy,False,False,True,False,False,False,False,False,False,False,False,True,False,Night,Night,Night,Night
C-4124535,2,2021-04-20 00:41:07,2021-09-09 04:06:00,32.820979,-96.633113,32.824129,-96.627763,0.3792941037389999,Stationary traffic on I-30 E - R L Thornton Fwy E - US-67 N from Gus Thomasson Rd/Exit 56 (I-30) to I-635/Exit 56 (I-30) due to roadwork.,,I-30 E,R,Mesquite,Dallas,TX,75150,US,US/Central,KHQZ,2021-09-09 03:55:00,70.0,70.0,57.0,29.55,10.0,CALM,0.0,0.0,Fair,False,False,False,False,True,False,False,False,False,False,False,False,False,Night,Night,Night,Night
C-4124536,2,2021-01-27 13:56:30,2021-01-27 23:23:59,30.533272,-87.272824,30.533404,-87.27756,0.2819986781069999,Slow traffic on US-90 Alt W - FL-10 from FL-291/N Davis Hwy (US-90 Alt/FL-10) to US-29/FL-95/Pensacola Blvd (US-90 Alt/FL-10) due to roadwork.,4.0,E Nine Mile Rd,L,Pensacola,Escambia,FL,32534-3133,US,US/Central,KPNS,2021-01-27 13:53:00,76.0,76.0,67.0,29.84,10.0,N,12.0,0.0,Partly Cloudy,False,False,True,False,False,False,False,False,False,False,False,False,False,Day,Day,Day,Day
C-4124537,2,2019-03-28 09:00:00,2019-03-28 15:00:00,38.051762,-84.50309,,,0.330000013113,Right lane blocked due to gas main work on US-25 Main St both ways from Old Georgetown St to Jefferson St.,596.0,W Main St,L,Lexington,Fayette,KY,40507-1642,US,US/Eastern,KLEX,2019-03-28 08:54:00,51.1,,61.0,30.28,10.0,South,9.2,,Clear,False,False,False,False,False,False,False,False,True,False,False,True,False,Day,Day,Day,Day
C-4124538,2,2020-11-13 12:12:30,2020-11-14 00:20:14,39.798366,-104.780196,39.798367,-104.789494,0.4935805849819999,Slow traffic from Tower Rd (E 56th Ave) to Chambers Rd (E 56th Ave) due to roadwork.,17871.0,E 56th Ave,R,Denver,Denver,CO,80249,US,US/Mountain,KDEN,2020-11-13 11:53:00,62.0,62.0,11.0,24.44,10.0,SSW,12.0,0.0,Fair,False,False,False,False,False,False,False,False,False,False,False,False,False,Day,Day,Day,Day
C-4124539,4,2021-08-11 21:00:00,2021-08-12 09:45:00,33.909979,-84.36385899999998,33.909932,-84.362687,0.0672828738692,Construction on I-285 EB near GA-400 Use alternate exit ramp.,,GA-407 E,R,Atlanta,Fulton,GA,30342,US,US/Eastern,KPDK,2021-08-11 20:53:00,75.0,75.0,87.0,29.09,10.0,N,3.0,0.0,Fair,False,False,False,False,False,False,False,False,False,False,False,False,False,Night,Night,Day,Day
C-4124541,4,2021-03-23 17:14:48,2021-04-13 23:59:00,31.798166,-106.184789,31.798124,-106.187107,0.136151240009,Closed road from Liberator Dr to El Paso East due to roadwork.,3401.0,Liberator Dr,R,El Paso,El Paso,TX,79938-8503,US,US/Mountain,KELP,2021-03-23 17:40:00,68.0,68.0,8.0,25.72,10.0,SSE,3.0,,Fair,False,False,False,False,False,False,False,False,False,False,False,False,False,Day,Day,Day,Day
C-4124542,2,2021-12-18 22:03:00,2021-12-18 22:16:30,45.594481,-118.646141,45.580182,-118.642885,1.00043239756,Slow traffic on Old Oregon Trail Hwy No 6 - I-84 E - US-30 E - Old Oregon Trl from OR-331/Market Rd/Exit 216 (I-84) to Poverty Flat Rd/Exit 224 (I-84) due to roadwork.,,I-84 E,R,Pendleton,Umatilla,OR,97801,US,US/Pacific,KPDT,2021-12-18 21:53:00,53.0,53.0,43.0,28.23,10.0,SSW,14.0,0.0,Light Rain,False,False,False,False,False,False,False,False,False,False,False,False,False,Night,Night,Night,Night
C-4124543,2,2021-06-14 06:00:00,2021-06-25 17:45:00,44.138551,-91.700664,44.139159,-91.692808,0.391799799051,Mainline Moving Lane Closure on WIS 95 Eastbound from COUNTY G to PANSY PASS RD.,392.0,North St,L,Fountain City,Buffalo,WI,54629-8257,US,US/Central,KONA,2021-06-14 05:55:00,59.0,59.0,88.0,29.31,10.0,NNW,5.0,0.0,Fair,False,False,False,False,False,False,False,False,False,False,False,False,False,Day,Day,Day,Day
C-4124544,2,2019-10-05 12:00:00,2019-10-05 16:00:00,43.06882,-94.22686,43.06888,-94.23296,0.30792581953,At US-18 - Roadwork.,23.0,S Phillips St,R,Algona,Kossuth,IA,50511-2849,US,US/Central,KAXA,2019-10-05 11:55:00,55.0,55.0,94.0,28.49,1.0,S,13.0,0.0,Fog,False,False,False,False,False,False,False,False,False,False,False,False,False,Day,Day,Day,Day
C-4124545,3,2019-06-18 10:00:00,2019-06-18 11:00:00,41.556072,-90.522507,,,0.0,Right lane closed due to utility work on I-74 Eastbound at Exit 2 Spruce Hills Dr.,,I-74 E,R,Bettendorf,Scott,IA,52722,US,US/Central,KMLI,2019-06-18 09:52:00,74.0,74.0,64.0,29.35,10.0,CALM,0.0,0.0,Fair,False,False,False,False,False,False,False,False,False,False,False,False,False,Day,Day,Day,Day
C-4124546,3,2020-06-13 07:02:44,2020-06-18 07:00:51,41.81792,-88.46011999999996,41.82008,-88.47203,0.631170300281,At IL-47 - Roadwork. Left lane blocked.,,Chicago-Kansas City Expressway W,R,Sugar Grove,Kane,IL,60554,US,US/Central,KARR,2020-06-13 06:52:00,54.0,54.0,59.0,29.52,10.0,NE,15.0,0.0,Cloudy,False,False,False,False,True,False,False,False,False,False,False,False,False,Day,Day,Day,Day
C-4124547,2,2021-04-20 07:25:00,2021-08-15 12:13:21,40.70238300000001,-77.597571,40.603642,-77.480811,9.16538718461,Construction on US-22 EB near TWENTY 8TH DIVISION HWY Allow extra time.,,US-322 E,R,Reedsville,Mifflin,PA,17084,US,US/Eastern,KUNV,2021-04-20 07:53:00,48.0,46.0,71.0,28.56,10.0,W,6.0,0.0,Fair,False,False,False,False,False,False,False,False,False,False,False,False,False,Day,Day,Day,Day
C-4124548,2,2021-11-29 17:27:44,2021-11-29 19:33:49,40.953631,-73.84443399999998,40.954747,-73.841809,0.157188949442,Slow traffic on County Hwy-59 from Otsego Rd to Seneca Ave due to roadwork.,672.0,Tuckahoe Rd,R,Yonkers,Westchester,NY,10710-5238,US,US/Eastern,KHPN,2021-11-29 17:56:00,36.0,25.0,55.0,29.45,10.0,WNW,21.0,0.0,Mostly Cloudy / Windy,False,False,False,False,False,False,False,False,False,False,False,False,False,Night,Night,Day,Day
C-4124549,2,2021-04-06 07:38:00,2021-04-06 10:11:00,28.567421000000003,-81.37613499999998,28.553716,-81.382354,1.01936309023,Slow traffic on I-4 W from Princeton St/Exit 43 (I-4) to US-17/US-92/Colonial Dr (I-4) due to roadwork.,165.0,E New Hampshire St,L,Orlando,Orange,FL,32804-5916,US,US/Eastern,KORL,2021-04-06 07:53:00,62.0,62.0,72.0,30.04,10.0,CALM,0.0,0.0,Fair,False,False,False,False,False,False,False,False,False,False,False,False,False,Day,Day,Day,Day
C-4124550,2,2021-12-09 10:35:30,2021-12-09 11:16:00,33.269137,-83.71919399999999,33.294759,-83.699682,2.0986171882700004,Slow traffic on GA-83 from Feldspar Rd (GA-83) to GA-380/Perimeter Rd (GA-83) due to roadwork.,,FS Road 111,R,Monticello,Jasper,GA,31064,US,US/Eastern,K9A1,2021-12-09 10:23:00,41.0,38.0,93.0,29.06,4.0,NE,5.0,0.0,Cloudy,False,False,False,False,False,False,False,False,False,False,False,False,False,Day,Day,Day,Day
C-4124551,2,2020-10-20 14:18:00,2020-10-21 02:09:06,35.197635,-111.654018,35.198606,-111.65113999999998,0.175798863862,Stationary traffic on US-180 E - I-40 Bus Loop E - I-40 Bus Loop W - US-180 W from A T and SF Railroad to W Aspen Ave due to roadwork.,,S Milton Rd,R,Flagstaff,Coconino,AZ,86001,US,US/Mountain,KFLG,2020-10-20 13:57:00,71.0,71.0,9.0,23.26,10.0,WSW,5.0,0.0,Fair,False,False,True,False,False,False,False,False,False,True,False,False,False,Day,Day,Day,Day
C-4124552,2,2021-11-03 11:06:00,2021-11-03 12:56:00,35.771484,-119.769054,35.71747,-119.728702,4.364458988430002,Slow traffic on West Side Fwy - I-5 S from Utica Ave (I-5) to CA-46 (I-5) due to roadwork.,,I-5 S,R,Lost Hills,Kern,CA,93249,US,US/Pacific,KBFL,2021-11-03 10:54:00,57.0,57.0,100.0,29.67,1.0,CALM,0.0,0.0,Fog,False,False,False,False,False,False,False,False,False,False,False,False,False,Day,Day,Day,Day
C-4124553,2,2021-10-22 15:05:30,2021-10-22 20:50:45,41.930252,-87.835817,41.928779,-87.836624,0.109903877207,Stationary traffic on IL-171 from Arnold Ave to Tarpey Ln due to roadwork.,2804.0,Thatcher Ave,L,River Grove,Cook,IL,60171-1430,US,US/Central,KORD,2021-10-22 14:51:00,56.0,56.0,47.0,29.26,10.0,VAR,6.0,0.0,Mostly Cloudy,False,False,False,False,False,False,False,False,True,False,False,False,False,Day,Day,Day,Day
C-4124554,2,2021-04-15 07:08:00,2021-11-08 19:18:16,44.388591,-88.291426,44.390991,-88.29141899999998,0.165824567093,Stationary traffic on WI-55 from Patrick St to Ludwig St due to roadwork.,,N4150 State Highway 55,R,Freedom,Outagamie,WI,54130-7200,US,US/Central,KATW,2021-11-08 09:45:00,55.0,55.0,63.0,29.05,10.0,WNW,10.0,0.0,Fair,False,False,False,False,False,False,False,False,False,False,False,False,False,Day,Day,Day,Day
C-4124555,2,2021-11-10 16:39:34,2021-11-10 17:11:21,35.18702899999999,-101.972697,35.18725,-101.949093,1.33296458775,Slow traffic on I-40 E from Arnot Rd/Exit 60 (I-40) to TX-335/Soncy Rd/Exit 64 (I-40) due to roadwork.,,I-40 E,R,Amarillo,Potter,TX,79124,US,US/Central,KAMA,2021-11-10 16:53:00,66.0,66.0,25.0,26.21,10.0,N,20.0,0.0,Fair,False,False,False,False,False,False,False,False,False,False,False,False,False,Day,Day,Day,Day
C-4124556,2,2021-06-03 14:28:22,2021-06-05 23:59:00,40.690366,-74.102965,40.703356,-74.143765,2.31809349251,Barrier repairs on New Jersey Turnpike - Hudson County Extension westbound between East of Newark Bay Bridge (Bayonne) and East of Interchange 14 - I-78 (Newark) Not currently Scheduled,,I-78 W,R,Bayonne,Hudson,NJ,07002,US,US/Eastern,KEWR,2021-06-03 14:51:00,73.0,73.0,79.0,29.97,8.0,CALM,0.0,0.0,Cloudy,False,False,False,False,False,False,False,False,False,False,False,False,False,Day,Day,Day,Day
C-4124557,3,2017-04-12 04:00:00,2017-04-12 07:00:00,47.46777,-122.217903,,,0.01,Exit ramp closed due to construction work on I-405 Northbound at Exits 2 2A 2B WA-167.,,I-405 N,R,Renton,King,WA,98055,US,US/Pacific,KRNT,2017-04-12 03:53:00,46.9,,100.0,29.67,5.0,WNW,6.9,0.05,Light Rain,False,False,False,False,True,False,False,False,False,False,False,False,False,Night,Night,Night,Night
C-4124558,2,2021-12-23 11:56:00,2021-12-23 14:00:52,26.65064000000001,-80.205287,26.652055,-80.203263,0.1586825437879999,Slow traffic on FL-7 - US-441 N - FL-882 from Wellington Edge Blvd / Wellington Green Mall to Stonehaven Estates Dr due to roadwork.,10158.0,Forest Hill Blvd,L,Wellington,Palm Beach,FL,33414-6102,US,US/Eastern,KPBI,2021-12-23 11:53:00,71.0,71.0,61.0,30.11,10.0,NW,7.0,0.0,Fair,False,False,False,False,False,False,False,False,False,False,False,False,False,Day,Day,Day,Day
C-4124559,2,2020-10-23 00:02:30,2020-10-23 07:58:13,32.833554,-107.320602,32.838538,-107.32032,0.344750534918,Roadwork on NM-187 from CR-B108/E 66th St (NM-187) to I-25 (NM-187).,127.0,Highway 187,R,Arrey,Sierra,NM,87930,US,US/Mountain,KTCS,2020-10-23 00:53:00,62.0,62.0,23.0,25.12,10.0,NW,7.0,0.0,Fair,False,False,False,False,False,False,False,False,False,False,False,False,False,Night,Night,Night,Night
C-4124560,2,2021-09-02 05:10:00,2021-09-02 05:23:30,39.82850300000001,-85.596912,39.836265,-85.56523100000003,1.7644215631400002,Slow traffic on I-70 E from IN-9/Exit 104 (I-70) to IN-109/Exit 115 (I-70) due to roadwork.,,I-70 E,R,Knightstown,Henry,IN,46148,US,US/Eastern,KMQJ,2021-09-02 05:15:00,54.0,54.0,100.0,29.12,10.0,N,3.0,,Fair,False,False,False,False,False,False,False,False,False,False,False,False,False,Night,Night,Night,Night
C-4124561,2,2019-10-06 22:00:00,2021-12-31 12:12:30,45.579297,-118.640553,45.582121,-118.610298,1.47604735426,Slow traffic on Old Oregon Trail Hwy No 6 - I-84 E - US-30 E - Old Oregon Trl from OR-331/Market Rd/Exit 216 (I-84) to Poverty Flat Rd/Exit 224 (I-84) due to roadwork.,,I-84 E,R,Pendleton,Umatilla,OR,97801,US,US/Pacific,KPDT,2021-12-15 16:53:00,37.0,28.0,57.0,28.22,10.0,SE,14.0,0.0,Cloudy,False,False,False,False,False,False,False,False,False,False,False,False,False,Night,Night,Night,Night
C-4124562,2,2020-10-20 15:00:00,2020-10-23 22:45:00,41.296253,-92.640324,41.296227,-92.653317,0.674474224703,Construction on IA-92 WB near IA-163 Drive with caution.,198.0,N 4th St,R,Oskaloosa,Mahaska,IA,52577-2806,US,US/Central,KOOA,2020-10-20 14:55:00,47.0,42.0,80.0,29.13,10.0,SE,10.0,0.0,Cloudy,True,False,False,False,False,False,False,False,False,False,False,False,False,Day,Day,Day,Day
C-4124563,2,2021-05-18 11:21:30,2021-05-18 13:15:00,32.828909,-96.6201,32.823164,-96.629523,0.675933943013,Slow traffic on R L Thornton Fwy W - US-67 S - I-30 W from Galloway Ave exit [57] to I-30 E due to roadwork.,,I-30 W,R,Mesquite,Dallas,TX,75150,US,US/Central,KHQZ,2021-05-18 11:50:00,66.0,66.0,94.0,29.44,2.0,W,15.0,0.0,T-Storm,False,False,False,False,False,False,False,False,False,False,False,False,False,Day,Day,Day,Day
C-4124564,2,2021-11-13 07:33:00,2021-11-13 07:46:00,35.036421000000004,-107.371594,35.029786,-107.385147,0.893357243843,Slow traffic on I-40 W from NM-124/Exit 114 (I-40) to NM-23/Exit 108 (I-40) due to roadwork.,,I-40 W,R,Casa Blanca,Cibola,NM,87007,US,US/Mountain,KGNT,2021-11-13 07:53:00,29.0,29.0,56.0,23.94,10.0,CALM,0.0,0.0,Fair,False,False,False,False,False,False,False,False,False,False,False,False,False,Day,Day,Day,Day
C-4124565,2,2021-05-04 07:06:30,2021-05-04 13:57:00,39.710397,-104.998456,39.721584,-105.008761,0.947319723571,Slow traffic on US-85 N - US-87 N - I-25 N from Lincoln St/Broadway/Exit 207 (I-25) to US-6/6th Ave/Exit 209 (I-25) due to roadwork.,,I-25 N,R,Denver,Denver,CO,80223,US,US/Mountain,KAPA,2021-05-04 06:53:00,38.0,38.0,79.0,24.23,10.0,CALM,0.0,0.0,Partly Cloudy,False,False,False,False,False,False,False,False,False,False,False,False,False,Day,Day,Day,Day
C-4124566,4,2020-07-14 08:12:00,2020-07-14 13:45:00,33.955956,-81.23682,33.956895,-81.232672,0.246417826908,Construction on I-20 EB near EXIT 55 Use alternate exit ramp.,,I-20 E,R,Lexington,Lexington,SC,29073,US,US/Eastern,KCAE,2020-07-14 07:56:00,77.0,77.0,84.0,29.71,10.0,E,6.0,0.0,Fair,False,False,False,False,False,False,False,False,False,False,False,False,False,Day,Day,Day,Day
C-4124567,2,2016-09-27 09:01:25,2016-09-27 15:01:25,39.5916,-76.80539300000002,39.58474,-76.80112,0.525760613722,At Trenton Rd - Construction work.,4498.0,Black Rock Rd,R,Upperco,Baltimore,MD,21155-9541,US,US/Eastern,KDMW,2016-09-27 08:55:00,59.0,,55.0,29.99,10.0,Calm,,,Scattered Clouds,False,False,False,False,False,False,False,False,False,False,False,False,False,Day,Day,Day,Day
C-4124568,2,2021-12-02 14:56:00,2021-12-02 17:04:44,33.523739,-112.063633,33.523744,-112.065554,0.110650554286,Slow traffic from N 16th St (E Bethany Home Rd) to N Central Ave (Bethany Home Rd) due to roadwork.,727.0,E Bethany Home Rd,R,Phoenix,Maricopa,AZ,85014-2105,US,US/Mountain,KPHX,2021-12-02 14:51:00,82.0,82.0,13.0,28.79,10.0,CALM,0.0,0.0,Fair,True,False,False,False,False,False,False,False,True,False,False,False,False,Day,Day,Day,Day
C-4124569,2,2019-12-19 21:31:55,2019-12-23 21:31:49,41.83737,-71.41369,41.85805,-71.40465999999998,1.50253963934,Between US-6/US-1/RI-10/Exit 22 and RI-126/Smithfield Ave/Exit 25 - Construction work. Lane blocked.,,I-95 N,R,Providence,Providence,RI,02904,US,US/Eastern,KSFZ,2019-12-19 21:56:00,13.0,-1.0,71.0,29.78,10.0,W,12.0,0.0,Fair,False,False,False,False,False,False,False,False,False,False,False,False,False,Night,Night,Night,Night
C-4124570,2,2021-12-03 16:20:00,2021-12-03 16:52:30,42.712062,-84.605399,42.713108,-84.603043,0.1397473162659999,Stationary traffic from W Mount Hope Hwy to Waverly Hills Rd due to roadwork.,3998.0,Old Lansing Rd,R,Lansing,Eaton,MI,48917,US,US/Eastern,KLAN,2021-12-03 15:53:00,39.0,39.0,76.0,29.13,10.0,CALM,0.0,0.0,Cloudy,False,False,False,False,False,False,False,False,False,False,False,False,False,Day,Day,Day,Day
C-4124571,3,2020-10-21 07:56:20,2020-10-25 07:55:20,29.77653,-95.35052,29.77552,-95.35051,0.0697869306001,At Brooks St - Roadwork.,,Harrington St,R,Houston,Harris,TX,77026,US,US/Central,KMCJ,2020-10-21 07:53:00,74.0,74.0,91.0,29.98,4.0,NE,6.0,0.0,Partly Cloudy,False,False,False,False,False,False,False,False,False,True,False,False,False,Day,Day,Day,Day
C-4124572,2,2020-12-17 18:51:33,2020-12-18 03:41:27,33.711283,-112.203137,33.71230300000001,-112.20416000000002,0.0917812840767,Slow traffic from W West Wind Dr to N 68th Ave due to roadwork.,24981.0,N 67th Ave,R,Glendale,Maricopa,AZ,85310-2605,US,US/Mountain,KDVT,2020-12-17 18:53:00,51.0,51.0,44.0,28.26,10.0,CALM,0.0,0.0,Fair,False,False,False,False,False,False,False,False,False,True,False,False,False,Night,Night,Night,Day
C-4124573,2,2021-06-04 13:38:02,2021-06-04 15:46:41,43.631576,-116.354303,43.635165,-116.354178,0.248055057241,Slow traffic on ID-55 from E Fairview Ave (ID-55) to W McMillan Rd (ID-55) due to roadwork.,2910.0,N Eagle Rd,L,Meridian,Ada,ID,83646-6251,US,US/Mountain,KMAN,2021-06-04 13:35:00,88.0,88.0,24.0,27.27,10.0,NNW,10.0,0.0,Fair,False,False,True,False,False,False,False,False,False,False,False,False,False,Day,Day,Day,Day
C-4124574,2,2021-09-25 21:44:00,2021-09-26 23:28:58,39.861179,-75.352166,39.841606,-75.402464,2.99116339081,Roadwork on I-95 southbound between .1 miles north of Exit 6: TO PA 320/TO PA 352 - PROVIDENCE AVE/EDGMONT AV and 1 miles north of Exit 4: US 322 EAST - COMM BARRY BR/NEW JERSEY. There is a lane restriction.,,I-95 S,R,Chester,Delaware,PA,19013,US,US/Eastern,KPHL,2021-09-25 21:54:00,68.0,68.0,61.0,29.91,10.0,W,9.0,0.0,Mostly Cloudy,False,False,False,False,True,False,False,False,False,False,False,False,False,Night,Night,Night,Night
C-4124575,2,2019-05-29 06:00:00,2019-06-05 18:00:00,41.499931,-81.67851999999998,,,0.460000008345,Restrictions due to maintenance work on 18th St both ways between Carnegie Ave and Prospect Ave.,1800.0,Prospect Ave E,R,Cleveland,Cuyahoga,OH,44115-2318,US,US/Eastern,KBKL,2019-05-29 05:53:00,59.0,59.0,90.0,29.11,6.0,S,5.0,0.0,Cloudy,False,False,False,False,False,False,False,False,False,False,False,True,False,Day,Day,Day,Day
C-4124576,2,2020-12-01 13:59:30,2020-12-01 18:06:00,33.478219,-112.065088,33.480202,-112.065082,0.137012687288,Stationary traffic from E McDowell Rd (N 7th St) to E Thomas Rd (N 7th St) due to roadwork.,2707.0,N 7th St,R,Phoenix,Maricopa,AZ,85006-1004,US,US/Mountain,KPHX,2020-12-01 13:51:00,70.0,70.0,16.0,28.8,10.0,S,3.0,0.0,Fair,False,False,True,False,False,False,False,False,False,False,False,True,False,Day,Day,Day,Day
C-4124577,2,2021-07-17 14:36:35,2021-07-17 15:02:08,30.160902,-92.043981,30.156492,-92.048366,0.401830793255,Slow traffic from Camellia Blvd (Kaliste Saloom Rd/LA-3095) to LA-3073/Ambassador Caffery Pkwy (Kaliste Saloom Rd/LA-3095) due to roadwork.,2316.0,Kaliste Saloom Rd,L,Lafayette,Lafayette,LA,70508-6808,US,US/Central,KLFT,2021-07-17 14:27:00,78.0,78.0,84.0,30.05,10.0,VAR,5.0,0.0,Light Rain with Thunder,False,False,False,False,False,False,False,False,False,False,False,False,False,Day,Day,Day,Day
C-4124578,2,2021-11-22 17:15:30,2021-11-22 17:41:30,33.434111,-112.082501,33.429713,-112.082518,0.303874440221,Stationary traffic from W Buckeye Rd (S 7th Ave) to I-17/US-60/W Maricopa Fwy (S 7th Ave) due to roadwork.,1341.0,S 7th Ave,L,Phoenix,Maricopa,AZ,85007-3976,US,US/Mountain,KPHX,2021-11-22 16:51:00,78.0,78.0,16.0,28.8,10.0,ENE,10.0,0.0,Mostly Cloudy,False,False,True,False,False,False,False,False,False,False,False,True,False,Day,Day,Day,Day
C-4124579,2,2021-12-18 16:02:17,2021-12-18 18:48:43,29.888185,-81.323922,29.891815,-81.324118,0.251083773574,Slow traffic on US-1 N - FL-5 from FL-207 (US-1) to W Castillo Dr (FL-A1A/US-1) due to roadwork.,389.0,S Ponce de Leon Blvd,R,Saint Augustine,St. Johns,FL,32084-4217,US,US/Eastern,KSGJ,2021-12-18 15:56:00,76.0,76.0,82.0,30.05,10.0,SSE,9.0,0.0,Mostly Cloudy,False,False,False,False,False,False,False,False,True,False,False,False,False,Day,Day,Day,Day
C-4124580,2,2020-05-11 07:10:15,2020-05-11 21:00:00,42.59405,-86.00577,42.59406,-86.0062,0.0218825671165,At M-40/Lincoln Rd/Taft Rd - Construction work.,4613.0,124th Ave,R,Allegan,Allegan,MI,49010,US,US/Eastern,KBIV,2020-05-11 07:53:00,37.0,32.0,65.0,29.4,10.0,NNW,7.0,0.0,Cloudy,False,False,False,False,False,False,False,False,False,False,False,False,False,Day,Day,Day,Day
C-4124581,2,2020-03-20 21:11:37,2020-03-22 00:00:00,41.7049,-72.64457,41.7049,-72.64457,0.0,At CT-3/Exit 25/Exit 26 - Roadwork.,,I-91 N,R,Wethersfield,Hartford,CT,06109,US,US/Eastern,KHFD,2020-03-20 20:53:00,61.0,61.0,78.0,29.78,10.0,S,6.0,0.0,Mostly Cloudy,False,False,False,False,False,False,False,False,False,False,False,False,False,Night,Night,Night,Night
C-4124582,2,2021-06-03 11:38:00,2021-06-03 12:04:00,41.756151,-77.949985,41.758163,-77.954121,0.254499531374,Stationary traffic on PA-44 - US-6 W - US-6 E from PA-44/Cherry Springs Rd (Grand Army of the Republic Hwy/US-6) to PA-872/N Hollow Rd/Buffalo St (PA-44/Grand Army of the Republic Hwy/US-6) due to roadwork.,1354.0,E 2nd St,L,Coudersport,Potter,PA,16915-8163,US,US/Eastern,KELZ,2021-06-03 11:56:00,62.0,62.0,96.0,27.76,5.0,VAR,5.0,0.0,Cloudy,False,False,False,False,False,False,False,False,False,True,False,False,False,Day,Day,Day,Day
C-4124583,2,2021-03-02 08:47:00,2021-03-03 09:38:40,41.577925,-76.062119,41.577996,-76.061758,0.0192926021235999,Roadwork on PA 87 both directions 0 miles NORTH of JAYNES BEND RD SR 4002 SH. There is a lane restriction.,4892.0,State Route 87,R,Mehoopany,Wyoming,PA,18629-7950,US,US/Eastern,KAVP,2021-03-02 08:54:00,20.0,5.0,48.0,29.17,10.0,NW,18.0,0.0,Fair,False,False,False,False,False,False,False,False,False,False,False,False,False,Day,Day,Day,Day
C-4124584,2,2021-03-25 06:56:30,2021-03-25 14:59:39,33.39337800000001,-111.802893,33.393349,-111.806043,0.181724778031,Slow traffic from S Gilbert Rd (E Southern Ave) to S Mesa Dr (E Southern Ave) due to roadwork.,1345.0,E Southern Ave,R,Mesa,Maricopa,AZ,85204-5141,US,US/Mountain,KFFZ,2021-03-25 06:51:00,51.0,51.0,43.0,28.65,10.0,E,9.0,0.0,Mostly Cloudy,False,False,False,False,False,False,False,False,False,False,False,False,False,Day,Day,Day,Day
C-4124585,2,2021-07-29 11:42:09,2021-07-29 12:02:09,27.909704,-81.602314,27.898164,-81.599974,0.81003883015,Slow traffic on US-27 S - FL-25 from Washington Ave (US-27) to FL-60 (US-27) due to roadwork.,20198.0,Highway 27,R,Lake Wales,Polk,FL,33853,US,US/Eastern,KBOW,2021-07-29 11:50:00,88.0,88.0,66.0,29.92,10.0,SSW,5.0,0.0,Partly Cloudy,False,False,True,False,False,False,False,False,False,False,False,False,False,Day,Day,Day,Day
C-4124586,2,2020-09-23 13:20:30,2020-09-23 15:17:30,40.411429,-81.349769,40.40932,-81.349533,0.146246002074,Queuing traffic on US-250 from Barnhill Rd (US-250) to US-36/Water St (OH-800/US-250) due to resurfacing work.,,OH-800 S,R,Uhrichsville,Tuscarawas,OH,44683,US,US/Eastern,KPHD,2020-09-23 12:53:00,76.0,76.0,46.0,29.11,10.0,VAR,5.0,0.0,Fair,False,False,False,False,False,False,False,False,False,False,False,False,False,Day,Day,Day,Day
C-4124588,2,2021-11-30 08:57:30,2021-11-30 11:34:56,39.499455,-84.357212,39.499903,-84.355512,0.0957745181524,Slow traffic on OH-122 from East St to Lewis St due to roadwork.,1300.0,East St,R,Middletown,Butler,OH,45044,US,US/Eastern,KMWO,2021-11-30 09:15:00,38.0,33.0,62.0,29.3,10.0,SW,6.0,0.0,Fair,False,False,False,False,False,False,False,False,False,False,False,False,False,Day,Day,Day,Day
C-4124589,2,2021-12-27 13:44:00,2021-12-27 15:46:38,40.819009,-73.92921899999997,40.81829000000001,-73.92639100000002,0.155994110453,Slow traffic from I-87/Major Deegan Expy (E 149th St) to Melrose Ave (E 149th St) due to roadwork.,118.0,E 149th St,R,Bronx,Bronx,NY,10451-5304,US,US/Eastern,KLGA,2021-12-27 13:51:00,37.0,37.0,54.0,30.0,10.0,NE,3.0,0.0,Cloudy,False,False,False,False,False,False,False,False,True,False,False,True,False,Day,Day,Day,Day
C-4124590,2,2021-12-20 09:13:00,2021-12-20 11:24:53,39.953787,-75.59804799999998,39.954251,-75.598558,0.041921801332,Roadwork on HIGH ST both directions at NIELDS ST. There is a traffic disruption.,698.0,S High St,R,West Chester,Chester,PA,19382-3606,US,US/Eastern,KOQN,2021-12-20 09:15:00,27.0,27.0,69.0,29.66,10.0,CALM,0.0,0.0,Fair,False,False,True,False,False,False,False,False,False,False,False,False,False,Day,Day,Day,Day
C-4124591,2,2017-05-10 23:00:00,2017-05-11 05:00:00,42.34758400000001,-71.08458399999998,42.3467,-71.062629,1.1228025860200002,Between Massachusetts Ave and Exit 24A/Exit 24B/Exit 24C - Construction work.,,I-90 E,R,Boston,Suffolk,MA,02199,US,US/Eastern,KBOS,2017-05-10 22:54:00,50.0,,74.0,30.03,10.0,NNE,9.2,,Overcast,False,False,False,False,True,False,False,False,False,False,False,False,False,Night,Night,Night,Night
C-4124592,2,2021-05-04 06:01:30,2021-05-04 08:10:09,40.728592,-74.005306,40.729087,-74.010545,0.2764348344339999,Slow traffic from Varick St (W Houston St) to NY-9A/West St (W Houston St) due to roadwork.,239.0,W Houston St,L,New York,New York,NY,10014-4837,US,US/Eastern,KJRB,2021-05-04 05:51:00,53.0,53.0,93.0,29.6,3.0,ENE,5.0,0.0,Cloudy,True,False,True,False,False,False,True,False,True,False,False,True,False,Day,Day,Day,Day
C-4124593,2,2020-03-20 09:32:16,2020-03-21 09:32:16,40.64744,-80.5025,40.64317,-80.46419,2.02995860754,At PA-168 - Roadwork. Single alternate lane traffic.,300.0,Smiths Ferry Rd,R,Midland,Beaver,PA,15059-2016,US,US/Eastern,KBVI,2020-03-20 09:35:00,62.0,62.0,89.0,28.46,10.0,SSW,14.0,,Cloudy,False,False,False,False,False,False,False,False,False,False,False,False,False,Day,Day,Day,Day
C-4124594,2,2018-05-10 20:02:04,2018-05-11 02:02:04,42.70924,-71.21108000000002,42.70241,-71.21019,0.474066625456,At RT-110/RT-113/Exit 46 - Construction work.,,I-93 S,R,Methuen,Essex,MA,01844,US,US/Eastern,KLWM,2018-05-10 19:54:00,68.0,,55.0,29.73,10.0,SW,16.1,,Clear,False,False,False,False,False,False,False,False,False,False,False,False,False,Night,Day,Day,Day
C-4124595,2,2021-05-17 20:01:00,2021-05-18 05:15:00,38.559039,-121.476892,38.553649,-121.474232,0.3991839087169999,Lane closure due to K-rail Installation between Yolo County Line and Rte 51/99,,CA-99 S,R,Sacramento,Sacramento,CA,95818,US,US/Pacific,KSAC,2021-05-17 19:53:00,65.0,65.0,56.0,29.93,10.0,SSW,9.0,0.0,Fair,False,False,False,False,True,False,False,False,False,False,False,False,False,Day,Day,Day,Day
C-4124596,4,2018-09-06 00:03:49,2018-09-06 05:02:13,35.23944,-80.85226999999998,35.35306,-80.84549,7.859699420510001,Closed between Trade St/5th St/Exit 10 and Harris Blvd/Reames Rd/Exit 18 - Closed due to roadwork. Narrow lanes.,,I-77 N,R,Charlotte,Mecklenburg,NC,28202,US,US/Eastern,KCLT,2018-09-06 00:52:00,79.0,,79.0,30.19,10.0,SE,4.6,,Mostly Cloudy,False,False,False,False,False,False,False,False,False,False,False,False,False,Night,Night,Night,Night
C-4124597,2,2021-11-05 10:00:00,2021-11-05 15:45:00,40.666782,-73.47579,40.666689,-73.47582299999998,0.00665436247775,Construction on NY-107 SB near MERRICK RD Expect delays.,1.0,Hicksville Rd,R,Massapequa,Nassau,NY,11758-5818,US,US/Eastern,KFRG,2021-11-05 09:53:00,47.0,41.0,50.0,30.26,10.0,N,13.0,0.0,Fair,False,False,False,False,False,False,False,False,False,False,False,True,False,Day,Day,Day,Day
C-4124598,2,2021-09-27 12:52:04,2021-09-27 14:54:50,40.762224,-73.96315600000001,40.762176,-73.966124,0.155360193803,Slow traffic from E 63rd St to 3rd Ave due to roadwork.,1171.0,2nd Ave,L,New York,New York,NY,10065-8277,US,US/Eastern,KNYC,2021-09-27 12:51:00,74.0,,50.0,29.85,10.0,,,0.0,Fair,True,False,True,False,False,False,True,False,True,False,False,True,False,Day,Day,Day,Day
C-4124599,2,2020-07-06 14:00:00,2020-07-07 00:45:00,40.592476,-83.13059399999999,40.588586,-83.130344,0.269093288414,Construction on OH-4 EB near CENTER ST Allow extra time.,285.0,N Prospect St,R,Marion,Marion,OH,43302-3059,US,US/Eastern,KMNN,2020-07-06 13:53:00,91.0,91.0,36.0,28.99,10.0,VAR,5.0,0.0,Fair,False,False,False,False,False,False,False,False,False,False,False,True,False,Day,Day,Day,Day
C-4124600,2,2021-09-08 15:24:30,2021-09-08 17:28:09,42.05142,-87.97993699999998,42.05079600000001,-87.982061,0.117191180024,Slow traffic on IL-58 from S Goebbert Rd to E Seegers Rd due to roadwork.,140.0,E Golf Rd,L,Arlington Heights,Cook,IL,60005-4004,US,US/Central,KPWK,2021-09-08 15:52:00,75.0,75.0,41.0,29.12,10.0,NW,18.0,0.0,Partly Cloudy,False,False,False,False,False,False,False,False,False,False,False,False,False,Day,Day,Day,Day
C-4124601,2,2020-07-30 02:00:00,2020-07-30 13:45:00,32.326825,-86.33211800000002,32.326959,-86.332936,0.0486478340070999,Construction on US-82 WB near MM 153 Drive with caution.,979.0,W South Blvd,L,Montgomery,Montgomery,AL,36105-3038,US,US/Central,KMXF,2020-07-30 01:56:00,74.0,74.0,89.0,29.81,10.0,SW,3.0,0.0,Fair,False,False,False,False,False,False,False,False,False,False,False,False,False,Night,Night,Night,Night
C-4124602,4,2020-06-22 21:32:45,2020-06-23 02:31:03,33.03622,-117.28078,33.03877,-117.283,0.218121186887,At Santa Fe Dr/Exit 41A - Entry ramp closed. Construction work.,462.0,Santa Fe Dr,L,Encinitas,San Diego,CA,92024,US,US/Pacific,KCRQ,2020-06-22 21:45:00,65.0,65.0,81.0,29.59,10.0,VAR,3.0,0.0,Cloudy,False,False,True,False,False,False,False,False,False,False,False,True,False,Night,Night,Night,Day
C-4124603,2,2021-02-13 02:39:30,2021-02-13 03:10:00,35.429717,-83.402242,35.42607299999999,-83.40778900000002,0.401150671863,Slow traffic on Great Smoky Mountain Expy W - US-74 W from NC-1190/Hyatt Creek Rd (US-74) to Kelly Bennett Rd/Franklin St/Spring St (US-74) due to roadwork.,,Great Smokey Mountain Expy W,R,Bryson City,Swain,NC,28713,US,US/Eastern,K1A5,2021-02-13 02:35:00,43.0,43.0,94.0,27.9,7.0,CALM,0.0,0.0,Drizzle,False,False,False,False,False,False,False,False,False,False,False,False,False,Night,Night,Night,Night
C-4124604,2,2021-09-02 15:14:45,2021-09-02 17:34:29,28.99784600000001,-81.302441,28.998892,-81.304351,0.136183345523,Stationary traffic on FL-15A - US-92 E - US-17 N from Golf Club Dr to S Clara Ave due to roadwork.,1767.0,S Woodland Blvd,L,Deland,Volusia,FL,32724,US,US/Eastern,KDED,2021-09-02 15:10:00,91.0,91.0,51.0,29.8,10.0,SW,10.0,0.0,Fair,False,False,False,False,False,False,False,False,False,False,False,False,False,Day,Day,Day,Day
C-4124605,2,2016-12-22 20:00:00,2016-12-23 05:00:00,40.69417,-74.10901,40.7239,-74.08986,2.28593356199,Between 63rd St and Lincoln Hwy - Construction work.,,NJ-440 N,R,Bayonne,Hudson,NJ,07002,US,US/Eastern,KEWR,2016-12-22 19:51:00,41.0,32.8,53.0,30.11,10.0,WNW,16.1,,Scattered Clouds,False,False,False,False,False,False,False,False,False,False,False,True,False,Night,Night,Night,Night
C-4124606,4,2020-06-27 14:50:05,2020-06-27 19:49:22,40.8187,-72.9663,40.82125,-72.97254000000002,0.370806631866,Closed at Long Island Ave - Closed due to roadwork.,,Manor Rd,R,Medford,Suffolk,NY,11763,US,US/Eastern,KISP,2020-06-27 14:56:00,76.0,76.0,76.0,29.62,10.0,SSW,13.0,0.0,Light Rain,False,False,True,False,False,False,False,False,False,False,False,False,False,Day,Day,Day,Day
C-4124607,2,2020-10-05 02:23:00,2020-10-05 06:14:22,43.644765,-94.127908,43.644795,-94.137798,0.494487087462,Roadwork on County Hwy-16 - County Hwy-6 from W 1st St / Welk Dr to 365th Ave.,36998.0,110th St,L,Blue Earth,Faribault,MN,56013,US,US/Central,KFRM,2020-10-05 01:56:00,46.0,39.0,68.0,28.81,10.0,S,17.0,0.0,Fair,False,False,False,False,False,False,False,False,False,False,False,False,False,Night,Night,Night,Night
C-4124608,2,2019-06-11 22:02:15,2019-06-15 22:01:31,33.77272,-118.338521,33.77349,-118.339621,0.0825940263799999,At Rolling Hills Rd/Portuguese Bend Rd - Construction work.,2966.0,Palos Verdes Dr N,L,Rolling Hills Estates,Los Angeles,CA,90274-4157,US,US/Pacific,KTOA,2019-06-11 19:52:00,70.0,70.0,56.0,29.82,10.0,W,12.0,,Mostly Cloudy,False,False,False,False,False,False,False,False,False,False,False,False,False,Night,Night,Night,Night
C-4124609,2,2021-04-13 12:41:46,2021-04-14 13:29:29,39.39582100000001,-76.687899,39.414626,-76.66023,1.96727865643,Construction on I-695 NB near GREENSPRING AVE Expect delays.,,I-695 E,R,Pikesville,Baltimore County,MD,21208,US,US/Eastern,KDMH,,,,,,,,,,,False,False,False,False,False,False,False,False,False,False,False,False,False,Day,Day,Day,Day
C-4124610,3,2018-08-29 07:00:00,2018-09-30 18:00:00,32.986391,-82.772362,32.98143,-82.81103,2.26715014969,Between Ridge Rd and Harris St - Construction work. Two lanes blocked.,1876.0,E McCarty St,L,Sandersville,Washington,GA,31082-4705,US,US/Eastern,KOKZ,,,,,,,,,,,False,False,True,False,False,False,False,False,False,False,False,True,False,Night,Day,Day,Day
C-4124611,2,2020-11-06 04:20:30,2020-11-06 05:31:30,41.401752,-75.588201,41.375242,-75.57780100000002,1.90935468965,Slow traffic on I-84 from Tigue St/Exit 1 (I-380/I-84) to I-84/Exit 24 (I-380/I-84) due to roadwork.,,PA-435,R,Scranton,Lackawanna,PA,18512,US,US/Eastern,KAVP,2020-11-06 03:54:00,49.0,49.0,69.0,29.22,10.0,ESE,3.0,0.0,Fair,False,False,False,False,False,False,False,False,False,False,False,False,False,Night,Night,Night,Night
C-4124612,2,2021-12-27 14:57:00,2021-12-27 15:18:00,39.915536,-120.821641,39.933882,-120.855225,2.18482207278,Slow traffic on CA-70 - CA-89 from Squirrel Creek Rd (CA-89/CA-70) to Quincy la Porte Rd (CA-70) due to roadwork.,51151.0,State Highway 70,R,Quincy,Plumas,CA,95971,US,US/Pacific,KOVE,2021-12-27 14:53:00,48.0,43.0,63.0,29.61,10.0,NNE,13.0,0.0,Mostly Cloudy,False,False,False,False,False,False,False,False,False,False,False,False,False,Day,Day,Day,Day
C-4124613,2,2020-09-05 15:03:00,2020-09-06 02:26:29,27.082214,-82.425551,27.077601,-82.425045,0.3202444213099999,Stationary traffic on US-41 from Venice Byp (US-41) to US-41 Byp/FL-45/Tamiami Trl (US-41) due to roadwork.,1288.0,US Highway 41 Byp S,L,Venice,Sarasota,FL,34285-5541,US,US/Eastern,KVNC,2020-09-05 14:53:00,93.0,93.0,57.0,30.01,10.0,W,8.0,0.0,Partly Cloudy,False,False,False,False,False,False,False,False,False,False,False,False,False,Day,Day,Day,Day
C-4124614,4,2020-06-15 23:19:14,2020-06-16 04:18:50,38.88366,-94.79499,38.88367,-94.79723,0.1204778010339999,Closed at Ridgeview Rd - Closed due to roadwork.,,N Burch St,R,Olathe,Johnson,KS,66061,US,US/Central,KIXD,2020-06-15 22:53:00,78.0,78.0,62.0,29.02,10.0,SE,8.0,0.0,Fair,False,False,True,False,False,False,False,False,False,False,False,True,False,Night,Night,Night,Night
C-4124615,2,2021-10-16 19:44:30,2021-10-16 21:52:35,41.758894,-87.742626,41.760136,-87.741639,0.0997587265297,Slow traffic on IL-50 from State Rd / W 76th St to W 73rd St due to roadwork.,,S State Rd,R,Chicago,Cook,IL,60638,US,US/Central,KMDW,2021-10-16 19:53:00,54.0,54.0,43.0,29.4,10.0,W,10.0,0.0,Fair,False,False,False,False,False,False,False,False,True,False,False,True,False,Night,Night,Night,Night
C-4124616,2,2021-03-05 05:10:30,2021-03-05 17:58:57,33.582081,-111.927255,33.582747,-111.925925,0.0893216416994999,Slow traffic from N 71st Pl to E Sahuaro Dr due to roadwork.,7129.0,E Shea Blvd,R,Scottsdale,Maricopa,AZ,85254-5251,US,US/Mountain,KSDL,2021-03-05 04:53:00,58.0,58.0,41.0,28.49,10.0,N,5.0,0.0,Fair,False,False,False,False,False,False,False,False,False,False,False,False,False,Night,Night,Night,Night
C-4124617,2,2021-10-05 11:18:30,2021-10-05 11:38:30,37.492272,-105.020556,37.499552,-105.017545,0.529389649007,Stationary traffic on CO-12 from Rilling Canyon Rd (CO-12) to Ryus Ave (CO-12) due to roadwork.,,County Road 420,R,La Veta,Huerfano,CO,81055,US,US/Mountain,KVTP,2021-10-05 11:15:00,54.0,54.0,44.0,20.83,10.0,CALM,0.0,0.0,Mostly Cloudy,False,False,False,False,False,False,False,False,False,False,False,False,False,Day,Day,Day,Day
C-4124618,2,2021-06-08 06:34:30,2021-06-08 06:48:00,40.777806,-74.057539,40.778481,-74.048445,0.4780837510980001,Slow traffic on NJ-495 E from NJ-3 exit [16E] to NJ-3 W due to roadwork.,,New Jersey Tpke N,R,Secaucus,Hudson,NJ,07094,US,US/Eastern,KTEB,2021-06-08 06:51:00,77.0,77.0,84.0,30.03,10.0,SW,5.0,0.0,Fair,False,False,False,False,False,False,False,False,False,False,False,False,False,Day,Day,Day,Day
C-4124619,2,2021-06-05 00:27:34,2021-06-05 07:45:00,40.964312,-73.730522,40.963264,-73.73275100000002,0.136996248104,NYSTA - Statewide Ops.: road maintenance operations right and center lanes closed on I-95 - New England Thruway southbound from After Exit 18B (I-95) - White Plains to After Exit 17 (I-95) - Larchmont until 7:00 AM 06/05/2021 [CARS CAD-211560003],,New England Trwy S,R,Mamaroneck,Westchester,NY,10543,US,US/Eastern,KHPN,2021-06-05 00:56:00,62.0,62.0,96.0,29.45,5.0,WNW,5.0,0.0,Fair,False,False,False,False,True,False,False,False,False,False,False,False,False,Night,Night,Night,Night
C-4124620,2,2020-09-15 07:00:00,2020-10-10 11:36:46,42.560204,-83.74075699999999,42.59163,-83.73984,2.1718310036900004,Construction on US-23 NB near CULVER RD Expect delays.,,US-23 N,R,Brighton,Livingston,MI,48114,US,US/Eastern,KOZW,2020-09-15 06:55:00,47.0,47.0,100.0,29.33,10.0,CALM,0.0,0.0,Fair,False,False,False,False,False,False,False,False,False,False,False,False,False,Night,Day,Day,Day
C-4124621,2,2020-05-01 15:05:03,2020-05-09 23:59:59,40.82403,-74.07353,40.82403,-74.07353,0.0,At RT-120 - Roadwork.,2.0,Paterson Plank Rd,L,Carlstadt,Bergen,NJ,07072-2301,US,US/Eastern,KTEB,2020-05-01 14:51:00,64.0,64.0,78.0,29.63,10.0,NNW,7.0,0.0,Mostly Cloudy,False,False,False,False,False,False,False,False,False,False,False,False,False,Day,Day,Day,Day
C-4124622,2,2021-04-16 05:44:30,2021-04-16 19:03:00,39.033116,-95.597455,39.032228,-95.592047,0.2966659515329999,Slow traffic on I-70 E from I-470/KS-4/Exit 366 (I-70) to I-470/Kansas Tpke (I-70) due to roadwork.,,I-70 E,R,Tecumseh,Shawnee,KS,66542,US,US/Central,KTOP,2021-04-16 05:53:00,46.0,41.0,73.0,29.09,10.0,N,9.0,0.0,Cloudy,False,False,False,False,False,False,False,False,False,False,False,False,False,Night,Night,Day,Day
C-4124623,2,2020-11-17 05:27:00,2020-11-17 17:35:00,47.074834,-122.294234,47.075843,-122.294167,0.0697865101068999,Road work on SR 161 southbound at milepost 19.72 near 200th St E beginning at 9:27 pm on November 16 2020 until about 6:00 am on November 17 2020.,10099.0,200th St E,R,Graham,Pierce,WA,98338-9558,US,US/Pacific,KPLU,2020-11-17 05:20:00,43.0,43.0,93.0,29.0,1.0,CALM,0.0,0.0,Fog,False,False,False,False,False,False,False,False,False,False,False,True,False,Night,Night,Night,Night
C-4124624,2,2021-09-01 17:47:12,2021-09-01 18:41:51,40.607711,-74.003387,40.605482,-73.999711,0.246780943405,Slow traffic from 14th Ave (86th St) to Bay Pkwy (86th St) due to roadwork.,1751.0,86th St,L,Brooklyn,Kings,NY,11214-3714,US,US/Eastern,KJRB,2021-09-01 17:47:00,70.0,70.0,88.0,29.61,1.0,ENE,10.0,0.18,Rain,True,False,False,False,False,False,False,False,False,True,False,False,False,Day,Day,Day,Day
C-4124625,2,2021-02-19 05:06:00,2021-02-19 18:37:49,25.769083,-80.304146,25.770468,-80.30513,0.113604966032,Slow traffic on FL-968 from SW 2nd St to NW 67th Ct / SW 67th Ct due to roadwork.,123.0,SW 67th Ave,L,Miami,Miami-Dade,FL,33144-2913,US,US/Eastern,KMIA,2021-02-19 04:53:00,77.0,77.0,88.0,30.04,10.0,S,7.0,0.0,Partly Cloudy,False,False,False,False,False,False,False,False,True,False,False,False,False,Night,Night,Night,Night
C-4124626,3,2020-09-11 04:13:35,2020-09-13 23:59:00,41.569019,-87.42849,,,0.6800000071529999,Entry ramp to I-80 Eastbound from N Cline Ave Northbound lane closed due to construction.,,I-80 E,R,Gary,Lake,IN,46406,US,US/Central,KGYY,2020-09-11 04:15:00,61.0,61.0,89.0,29.66,10.0,ENE,8.0,0.0,Heavy Rain,False,False,False,False,False,False,False,False,False,False,False,False,False,Night,Night,Night,Night
C-4124627,2,2021-12-09 20:47:00,2021-12-09 21:00:30,37.235191,-97.33856,37.23904,-97.338381,0.266122790525,Slow traffic on Kansas Tpke N - I-35 N from E 40th St S to US-160 exit [19] due to roadwork.,,I-35 N,R,Wellington,Sumner,KS,67152,US,US/Central,KWLD,2021-12-09 20:54:00,41.0,41.0,65.0,28.51,10.0,CALM,0.0,0.0,Fair,False,False,False,False,False,False,False,False,False,True,False,False,False,Night,Night,Night,Night
C-4124628,2,2021-02-01 00:37:03,2021-02-01 16:26:10,29.947712,-95.416475,29.93172,-95.411859,1.13898162142,Roadwork on I-45/North Fwy Frontage/FM-1960 (I-45 HOV) from West Rd (I-45 HOV) to I-45 N - I-45 S.,,I-45 N,R,Houston,Harris,TX,77060,US,US/Central,KIAH,2021-02-01 00:53:00,50.0,50.0,54.0,30.22,10.0,NNW,12.0,0.0,Fair,False,False,False,False,False,False,False,False,False,False,False,False,False,Night,Night,Night,Night
C-4124629,2,2021-03-03 13:31:05,2021-03-03 19:56:49,32.759705,-97.050451,32.759924,-97.068939,1.07433068842,Slow traffic on I-30 W from 19th St/Exit 32 (I-30) to Ballpark Way/Exit 29 (I-30) due to roadwork.,,Tom Landry Fwy,R,Arlington,Tarrant,TX,76011,US,US/Central,KGPM,2021-03-03 13:50:00,66.0,66.0,30.0,29.5,10.0,SSE,9.0,0.0,Fair,False,False,False,False,False,False,False,False,False,False,False,False,False,Day,Day,Day,Day
C-4124630,2,2020-09-09 13:58:00,2020-09-09 20:15:47,27.080111,-82.424887,27.078985,-82.423754,0.1044555385129999,Stationary traffic on FL-45 - US-41 S from James St to Ogden Rd due to roadwork.,1472.0,US Highway 41 Byp S,L,Venice,Sarasota,FL,34285-5544,US,US/Eastern,KVNC,2020-09-09 13:53:00,87.0,87.0,69.0,29.91,10.0,S,8.0,0.0,Thunder in the Vicinity,False,False,False,False,False,False,False,False,False,False,False,False,False,Day,Day,Day,Day
C-4124631,2,2021-03-04 12:31:30,2021-08-28 07:37:10,39.986802,-75.341486,39.95837,-75.334351,2.00046245816,Stationary traffic on I-476 S - Veterans Memorial Hwy S - Mid-County Expy S from US-30/Exit 13 (I-476) to US-1/Exit 5 (I-476) due to roadwork.,,I-476 S,R,Broomall,Delaware,PA,19008,US,US/Eastern,KPHL,2021-03-04 12:54:00,48.0,41.0,34.0,29.83,10.0,WNW,22.0,0.0,Partly Cloudy / Windy,False,False,False,False,False,False,False,False,False,False,False,False,False,Day,Day,Day,Day
C-4124632,2,2020-07-14 16:00:00,2020-07-14 22:45:00,41.063712,-73.862411,41.060506,-73.862015,0.22247209818,Construction on US-9 SB near NY-119 Drive with caution.,,S Broadway,R,Tarrytown,Westchester,NY,10591,US,US/Eastern,KHPN,2020-07-14 15:56:00,83.0,83.0,44.0,29.48,10.0,WNW,8.0,0.0,Partly Cloudy,False,False,False,False,False,False,False,False,False,False,False,True,False,Day,Day,Day,Day
C-4124633,2,2021-09-07 15:20:00,2021-09-07 15:52:30,41.843329,-87.788196,41.843269,-87.79309599999998,0.252250143792,Stationary traffic from Ridgeland Ave (W 26th St) to Oak Park Ave (W 26th St) due to roadwork.,2598.0,East Ave,R,Berwyn,Cook,IL,60402-2640,US,US/Central,KMDW,2021-09-07 15:23:00,84.0,84.0,51.0,28.99,9.0,W,13.0,0.0,Light Rain with Thunder,True,False,True,False,False,False,False,False,False,False,False,True,False,Day,Day,Day,Day
C-4124634,1,2020-06-26 05:35:32,2020-06-26 07:35:32,28.40105,-80.74837,28.40105,-80.74837,0.0,At US-1/Exit 46 - Roadwork. Right lane closed.,,Beachline Expy,R,Cocoa,Brevard,FL,32922,US,US/Eastern,KTIX,2020-06-26 06:47:00,75.0,75.0,94.0,30.05,7.0,CALM,0.0,,Fair,False,False,False,False,False,False,False,False,False,False,False,False,False,Night,Night,Day,Day
C-4124635,2,2021-11-02 07:31:30,2021-11-02 10:09:04,26.04706,-80.196197,26.047346,-80.20084,0.288894466451,Slow traffic on FL-848 from Sarazen Dr to SW 58th St due to roadwork.,3701.0,Stirling Rd,R,Fort Lauderdale,Broward,FL,33312-6215,US,US/Eastern,KFLL,2021-11-02 07:53:00,72.0,72.0,100.0,30.07,8.0,NE,8.0,0.03,Light Rain,False,False,False,False,False,False,False,False,False,False,False,True,False,Day,Day,Day,Day
C-4124636,2,2021-06-14 07:53:30,2021-06-14 08:16:00,39.777366,-79.035641,39.785383,-79.031929,0.5879433801039999,Slow traffic on US-219 N - US-219 S from PA-669/Ord St (Grant St/US-219) to Mason Dixon Hwy (US-219) due to roadwork.,7898.0,Mason Dixon Hwy,L,Meyersdale,Somerset,PA,15552-7201,US,US/Eastern,KCBE,2021-06-14 07:55:00,64.0,64.0,99.0,29.08,0.25,CALM,0.0,0.0,Fog,False,False,False,False,False,False,False,False,False,False,False,False,False,Day,Day,Day,Day
C-4124637,2,2021-11-23 17:35:30,2021-11-23 19:47:25,33.553102,-112.147757,33.553151,-112.151559,0.218947762706,Stationary traffic from N 40th Dr to W Royal Palm Rd / W Harmont Dr due to roadwork.,4148.0,W Northern Ave,R,Phoenix,Maricopa,AZ,85051-5765,US,US/Mountain,KDVT,2021-11-23 17:53:00,71.0,71.0,26.0,28.24,10.0,WSW,5.0,0.0,Mostly Cloudy,False,False,True,False,False,False,False,False,False,False,False,True,False,Night,Day,Day,Day
C-4124638,2,2021-10-10 02:21:00,2021-10-11 01:58:43,45.010198,-93.686612,45.009437,-93.681439,0.258103462645,Roadwork on CR-90 (US-12) from Budd Ave (US-12) to US-12 E.,1632.0,Turner Rd,R,Maple Plain,Hennepin,MN,55359,US,US/Central,KCFE,2021-10-10 02:15:00,66.0,66.0,73.0,28.5,10.0,NW,16.0,0.0,Thunder in the Vicinity,False,False,False,False,False,False,False,False,False,True,False,False,False,Night,Night,Night,Night
C-4124639,2,2019-04-30 17:31:44,2019-05-04 04:46:16,42.75915,-71.12274000000002,42.774111,-71.11839,1.05699296671,Between RT-213/Exit 47 and RT-97/Broadway/Exit 50 - Roadwork.,,I-495 N,R,Haverhill,Essex,MA,01835,US,US/Eastern,KLWM,2019-04-30 17:54:00,51.0,51.0,63.0,30.12,10.0,NW,9.0,0.0,Mostly Cloudy,False,False,False,False,True,False,False,False,False,False,False,False,False,Day,Day,Day,Day
C-4124640,2,2019-07-11 00:00:00,2019-07-12 06:00:00,33.630886,-117.84166,,,5.38999986649,Road closed due to construction work on CA-73 Southbound between Exit 16 Bristol St and Exit 12 Bonita Canyon Dr.,,CA-73 N,R,Irvine,Orange,CA,92603,US,US/Pacific,KSNA,2019-07-11 00:53:00,67.0,67.0,79.0,29.93,9.0,CALM,0.0,0.0,Fair,False,False,False,False,False,False,False,False,False,False,False,False,False,Night,Night,Night,Night
C-4124641,2,2021-03-30 05:30:30,2021-03-30 21:46:57,26.228987,-80.10261,26.23181,-80.103317,0.199912153542,Stationary traffic on US-1 N - FL-814 - FL-5 from SE 4th St to NE 20th Ave due to roadwork.,318.0,S Federal Hwy,L,Pompano Beach,Broward,FL,33062-5326,US,US/Eastern,KPMP,2021-03-30 05:53:00,76.0,76.0,85.0,30.1,10.0,E,7.0,0.0,Partly Cloudy,False,False,True,False,False,False,False,False,False,False,False,True,False,Night,Night,Night,Night
C-4124642,2,2021-10-07 06:20:00,2021-10-07 08:23:41,28.565755,-81.20743,28.567025,-81.208415,0.106172109085,Slow traffic on FL-434 - FL-50 from Iroquois Trl to Crescent Blvd due to roadwork.,1637.0,N Alafaya Trl,L,Orlando,Orange,FL,32828,US,US/Eastern,KORL,2021-10-07 05:53:00,75.0,75.0,100.0,29.94,10.0,CALM,0.0,0.0,Fair,False,False,True,False,False,False,False,False,False,False,False,False,False,Night,Night,Night,Day
C-4124643,3,2019-03-28 02:56:04,2019-03-28 05:00:00,32.891659000000004,-117.209641,,,0.479999989271,Exit ramp from I-805 Southbound to Carroll Canyon Rd closed due to paving repairs.,,I-805 S,R,San Diego,San Diego,CA,92121,US,US/Pacific,KNKX,2019-03-28 02:55:00,62.1,,75.0,30.14,10.0,NNW,4.6,,Overcast,False,False,False,False,False,False,False,False,False,False,False,False,False,Night,Night,Night,Night
C-4124644,2,2020-07-15 14:10:00,2020-07-16 15:08:27,40.775596,-76.226463,40.770866,-76.220203,0.4627048245239999,Roadwork on PA 61 southbound between Exit: I-81 SOUTH - HARRISBURG and Exit: I-81 NORTH - HAZLETON. There is a lane restriction.,628.0,S Lehigh Ave,L,Frackville,Schuylkill,PA,17931-2422,US,US/Eastern,KMUI,2020-07-15 13:56:00,86.0,86.0,45.0,29.63,10.0,S,7.0,0.0,Partly Cloudy,False,False,False,False,True,False,False,False,False,False,False,False,False,Day,Day,Day,Day
C-4124645,3,2017-05-17 20:01:23,2017-05-18 02:01:23,36.00287,-79.85406,36.05347,-79.6852,10.0624018032,Between I-85-BR/US-29/US-70/Exit 120A and I-840/Exit 131 - Construction work.,,I-85 N,R,Greensboro,Guilford,NC,27407,US,US/Eastern,KGSO,2017-05-17 19:54:00,78.1,,52.0,30.04,10.0,SSW,8.1,,Mostly Cloudy,False,False,False,False,True,False,False,False,False,False,False,False,False,Day,Day,Day,Day
C-4124646,2,2021-10-28 14:05:00,2021-10-28 16:06:49,33.406719,-112.058964,33.406702,-112.0653,0.365449940491,Slow traffic from S 16th St (E Broadway Rd) to S Central Ave (Broadway Rd) due to roadwork.,940.0,E Broadway Rd,L,Phoenix,Maricopa,AZ,85040-2210,US,US/Mountain,KPHX,2021-10-28 13:51:00,83.0,83.0,16.0,28.81,10.0,VAR,3.0,0.0,Fair,True,False,False,False,False,False,False,False,True,False,False,False,False,Day,Day,Day,Day
C-4124647,2,2019-09-05 19:01:41,2019-09-22 00:01:35,30.53932,-91.19027,30.538655,-91.189972,0.0492506039552,At Scenic Hwy - Construction work.,10025.0,Scenic Hwy,L,Baton Rouge,East Baton Rouge,LA,70807-3769,US,US/Central,KBTR,2019-09-09 18:59:00,74.0,74.0,76.0,29.98,0.5,E,17.0,0.1,Heavy T-Storm,False,False,False,False,False,False,False,False,False,False,False,False,False,Day,Day,Day,Day
C-4124648,4,2018-11-19 22:00:00,2018-11-19 23:59:59,32.519215,-96.822289,,,7.090000152589999,Road closed due to construction during the night on I-35E Northbound between FM-387 Butcher Rd and Red Oak Rd. Detour in operation.,,W Red Oak Rd,R,Red Oak,Ellis,TX,75154,US,US/Central,KLNC,2018-11-19 21:55:00,38.3,,89.0,30.27,10.0,Calm,,,Clear,False,False,False,False,False,False,False,False,False,False,False,False,False,Night,Night,Night,Night
C-4124649,2,2019-05-10 18:03:31,2019-05-15 00:01:46,30.00562,-90.26594,30.0056,-90.26625,0.0185997189224,At Loyola Dr - Construction work.,380.0,Veterans Memorial Blvd,L,Kenner,Jefferson,LA,70062-5046,US,US/Central,KMSY,2019-05-10 20:53:00,78.0,78.0,84.0,29.94,10.0,ESE,8.0,0.0,Cloudy,False,False,False,False,False,False,False,False,False,False,False,True,False,Day,Day,Day,Day
C-4124650,2,2020-10-14 19:24:00,2020-10-14 21:10:30,41.458035,-75.663775,41.482565,-75.679715,1.88509326673,Slow traffic on I-81 from US-6 Bus/Exit 191 (I-81) to I-476/NE Extension Penn Tpke/Exit 194 (I-81) due to roadwork.,,Grand Army of the Republic Hwy N,R,Scranton,Lackawanna,PA,18508,US,US/Eastern,KAVP,2020-10-14 18:54:00,59.0,59.0,48.0,28.96,10.0,CALM,0.0,0.0,Fair,False,False,False,False,True,False,False,False,False,False,False,False,False,Night,Night,Night,Day
C-4124651,4,2020-06-19 18:10:15,2020-06-19 23:09:50,39.94888,-75.18549,39.94601,-75.18974,0.300001715845,Closed at 34th St/Exit 346 - Closed due to roadwork. Right lane closed.,,Schuylkill Expy W,R,Philadelphia,Philadelphia,PA,19104,US,US/Eastern,KPHL,2020-06-19 17:54:00,81.0,81.0,54.0,30.03,10.0,SW,8.0,0.0,Mostly Cloudy,False,False,False,False,True,True,False,False,False,False,False,False,False,Day,Day,Day,Day
C-4124652,2,2019-05-21 17:32:59,2019-05-25 17:32:06,30.48465,-81.663771,30.48151,-81.6438,1.2087675155600002,At I-95 - Construction work.,,Airport Rd,R,Jacksonville,Duval,FL,32218,US,US/Eastern,KJAX,2019-05-21 17:56:00,89.0,89.0,42.0,29.87,10.0,ESE,14.0,0.0,Partly Cloudy,False,False,False,False,False,False,False,False,False,False,False,False,False,Day,Day,Day,Day
C-4124653,3,2019-03-09 08:30:59,2019-05-05 00:31:08,33.0169,-96.79521,33.0169,-96.79539,0.0104283927427999,At TX-289/Preston Rd - Construction work.,4999.0,W Plano Pkwy,R,Plano,Collin,TX,75093-5312,US,US/Central,KADS,2019-03-11 22:15:00,59.2,,78.0,30.25,10.0,East,4.6,,Overcast,False,False,False,False,False,False,False,False,False,False,False,True,False,Day,Day,Day,Day
C-4124654,2,2021-04-15 15:01:00,2021-12-14 20:07:15,37.990346,-85.711923,37.991334,-85.717056,0.287723424198,Slow traffic on KY-44 from I-65 (KY-44) to Knob Creek Rd (KY-44) due to roadwork.,306.0,Highway 44 E,L,Shepherdsville,Bullitt,KY,40165-8051,US,US/Eastern,KSDF,2021-12-14 17:56:00,58.0,58.0,51.0,29.81,10.0,SE,7.0,0.0,Partly Cloudy,False,False,False,False,False,False,False,False,False,False,False,False,False,Day,Day,Day,Day
C-4124655,2,2021-11-18 15:58:00,2021-11-18 18:32:16,33.654727,-112.101264,33.655233,-112.099755,0.0935639087901,Stationary traffic from N 27th Ave to W Wescott Dr due to roadwork.,1952.0,W Union Hills Dr,R,Phoenix,Maricopa,AZ,85027-5295,US,US/Mountain,KDVT,2021-11-18 15:53:00,81.0,81.0,11.0,28.42,10.0,SSE,6.0,0.0,Fair,True,False,False,False,False,False,False,False,True,False,False,False,False,Day,Day,Day,Day
C-4124656,2,2020-10-19 16:16:21,2020-10-20 17:02:13,39.205559,-76.64027,39.206719,-76.6424,0.139385746856,Construction on I-695 near MP 1 Allow extra time.,,I-695 W,R,Brooklyn,Anne Arundel,MD,21225,US,US/Eastern,KDMH,,,,,,,,,,,False,False,False,False,True,False,False,False,False,False,False,False,False,Day,Day,Day,Day
C-4124657,2,2021-12-23 18:47:30,2021-12-23 19:10:35,35.162434999999995,-101.887709,35.163826,-101.883902,0.235538453604,Stationary traffic from Bell St (SW 45th Ave) to S Western St (SW 45th Ave) due to roadwork.,4314.0,SW 45th Ave,R,Amarillo,Randall,TX,79109-5404,US,US/Central,KAMA,2021-12-23 18:53:00,62.0,62.0,26.0,26.1,10.0,SW,14.0,0.0,Fair,False,False,False,False,False,False,False,False,False,False,False,True,False,Night,Night,Night,Day
C-4124658,3,2021-03-17 01:17:53,2021-03-17 06:00:00,34.071659000000004,-117.888741,,,0.360000014305,Entry ramp to I-10 Eastbound from Citrus St closed due to paving repairs.,,I-10 E,R,West Covina,Los Angeles,CA,91791,US,US/Pacific,KPOC,2021-03-17 15:47:00,66.0,66.0,32.0,28.98,10.0,WSW,6.0,,Fair,False,False,False,False,False,False,False,False,False,False,False,False,False,Night,Night,Night,Night
C-4124659,2,2021-07-20 15:48:42,2021-10-30 12:07:35,33.026814,-96.76883,33.02763,-96.769985,0.0874949640313999,Slow traffic from Promontory Pt to Irvine Dr due to roadwork.,3953.0,W Park Blvd,L,Plano,Collin,TX,75075-3544,US,US/Central,KADS,2021-10-13 16:47:00,73.0,73.0,88.0,29.06,13.0,N,6.0,0.0,Cloudy,False,False,False,False,False,False,False,False,False,False,False,False,False,Day,Day,Day,Day
C-4124660,3,2018-07-17 19:00:00,2018-07-18 06:00:00,37.94645300000001,-122.490913,,,2.21000003815,Exit ramp from I-580 Eastbound to Sir Francis Drake Blvd Eastbound closed due to paving repairs.,,I-580 W,R,San Quentin,Marin,CA,94964,US,US/Pacific,KDVO,2018-07-17 18:55:00,78.8,,44.0,29.91,10.0,NNW,15.0,,Clear,False,False,False,False,False,False,False,False,False,False,False,False,False,Day,Day,Day,Day
C-4124661,2,2021-05-21 05:42:00,2021-05-21 18:41:16,33.468646,-112.13447,33.465936,-112.135249,0.192551288394,Stationary traffic from W Granada Rd to N 36th Ave due to roadwork.,1820.0,N 35th Ave,L,Phoenix,Maricopa,AZ,85009-2355,US,US/Mountain,KPHX,2021-05-21 05:51:00,77.0,77.0,10.0,28.58,10.0,WNW,15.0,0.0,Cloudy,False,False,False,False,False,False,False,False,False,True,False,False,False,Day,Day,Day,Day
C-4124662,2,2016-11-17 08:30:00,2016-11-17 16:30:00,31.187637,-89.251696,31.212145,-89.26191800000002,1.79787877366,At US-98 - Construction work.,3972.0,US Highway 49,L,Hattiesburg,Forrest,MS,39401,US,US/Central,KHBG,2016-11-17 08:53:00,57.0,,77.0,30.14,10.0,Variable,3.5,,Clear,False,False,False,False,False,False,False,False,False,False,False,False,False,Day,Day,Day,Day
C-4124663,2,2018-05-23 07:00:54,2018-05-23 13:00:54,42.77629,-76.12661999999997,42.96062,-76.13721,12.7472754821,Between Cortland/Onondaga County Line and US-11/Exit 16 - Construction work.,,I-81 N,R,Tully,Cortland,NY,13159,US,US/Eastern,KN03,2018-05-23 06:55:00,53.6,,100.0,30.01,10.0,Calm,,,Overcast,False,False,False,False,False,False,False,False,False,False,False,False,False,Day,Day,Day,Day
C-4124664,2,2020-10-30 12:30:00,2020-10-30 20:12:33,26.51571400000001,-80.059048,26.514554,-80.059752,0.0912043084884,Slow traffic on FL-805 - US-1 S - FL-5 at To Be Determined due to roadwork.,1431.0,S Federal Hwy,R,Boynton Beach,Palm Beach,FL,33435-6003,US,US/Eastern,KPBI,2020-10-30 12:53:00,86.0,86.0,70.0,29.93,10.0,W,7.0,0.0,Mostly Cloudy,False,False,False,False,False,False,False,False,False,False,False,False,False,Day,Day,Day,Day
C-4124665,2,2018-11-07 08:00:00,2018-11-07 17:00:00,37.788795,-122.40081,,,0.0,Intermittent lane closures due to construction on 2nd St Eastbound at Stevenson St.,,Stevenson St,R,San Francisco,San Francisco,CA,94105,US,US/Pacific,KOAK,2018-11-07 07:53:00,54.0,,57.0,30.06,10.0,Calm,,,Partly Cloudy,True,False,True,False,False,False,False,False,False,False,False,False,False,Day,Day,Day,Day
C-4124666,2,2021-11-18 15:06:46,2021-11-18 17:30:00,34.793556,-86.955563,34.796603000000005,-86.954868,0.214188986397,Stationary traffic on County Hwy-44 - US-31 N - AL-3 from US-31 to Hoffman St due to roadwork.,529.0,US Highway 31 S,L,Athens,Limestone,AL,35611-2833,US,US/Central,KDCU,2021-11-18 14:53:00,49.0,45.0,69.0,29.71,10.0,N,10.0,0.0,Fair,False,False,False,False,False,False,False,False,False,False,False,False,False,Day,Day,Day,Day
C-4124667,2,2021-06-14 00:07:43,2021-06-15 03:44:50,29.556301,-98.663974,29.564661,-98.655224,0.7811463549359999,Construction on TX-1604-LOOP EB near HAUSMAN RD Allow extra time.,,State Loop 1604 N,R,San Antonio,Bexar,TX,78249,US,US/Central,KSAT,2021-06-14 00:51:00,83.0,83.0,65.0,29.12,10.0,S,7.0,0.0,Partly Cloudy,False,False,False,False,False,False,False,False,False,False,False,False,False,Night,Night,Night,Night
C-4124668,2,2021-08-04 13:31:00,2021-09-09 22:37:00,47.257297,-122.259393,47.273025,-122.259044,1.08682449831,Slow traffic on WA-167 N from 8th St (WA-167) to Ellingson Rd (WA-167) due to roadwork.,,WA-167 N,R,Sumner,Pierce,WA,98390,US,US/Pacific,KPLU,2021-09-09 20:58:00,65.0,65.0,80.0,29.57,10.0,W,8.0,0.0,Fair,False,False,False,False,False,False,False,False,False,False,False,False,False,Day,Day,Day,Day
C-4124669,2,2021-06-10 14:31:00,2021-06-10 14:55:00,39.992979,-75.255375,39.9895,-75.251437,0.318176153315,Slow traffic from S Bowman Ave (E Wynnewood Rd) to US-1/City Ave (E Wynnewood Rd) due to roadwork.,165.0,E Wynnewood Rd,R,Merion Station,Montgomery,PA,19066,US,US/Eastern,KPHL,2021-06-10 14:54:00,83.0,83.0,39.0,29.96,10.0,ENE,12.0,0.0,Partly Cloudy,False,False,True,False,False,False,False,False,False,False,False,True,False,Day,Day,Day,Day
C-4124670,2,2021-04-07 04:15:00,2021-04-07 13:48:12,30.103316,-82.052262,30.153743,-82.032088,3.68685316288,Stationary traffic on US-301 N - FL-200 from FL-200/CR-225/Lake St (US-301) to Max Middleburg Rd (US-301) due to roadwork.,27225.0,US Highway 301 N,L,Lawtey,Bradford,FL,32058-2238,US,US/Eastern,K42J,2021-04-07 03:53:00,50.0,50.0,93.0,29.92,10.0,CALM,0.0,0.0,Fair,False,False,False,False,False,False,False,False,False,False,False,False,False,Night,Night,Night,Night
C-4124671,2,2021-11-11 16:51:30,2021-11-11 17:13:30,39.285535,-121.662765,39.279064,-121.661295,0.453962717985,Stationary traffic on CA-99 from Riviera Rd (CA-99) to Pennington Rd (CA-99) due to roadwork.,10744.0,Highway 99,L,Live Oak,Sutter,CA,95953-9804,US,US/Pacific,KMYV,2021-11-11 16:53:00,63.0,63.0,75.0,30.13,10.0,SE,5.0,0.0,Fair,False,False,False,False,False,False,False,False,False,False,False,False,False,Day,Day,Day,Day
C-4124672,2,2019-01-23 07:01:55,2019-01-27 07:01:28,27.909926,-82.40194,27.90106,-82.40194,0.612582257724,At CR-676A/Madison Ave/Pendola Point R - Construction work.,4119.0,S 50th St,R,Tampa,Hillsborough,FL,33619-6729,US,US/Eastern,KTPF,2019-01-23 06:55:00,62.6,,77.0,30.24,10.0,ESE,9.2,,Overcast,False,False,False,False,False,False,False,False,False,False,False,True,False,Night,Day,Day,Day
C-4124673,2,2021-03-31 08:51:30,2021-03-31 17:24:00,33.410657,-112.073453,33.406687,-112.073403,0.274316034667,Stationary traffic from I-17/US-60/Maricopa Fwy (S Central Ave) to Broadway Rd (S Central Ave) due to roadwork.,,E Jones Ave,R,Phoenix,Maricopa,AZ,85040,US,US/Mountain,KPHX,2021-03-31 08:51:00,67.0,67.0,9.0,28.94,10.0,ENE,8.0,0.0,Fair,False,False,True,False,False,False,False,False,False,True,False,True,False,Day,Day,Day,Day
C-4124674,2,2021-09-13 11:21:00,2021-09-13 11:42:30,40.634252,-74.133121,40.632798,-74.134051,0.111671395104,Stationary traffic from Castleton Ave to Post Ave due to roadwork.,79.0,Anderson Ave,R,Staten Island,Richmond,NY,10302-1802,US,US/Eastern,KEWR,2021-09-13 10:51:00,84.0,84.0,55.0,30.02,10.0,NW,8.0,0.0,Mostly Cloudy,False,False,True,False,False,False,False,False,False,True,False,True,False,Day,Day,Day,Day
C-4124675,2,2021-10-15 13:40:09,2021-10-15 14:01:09,45.66349,-107.657351,45.665698,-107.641948,0.759241240307,Stationary traffic on MT-313 - County Hwy-313 from Crow Street X Cutoff (MT-313) to CR-216C (MT-313) due to roadwork.,,State Highway 313,R,Crow Agency,Big Horn,MT,59022,US,US/Mountain,KM46,2021-10-15 13:53:00,54.0,54.0,35.0,27.34,10.0,WNW,22.0,0.0,Fair / Windy,False,False,False,False,False,False,False,False,False,False,False,False,False,Day,Day,Day,Day
C-4124676,4,2021-05-18 20:30:00,2021-05-18 23:46:00,33.782712,-118.206335,33.785012,-118.207505,0.1725348608179999,Construction on I-710 NB near ANAHEIM ST Take alternate route.,,W Anaheim St,R,Long Beach,Los Angeles,CA,90813,US,US/Pacific,KLGB,2021-05-18 20:53:00,64.0,64.0,67.0,29.84,10.0,CALM,0.0,0.0,Fair,False,False,False,False,False,False,False,False,False,False,False,False,False,Night,Night,Day,Day
C-4124677,2,2021-12-22 11:01:00,2021-12-22 13:10:51,32.625978,-114.580852,32.625033,-114.580847,0.0652939297444,Roadwork from I-8 Bus Loop/E 32nd St (S Avenue 3 E) to County 15th St (S Avenue 3 E).,2999.0,E County 14th St,L,Yuma,Yuma,AZ,85365,US,US/Mountain,KNYL,2021-12-22 10:57:00,63.0,63.0,26.0,29.87,7.0,NNE,8.0,0.0,Mostly Cloudy,False,False,False,False,False,False,False,False,False,False,False,False,False,Day,Day,Day,Day
C-4124678,2,2019-12-17 07:00:00,2019-12-18 19:00:00,40.51403,-107.59829,40.51403,-107.59655,0.0913988224798,At CR-14/Bear Valley Rd - Construction work.,2931.0,W Victory Way,L,Craig,Moffat,CO,81625-4001,US,US/Mountain,KCAG,2019-12-17 06:53:00,-13.0,-13.0,78.0,24.19,10.0,CALM,0.0,0.0,Fair,False,False,False,False,False,False,False,False,False,False,False,False,False,Night,Day,Day,Day
C-4124679,2,2021-09-08 13:01:30,2021-09-08 15:02:50,29.726568,-95.344323,29.726844,-95.342888,0.0881876078999999,Slow traffic from Holman St to State Highway 35 due to roadwork.,3151.0,Cullen Blvd,L,Houston,Harris,TX,77204,US,US/Central,KMCJ,2021-09-08 12:53:00,91.0,,35.0,29.87,10.0,,,0.0,Mostly Cloudy,False,False,False,False,False,False,False,False,True,False,False,False,False,Day,Day,Day,Day
C-4124680,2,2017-10-05 10:01:53,2017-10-05 16:01:53,33.825552,-84.352884,33.825552,-84.352884,0.0,At Lenox Rd NE - Construction work. Right lane blocked.,,Lenox Rd NE,R,Atlanta,Fulton,GA,30324,US,US/Eastern,KPDK,2017-10-05 09:53:00,66.9,,63.0,30.26,10.0,Variable,4.6,,Clear,False,False,False,False,False,False,False,False,False,False,False,True,False,Day,Day,Day,Day
C-4124681,4,2019-02-02 07:46:31,2019-02-02 12:46:17,29.600140000000003,-98.56232,29.6084,-98.50234,3.64814578798,Closed between Military Hwy/FM-1535 and Blanco Rd - Closed due to roadwork.,,TX-1604,R,San Antonio,Bexar,TX,78231,US,US/Central,KSAT,2019-02-02 07:51:00,59.0,,96.0,30.09,2.0,Calm,,0.0,Light Drizzle,False,False,False,False,True,False,False,False,False,False,False,False,False,Day,Day,Day,Day
C-4124682,2,2021-12-11 09:27:30,2021-12-11 14:48:44,33.479343,-112.169005,33.48048,-112.168706,0.0804267652199,Slow traffic from W Cambridge Ave to N 50th Dr due to roadwork.,2674.0,N 51st Ave,L,Phoenix,Maricopa,AZ,85035-2020,US,US/Mountain,KGEU,2021-12-11 08:58:00,47.0,46.0,55.0,29.07,10.0,NW,5.0,0.0,Fair,False,False,True,False,False,False,False,False,False,False,False,True,False,Day,Day,Day,Day
C-4124683,2,2018-11-07 06:00:00,2018-12-07 23:59:00,39.666836,-86.018578,,,0.0,Intermittent lane closures due to construction on Franklin Rd at Southport Rd.,6922.0,S Franklin Rd,R,Indianapolis,Marion,IN,46259-9815,US,US/Eastern,KGEZ,2018-11-07 05:53:00,39.0,35.7,79.0,30.12,10.0,WSW,4.6,,Clear,False,False,True,False,False,False,False,False,False,False,False,False,False,Night,Night,Night,Day
C-4124684,2,2021-12-26 17:46:00,2021-12-26 19:49:37,33.449614000000004,-111.956047,33.451477000000004,-111.955521,0.132244510973,Stationary traffic from Center Pkwy to Papago Park / E Moreland St due to roadwork.,1905.0,N Priest Dr,L,Phoenix,Maricopa,AZ,85008,US,US/Mountain,KPHX,2021-12-26 17:51:00,63.0,63.0,43.0,28.75,10.0,NW,8.0,0.0,Mostly Cloudy,False,False,False,False,False,False,False,False,False,False,False,False,False,Night,Day,Day,Day
C-4124685,2,2021-06-15 17:34:00,2021-06-15 18:02:30,38.320312,-104.687829,38.324868,-104.704414,0.95252562212,Slow traffic on US-50 W from CO-45/N Pueblo Blvd (US-50) to McCulloch Blvd (US-50) due to roadwork.,4075.0,W US Highway 50,L,Pueblo,Pueblo,CO,81007,US,US/Mountain,KPUB,2021-06-15 17:53:00,96.0,96.0,20.0,25.28,10.0,ESE,6.0,0.0,Fair,False,False,False,False,False,False,False,False,False,False,False,False,False,Day,Day,Day,Day
C-4124686,2,2020-09-01 14:00:00,2020-09-02 06:59:00,40.696185,-74.093506,40.696967,-74.093008,0.0599993242236,Water main work on Old Bergen Road both directions at Greenville Avenue (Jersey City) Tuesday September 1st 2020 07:00 AM thru 05:00 PM 1 lane closed,212.0,Old Bergen Rd,R,Jersey City,Hudson,NJ,07305-2622,US,US/Eastern,KJRB,2020-09-01 13:51:00,74.0,,82.0,30.03,10.0,,,0.0,Mostly Cloudy,True,False,False,False,False,False,False,False,True,False,False,True,False,Day,Day,Day,Day
C-4124687,2,2019-03-27 09:05:30,2019-04-02 09:04:11,33.756941999999995,-84.35368100000002,33.756141,-84.35471899999997,0.0813534843148,At Hurt St NE - Construction work.,1034.0,Dekalb Ave NE,L,Atlanta,Fulton,GA,30307-2526,US,US/Eastern,KPDK,2019-03-27 08:53:00,46.0,41.9,63.0,30.39,8.0,ENE,8.1,,Clear,True,False,False,False,False,False,False,False,False,True,False,False,False,Day,Day,Day,Day
C-4124688,2,2020-04-17 07:01:00,2020-04-17 20:01:00,37.7012,-118.42244,37.69463,-118.41843,0.504108195499,Construction work.,16816.0,Highway 6,L,Bishop,Mono,CA,93514-9478,US,US/Pacific,KBIH,2020-04-17 06:56:00,51.0,51.0,50.0,25.77,10.0,NW,7.0,0.0,Cloudy,False,False,False,False,False,False,False,False,False,False,False,False,False,Day,Day,Day,Day
C-4124689,2,2021-12-02 17:30:00,2021-12-02 19:38:27,32.269502,-110.978014,32.271962,-110.978999,0.179446689796,Stationary traffic on AZ-77 from W Yavapai Rd to N Fairview Ave due to roadwork.,,W Yavapai Rd,R,Tucson,Pima,AZ,85705,US,US/Mountain,KDMA,2021-12-02 17:58:00,73.0,73.0,30.0,27.22,10.0,WNW,9.0,0.0,Fair,False,False,True,False,False,False,False,False,False,True,False,False,False,Night,Day,Day,Day
C-4124690,4,2021-12-07 20:46:30,2021-12-07 22:53:58,33.480227,-112.069453,33.480222999999995,-112.06878799999998,0.0383244022178,Closed road from N Central Ave (Thomas Rd) to N 7th St (E Thomas Rd) due to roadwork.,2899.0,N 3rd St,R,Phoenix,Maricopa,AZ,85004-1003,US,US/Mountain,KPHX,2021-12-07 20:51:00,65.0,65.0,31.0,28.73,10.0,SW,3.0,0.0,Cloudy,True,False,True,False,False,False,False,False,True,False,False,True,False,Night,Night,Night,Night
C-4124691,2,2021-07-01 21:00:00,2021-07-02 06:45:00,35.23172800000001,-80.859675,35.208268,-80.876255,1.87170057539,Construction on I-77 SB near NC-27 Drive with caution.,,I-77 S,R,Charlotte,Mecklenburg,NC,28208,US,US/Eastern,KCLT,2021-07-01 20:52:00,77.0,77.0,76.0,29.14,10.0,SSW,17.0,0.0,Cloudy,False,False,False,False,False,False,False,False,False,False,False,False,False,Night,Day,Day,Day
C-4124692,2,2020-09-19 07:29:00,2020-09-19 17:39:28,46.683839,-120.951611,46.726231,-120.811778,7.24400249002,US-12 both directions milepost 175 Windy Point vicinity to milepost milepost 185 Jct. of US-12 and SR-410: Monday Sept. 21 to Thursday Sept. 24 between 7 a.m. and 4:30 p.m. travelers should expect single lane pilot car controlled traffic control with 10 minute delays and added travel time for pavement sealing and preservation work. This work is contingent on weather and fire status.,25310.0,US Highway 12,R,Naches,Yakima,WA,98937-9501,US,US/Pacific,K1YT,2020-09-19 07:53:00,54.0,54.0,80.0,28.82,6.0,SE,3.0,0.0,Haze,False,False,False,False,False,False,False,False,False,False,False,False,False,Day,Day,Day,Day
C-4124693,2,2021-01-19 16:33:00,2021-01-20 00:00:00,36.96488400000001,-77.967063,36.997844,-77.964763,2.28085458681,On VA-46 (Christanna Hwy) in the County of Brunswick at County/City/Town Line: NOTTOWAY CL/BRUNSWICK CL motorists can expect potential delays in this area from 01/19/21 at 8:33 AM until 01/19/21 at 4:00 PM due to bridge work. The south through lanes are closed.,34898.0,Christanna Hwy,R,Alberta,Brunswick,VA,23821,US,US/Eastern,KAVC,2021-01-19 16:35:00,55.0,55.0,29.0,29.74,10.0,SW,9.0,0.0,Partly Cloudy,False,False,False,False,False,False,False,False,False,False,False,False,False,Day,Day,Day,Day
C-4124694,2,2018-11-07 15:46:41,2018-11-11 15:46:15,40.67241,-73.78577,40.66796,-73.78678000000002,0.311988314475,At RT-27/N Conduit Ave - Construction work.,15007.0,Baisley Blvd,L,Jamaica,Queens,NY,11434,US,US/Eastern,KJFK,2018-11-07 15:51:00,61.0,,52.0,29.99,10.0,WSW,16.1,,Mostly Cloudy,False,False,True,False,False,False,False,False,False,True,False,True,False,Day,Day,Day,Day
C-4124695,2,2021-08-31 15:45:30,2021-08-31 16:21:00,41.99029,-88.145325,41.988616,-88.145808,0.118292209711,Slow traffic on US-20 E from Maple Ave to Milwaukee Railroad due to roadwork.,6424.0,Barrington Rd,L,Hanover Park,Cook,IL,60133,US,US/Central,KDPA,2021-08-31 15:52:00,82.0,82.0,39.0,28.99,10.0,ENE,14.0,0.0,Fair,False,False,False,False,False,False,False,False,False,False,False,False,False,Day,Day,Day,Day
C-4124696,2,2021-08-23 15:19:30,2021-08-23 17:33:59,39.756037,-105.025162,39.75848,-105.025765,0.1718071397269999,Stationary traffic on US-287 N from W 27th Ave to N Grove St due to roadwork.,2700.0,Federal Blvd,R,Denver,Denver,CO,80211-4116,US,US/Mountain,KBJC,2021-08-23 14:58:00,90.0,90.0,17.0,24.39,10.0,NNW,3.0,0.0,Mostly Cloudy,False,False,True,False,False,True,False,False,True,True,False,False,False,Day,Day,Day,Day
C-4124697,2,2019-10-04 19:42:22,2019-10-08 19:42:38,40.33146,-80.07009000000002,40.30668,-80.09401,2.12586485252,Between Fort Couch Rd and Valleybrook Rd - Roadwork. Lane blocked.,2198.0,Washington Rd,R,Pittsburgh,Allegheny,PA,15241,US,US/Eastern,KAGC,2019-10-04 19:53:00,54.0,54.0,69.0,28.93,10.0,VAR,6.0,0.0,Fair,False,False,False,False,False,False,False,False,False,True,False,False,False,Night,Night,Day,Day
C-4124698,2,2021-10-22 20:00:00,2021-10-23 06:30:00,43.03477700000001,-89.443598,43.03547,-89.43189699999998,0.5928703280709999,Construction - Mainline 2 Right Lanes Closed from US 18/151 &amp; VERONA RD to AGRICULTURAL DR,,Seminole Hwy,R,Madison,Dane,WI,53711,US,US/Central,KC29,2021-10-22 19:55:00,44.0,40.0,71.0,29.04,10.0,ENE,7.0,0.0,Mostly Cloudy,False,False,False,False,False,False,False,False,False,False,False,False,False,Night,Night,Night,Night
C-4124699,2,2021-11-05 18:40:30,2021-11-05 20:51:16,33.493164,-112.073714,33.494796,-112.074622,0.124306869773,Stationary traffic from E Indianola Ave / W Clarendon Ave to N 1st Ave due to roadwork.,4025.0,N Central Ave,R,Phoenix,Maricopa,AZ,85012-1948,US,US/Mountain,KPHX,2021-11-05 18:51:00,84.0,84.0,19.0,28.72,10.0,CALM,0.0,0.0,Mostly Cloudy,True,False,False,False,False,False,False,False,True,False,False,False,False,Night,Night,Night,Day
C-4124700,4,2021-03-18 21:00:00,2021-09-16 15:28:13,32.657571000000004,-117.073608,32.660143,-117.075515,0.209488874309,Bridge closure from exit [9] to Sweetwater Rd.,,I-805 N,R,National City,San Diego,CA,91950,US,US/Pacific,KNRS,2021-03-18 20:56:00,55.0,55.0,83.0,30.13,10.0,N,9.0,0.0,Fair,False,False,False,False,True,False,False,False,False,False,False,False,False,Night,Night,Night,Night
C-4124701,2,2021-05-27 08:00:00,2021-05-27 17:45:00,34.933975,-90.013521,34.918453,-90.006095,1.15202240446,Construction on US-51 SB near CHURCH RD Drive with caution.,,Highway 51 N,R,Horn Lake,DeSoto,MS,38637,US,US/Central,KMEM,2021-05-27 07:54:00,73.0,73.0,84.0,29.71,10.0,SSE,5.0,0.0,Mostly Cloudy,False,False,False,False,False,False,False,False,False,False,False,False,False,Day,Day,Day,Day
C-4124702,2,2020-10-28 13:52:00,2020-10-29 00:08:52,26.189099,-80.25184899999998,26.193695,-80.25196,0.317627918814,Queuing traffic on FL-817 from 44th St (FL-817) to FL-870/Commercial Blvd (FL-817) due to roadwork.,5130.0,N University Dr,R,Lauderhill,Broward,FL,33351-5016,US,US/Eastern,KFXE,2020-10-28 13:53:00,86.0,86.0,72.0,29.99,10.0,SE,15.0,0.0,Partly Cloudy,False,False,False,False,False,False,False,False,False,False,False,True,False,Day,Day,Day,Day
C-4124703,2,2021-04-12 19:38:00,2021-12-30 09:28:30,43.646374,-122.196346,43.610994,-122.116906,4.66474405001,Stationary traffic on OR-58 from NFD-364 (OR-58) to NFD-5897 (OR-58) due to roadwork.,,Highway 58,R,Oakridge,Lane,OR,97463,US,US/Pacific,KEUG,2021-12-30 09:10:00,36.0,27.0,89.0,29.37,4.0,S,14.0,0.0,Wintry Mix,False,False,False,False,False,False,False,False,False,False,False,False,False,Day,Day,Day,Day
C-4124704,2,2021-08-06 00:02:00,2021-12-22 16:23:06,27.806499,-82.678161,27.807,-82.679455,0.0863268783561,Stationary traffic on US-19 N from 33rd St N to 44th Ave N due to roadwork.,3318.0,38th Ave N,L,Saint Petersburg,Pinellas,FL,33713,US,US/Eastern,KSPG,2021-12-22 14:10:00,62.0,62.0,67.0,29.94,10.0,NNW,12.0,0.0,Partly Cloudy,False,False,True,False,False,False,False,False,True,False,False,False,False,Night,Night,Night,Night
C-4124705,2,2021-08-20 17:19:00,2021-08-20 17:41:03,47.924018,-97.033111,47.925293,-97.030515,0.149021353727,Slow traffic on US-2 Bus W - US-2 Bus E from University Ave (US-2 Bus/N 5th St) to Demers Ave/4th St NW (US-2 Bus) due to roadwork.,52.0,N 5th St,R,Grand Forks,Grand Forks,ND,58203,US,US/Central,KGFK,2021-08-20 17:16:00,77.0,77.0,76.0,28.61,10.0,SE,6.0,0.0,Light Rain with Thunder,False,False,True,False,False,False,False,False,False,False,False,True,False,Day,Day,Day,Day
C-4124706,2,2020-12-03 18:38:00,2020-12-04 19:30:02,40.435963,-79.973934,40.434703000000006,-79.965964,0.428085322941,Roadwork on I-376 eastbound at Exit 72A: FORBES AVE/OAKLAND. There is a lane restriction.,,I-376 E,R,Pittsburgh,Allegheny,PA,15219,US,US/Eastern,KAGC,2020-12-03 18:53:00,36.0,28.0,62.0,28.77,10.0,S,12.0,0.0,Cloudy,False,False,False,False,False,False,False,False,False,False,False,False,False,Night,Night,Night,Night
C-4124707,2,2018-10-15 07:03:59,2018-10-19 07:03:21,33.587790000000005,-117.60902,33.58673,-117.61106,0.138386985623,At CA-241/Foothill Trans Corridor - Construction work.,30044.0,Oso Pkwy,L,Trabuco Canyon,Orange,CA,92679,US,US/Pacific,KSNA,2018-10-15 06:53:00,70.0,,14.0,30.02,10.0,NE,23.0,,Partly Cloudy,False,False,True,False,False,False,False,False,False,False,False,True,False,Day,Day,Day,Day
C-4124708,2,2020-04-23 18:12:06,2020-04-24 06:59:59,41.59223,-93.7977,41.51778,-94.12771,17.8213350027,Between 60th St and CR-P57/Exit 104 - Roadwork. Roadway reduced to 1 lane.,,I-80 W,R,West des Moines,Dallas,IA,50266,US,US/Central,KDSM,2020-04-23 17:54:00,73.0,73.0,38.0,28.6,10.0,SE,9.0,0.0,Mostly Cloudy,False,False,False,False,True,False,False,False,False,False,False,False,False,Day,Day,Day,Day
C-4124709,2,2021-10-27 02:51:00,2021-10-27 03:04:30,33.799147999999995,-97.134793,33.900178000000004,-97.134303,6.98056480462,Slow traffic on I-35 N from OK-153/Exit 5 (I-35) to OK-32/Exit 15 (I-35) due to roadwork.,,I-35 N,R,Thackerville,Love,OK,73459,US,US/Central,KGLE,2021-10-27 02:55:00,72.0,72.0,77.0,28.81,7.0,WNW,21.0,0.0,Rain / Windy,False,False,False,False,False,False,False,False,False,False,False,False,False,Night,Night,Night,Night
C-4124710,2,2017-05-20 07:03:02,2017-05-20 13:03:02,42.02676,-76.38344000000002,42.00002,-76.53229,7.861488775900002,Between CR-509/Stanton Hill Rd/Exit 63 and New York/Pennsylvania St Line - Construction work.,,Southern Tier Expy W,R,Nichols,Tioga,NY,13812,US,US/Eastern,KBGM,2017-05-20 06:53:00,46.9,,80.0,30.26,10.0,NE,6.9,0.0,Overcast,False,False,False,False,True,False,False,False,False,False,False,False,False,Day,Day,Day,Day
C-4124711,2,2020-01-13 07:00:00,2021-12-14 09:35:31,41.720708,-87.704092,41.721715,-87.70181600000002,0.1364473322379999,Stationary traffic on US-12 E - US-20 E from S Sawyer Ave to W 94th St due to roadwork.,3291.0,W 95th St,L,Evergreen Park,Cook,IL,60805-2300,US,US/Central,KMDW,2021-10-05 16:53:00,68.0,68.0,73.0,29.53,10.0,NE,13.0,0.0,Cloudy,False,False,False,False,False,False,False,False,False,False,False,False,False,Night,Day,Day,Day
C-4124712,2,2021-03-04 07:37:30,2021-12-29 09:13:50,34.175382,-118.536007,34.173093,-118.53598999999998,0.158157822838,Stationary traffic from Victory Blvd (Reseda Blvd) to US-101 (Reseda Blvd) due to roadwork.,5725.0,Reseda Blvd,L,Tarzana,Los Angeles,CA,91356-2201,US,US/Pacific,KVNY,2021-03-05 04:51:00,47.0,47.0,74.0,29.3,10.0,CALM,0.0,0.0,Fair,False,False,False,False,False,False,False,False,False,False,False,True,False,Day,Day,Day,Day
C-4124713,2,2020-09-15 20:35:30,2020-09-15 22:48:00,40.398425,-79.770119,40.397279,-79.770154,0.0792024734382,Slow traffic on PA-48 - PA-130 from Broadway / Jewell Way to Wall Ave due to roadwork.,4367.0,Broadway Blvd,L,Monroeville,Allegheny,PA,15146-4238,US,US/Eastern,KAGC,2020-09-15 20:53:00,60.0,60.0,60.0,28.88,10.0,ENE,3.0,0.0,Fair,False,False,False,False,False,False,False,False,False,False,False,False,False,Night,Night,Night,Day
C-4124714,2,2020-04-15 14:00:15,2020-04-19 14:00:00,37.3514,-121.91473,37.34655,-121.92155,0.502609806898,At Coleman Ave - Construction work. Lane closed.,,I-880 N,R,San Jose,Santa Clara,CA,95110,US,US/Pacific,KSJC,2020-04-15 13:53:00,79.0,79.0,20.0,29.97,10.0,N,9.0,0.0,Partly Cloudy,False,False,False,False,False,False,False,False,False,False,False,False,False,Day,Day,Day,Day
C-4124715,3,2018-12-23 16:00:00,2019-07-31 08:01:46,32.22085,-110.773619,32.220944,-110.806759,1.93714154881,Between Houghton Rd and Camino Seco - Roadwork.,10288.0,E Broadway Blvd,R,Tucson,Pima,AZ,85748-3407,US,US/Mountain,KDMA,2018-12-23 15:58:00,74.8,,16.0,30.04,10.0,NNW,6.9,,Clear,False,False,True,False,False,False,False,False,False,False,False,True,False,Day,Day,Day,Day
C-4124716,2,2020-11-15 19:00:00,2021-12-30 19:00:00,36.851541,-80.522269,36.854252,-80.511503,0.623997581856,Stationary traffic on US-221 N - US-221 S from Double Cabin Rd/Indian Valley Rd (Floyd Pike/US-221) to Indian Valley Rd (Floyd Hwy/US-221) due to roadwork.,6757.0,Floyd Hwy S,R,Willis,Floyd,VA,24380-4021,US,US/Eastern,KHLX,2021-06-22 07:55:00,64.0,64.0,96.0,27.07,10.0,CALM,0.0,0.02,Light Rain,False,False,False,False,False,False,False,False,False,False,False,False,False,Night,Night,Night,Night
C-4124717,2,2021-05-01 12:36:30,2021-05-01 13:13:00,33.687633,-112.030109,33.687553,-112.031279,0.0674910298353,Slow traffic from E Sky Crossing Way to N Cave Creek Rd due to roadwork.,2406.0,E Deer Valley Rd,R,Phoenix,Maricopa,AZ,85050,US,US/Mountain,KDVT,2021-05-01 12:53:00,89.0,89.0,14.0,28.27,10.0,S,8.0,0.0,Fair,False,False,True,False,False,False,False,False,False,False,False,True,False,Day,Day,Day,Day
C-4124718,2,2021-02-16 22:38:00,2021-02-17 02:39:09,38.439586,-84.383107,38.43852800000001,-84.389546,0.356055761219,Roadwork on KY-1054 (KY-36) from KY-1032 (KY-36) to KY-36.,6098.0,KY Highway 36 W,L,Cynthiana,Harrison,KY,41031-5506,US,US/Eastern,KIOB,2021-02-16 22:35:00,9.0,9.0,85.0,29.18,10.0,CALM,0.0,0.0,Fair,False,False,False,False,False,False,False,False,False,False,False,False,False,Night,Night,Night,Night
C-4124719,2,2021-09-21 20:00:00,2021-10-21 20:00:00,38.200468,-85.802464,38.20082,-85.80223000000002,0.0274396686901,Lane closed on US-31W N - US-31W S - US-60 W - US-60 E from US-60/7th Street Rd (US-31) to Ralph Ave (US-31) due to roadwork.,3502.0,Dixie Hwy,R,Louisville,Jefferson,KY,40216-5069,US,US/Eastern,KSDF,2021-09-21 19:56:00,77.0,77.0,79.0,29.46,10.0,SE,7.0,0.0,Cloudy,False,False,False,False,False,False,False,False,False,False,False,True,False,Night,Day,Day,Day
C-4124720,4,2021-03-07 04:41:22,2021-03-14 23:59:00,25.751967,-80.376689,25.751953,-80.376689,0.000967307873778,Closed road from SW 17th St to SW 114th Ave due to roadwork.,,SW 18th St,R,Miami,Miami-Dade,FL,33165,US,US/Eastern,KMIA,2021-03-07 04:53:00,64.0,64.0,87.0,29.95,10.0,NNW,6.0,0.0,Mostly Cloudy,False,False,False,False,False,False,False,False,False,False,False,False,False,Night,Night,Night,Night
C-4124721,2,2018-10-26 10:05:23,2018-10-26 16:00:00,40.4189,-74.208412,,,0.0,Right hand shoulder closed due to construction on NJ-36 Northbound at Garden State Pkwy.,,Garden State Pkwy S,R,Hazlet,Monmouth,NJ,07730,US,US/Eastern,KLDJ,2018-10-26 10:15:00,41.9,,65.0,30.16,10.0,Calm,,,Clear,False,False,False,False,False,False,False,False,False,False,False,False,False,Day,Day,Day,Day
C-4124722,2,2021-11-24 13:28:30,2021-12-24 23:07:33,41.720708,-87.704092,41.71986,-87.70188399999998,0.128059688458,Stationary traffic on US-12 E - US-20 E from S Sawyer Ave to W 96th St due to roadwork.,3291.0,W 95th St,L,Evergreen Park,Cook,IL,60805-2300,US,US/Central,KMDW,2021-11-24 13:53:00,53.0,53.0,45.0,29.22,10.0,SSW,22.0,0.0,Mostly Cloudy / Windy,False,False,False,False,False,False,False,False,False,False,False,False,False,Day,Day,Day,Day
C-4124723,4,2017-10-16 15:16:42,2017-10-31 06:03:29,40.218634,-75.150421,40.235006,-75.17737,1.81676181855,Closed at PA-152/Limekiln Pike - Closed due to roadwork.,2099.0,County Line Rd,R,Warrington,Bucks,PA,18976,US,US/Eastern,KDYL,2017-10-16 14:54:00,55.9,,57.0,30.06,10.0,NNW,8.1,,Mostly Cloudy,False,False,False,False,False,False,False,False,False,False,False,True,False,Day,Day,Day,Day
C-4124724,2,2021-12-27 14:10:30,2021-12-28 02:57:31,29.694958000000003,-95.42655,29.695275,-95.426678,0.0232108922384,Roadwork from US-90 Alt/Main St (Buffalo Speedway) to S Braeswood Blvd (Buffalo Speedway).,7955.0,Buffalo Speedway,L,Houston,Harris,TX,77025-2501,US,US/Central,KMCJ,2021-12-27 13:53:00,81.0,81.0,54.0,29.8,10.0,S,16.0,0.0,Cloudy,False,False,True,False,False,False,False,False,False,False,False,True,False,Day,Day,Day,Day
C-4124725,2,2021-03-31 10:06:00,2021-03-31 14:08:00,38.218313,-82.448927,38.218583,-82.44715699999998,0.0978765744846,Stationary traffic on WV-37 - WV-152 from Toms Creek Rd to E Lynn Rd due to roadwork.,4397.0,Route 152 Rd,R,Wayne,Wayne,WV,25570,US,US/Eastern,KHTS,2021-03-31 10:01:00,56.0,56.0,97.0,29.12,1.0,SSW,5.0,0.0,Fog,False,False,False,False,False,False,False,False,False,False,False,False,False,Day,Day,Day,Day
C-4124726,2,2020-10-18 10:49:30,2020-10-19 06:03:06,40.755813,-73.986411,40.754143,-73.982461,0.236758736547,Slow traffic from 7th Ave (W 42nd St) to Park Ave (E 42nd St) due to roadwork.,1464.0,Broadway,R,New York,New York,NY,10036-7305,US,US/Eastern,KNYC,2020-10-18 10:51:00,58.0,58.0,51.0,30.38,10.0,VAR,6.0,0.0,Fair,True,False,True,False,False,False,True,False,True,False,False,True,False,Day,Day,Day,Day
C-4124727,2,2021-10-13 18:11:06,2021-10-13 20:14:22,33.026803,-96.767338,33.026854,-96.770837,0.202724165293,Slow traffic on FM-544 from Promontory Pt to Daybreak Trl due to roadwork.,,Promontory Pt,R,Plano,Collin,TX,75075,US,US/Central,KADS,2021-10-13 17:47:00,75.0,75.0,83.0,29.07,13.0,CALM,0.0,0.0,Mostly Cloudy,False,False,False,False,False,False,False,False,False,False,False,False,False,Day,Day,Day,Day
C-4124728,2,2020-09-08 16:00:00,2020-09-08 16:25:00,41.943337,-80.47896899999998,41.943333,-80.48958499999998,0.54557876922,Stationary traffic on I-90 from US-6N/Exit 3 (I-90) to PA--OH State Border (I-90) due to roadwork.,,I-90 W,R,West Springfield,Erie,PA,16443,US,US/Eastern,KHZY,2020-09-08 15:53:00,83.0,83.0,63.0,29.07,10.0,S,8.0,0.0,Fair,False,False,False,False,True,False,False,False,False,False,False,False,False,Day,Day,Day,Day
C-4124729,2,2021-07-23 18:47:30,2021-07-23 20:59:54,33.508862,-112.23226499999998,33.50878400000001,-112.238716,0.371682150057,Slow traffic from 75th Ave (W Camelback Rd) to 91st Ave (W Camelback Rd) due to roadwork.,8017.0,W Camelback Rd,L,Phoenix,Maricopa,AZ,85033,US,US/Mountain,KGEU,2021-07-23 12:18:00,79.0,79.0,69.0,28.94,10.0,E,8.0,0.0,Partly Cloudy,False,False,False,False,False,False,False,False,False,False,False,False,False,Day,Day,Day,Day
C-4124730,2,2021-09-21 12:40:00,2021-09-21 13:00:00,42.56672,-87.92440400000002,42.566617,-87.91418399999998,0.520110386845,Stationary traffic on WI-50 from I-94/US-41 (75th St/WI-50) to 88th Ave (75th St/WI-50) due to roadwork.,9837.0,75th St,R,Kenosha,Kenosha,WI,53142-7849,US,US/Central,KENW,2021-09-21 12:53:00,65.0,65.0,63.0,29.31,10.0,WNW,10.0,0.0,Cloudy,False,False,False,False,False,False,False,False,False,False,False,True,False,Day,Day,Day,Day
