ID,Severity,Start_Time,End_Time,Start_Lat,Start_Lng,End_Lat,End_Lng,Distance(mi),Description,Number,Street,Side,City,County,State,Zipcode,Country,Timezone,Airport_Code,Weather_Timestamp,Temperature(F),Wind_Chill(F),Humidity(%),Pressure(in),Visibility(mi),Wind_Direction,Wind_Speed(mph),Precipitation(in),Weather_Condition,Amenity,Bump,Crossing,Give_Way,Junction,No_Exit,Railway,Roundabout,Station,Stop,Traffic_Calming,Traffic_Signal,Turning_Loop,Sunrise_Sunset,Civil_Twilight,Nautical_Twilight,Astronomical_Twilight
C-343971,2,2020-10-22 23:33:00.000000000,2020-10-23 00:42:30.000000000,41.021629,-79.401808,41.020419,-79.386488,0.802977737377,Stationary traffic on PA-861 from Smithland Rd (PA-861) to PA-839 (PA-861) due to roadwork.,4498.0,Saint Charles Rd,R,New Bethlehem,Clarion,PA,16242-6630,US,US/Eastern,KDUJ,2020-10-22 23:53:00,64.0,64.0,65.0,28.22,10.0,SSE,6.0,0.0,Fair,False,False,False,False,False,False,False,False,False,False,False,False,False,Night,Night,Night,Night
C-343972,2,2020-09-04 12:59:00.000000000,2020-09-04 17:29:30.000000000,42.105189,-87.786877,42.105752,-87.790244,0.176925820077,Stationary traffic from Old Willow Rd to Martin Ln due to roadwork.,2259.0,Willow Rd,R,Winnetka,Cook,IL,60093,US,US/Central,KPWK,2020-09-04 12:52:00,75.0,75.0,33.0,29.43,10.0,W,12.0,0.0,Fair,False,False,False,False,False,False,False,False,False,False,False,False,False,Day,Day,Day,Day
C-343973,4,2021-05-05 08:00:00.000000000,2021-10-31 23:59:00.000000000,33.057178,-84.279667,33.056493,-84.287821,0.4745581316059999,GA-109 is closed from GA-18 (GA-109) to Collier Ave (GA-109) due to roadwork.,14373.0,GA Highway 109,L,Meansville,Pike,GA,30256,US,US/Eastern,KOPN,2021-05-05 07:55:00,64.0,64.0,94.0,29.13,10.0,WNW,9.0,0.0,Partly Cloudy,False,False,False,False,False,False,False,False,False,False,False,False,False,Day,Day,Day,Day
C-343974,2,2021-10-20 13:29:01.000000000,2021-10-20 16:03:19.000000000,26.652113,-80.203547,26.650667,-80.199787,0.252771772886,Slow traffic on FL-7 - FL-882 - US-441 S from Medical Park Blvd to Olympia Blvd due to roadwork.,1693.0,S State Road 7,L,Wellington,Palm Beach,FL,33414,US,US/Eastern,KPBI,2021-10-20 13:53:00,84.0,84.0,53.0,30.14,10.0,E,16.0,0.0,Partly Cloudy,False,False,False,False,False,False,False,False,False,False,False,False,False,Day,Day,Day,Day
C-343975,2,2019-05-08 06:00:00.000000000,2019-05-08 18:00:00.000000000,39.878337,-105.28113,39.878274,-105.27947,0.0881254856682,At CO-93/Foothills Rd - Construction work.,24985.0,Coal Creek Canyon Dr,R,Golden,Jefferson,CO,80403,US,US/Mountain,KBDU,2019-05-08 05:54:00,43.0,43.0,100.0,24.57,4.0,CALM,0.0,0.0,Cloudy,False,False,False,False,False,False,False,False,False,False,False,False,False,Day,Day,Day,Day
C-343976,3,2018-10-08 21:01:27.000000000,2018-10-12 21:01:27.000000000,39.160166,-84.55155699999997,39.154095,-84.542688,0.633826496931,Between Montana Ave/Exit 17 and I-75/US-27/US-127/Exit 20 - Roadwork.,,I-74 E,R,Cincinnati,Hamilton,OH,45223,US,US/Eastern,KLUK,2018-10-08 20:53:00,73.9,,97.0,30.14,10.0,Calm,,,Clear,False,False,False,False,False,False,False,False,False,False,False,False,False,Night,Night,Night,Night
C-343977,2,2016-05-24 23:00:00.000000000,2016-05-25 08:00:00.000000000,38.160206,-121.261925,,,0.01,Exit ramp closed due to construction on CA-99 Northbound at Woodbridge Rd.,,CA-99 S,R,Acampo,San Joaquin,CA,95220,US,US/Pacific,KSCK,2016-05-24 22:55:00,57.0,,72.0,30.01,10.0,West,13.8,,Clear,False,False,False,False,True,False,False,False,False,False,False,False,False,Night,Night,Night,Night
C-343978,2,2016-10-07 09:00:56.000000000,2016-10-07 15:00:56.000000000,34.1722,-117.27869,34.164970000000004,-117.2787,0.499545750446,At 40th St - Construction work.,4796.0,N Waterman Ave,L,San Bernardino,San Bernardino,CA,92404,US,US/Pacific,KSBD,2016-10-07 08:45:00,73.4,,14.0,29.97,7.0,Calm,,,Clear,False,False,False,False,False,False,False,False,False,False,False,True,False,Day,Day,Day,Day
C-343979,4,2019-09-30 13:03:43.000000000,2019-09-30 18:01:50.000000000,45.56084,-122.56107,45.56086,-122.56373,0.128687187551,Ramp closed to Exit 23B - Closed due to roadwork.,9945.0,NE Sandy Blvd,L,Portland,Multnomah,OR,97220-3300,US,US/Pacific,KPDX,2019-09-30 12:53:00,58.0,58.0,42.0,30.04,10.0,E,12.0,0.0,Fair,False,False,False,False,True,False,False,False,False,False,False,False,False,Day,Day,Day,Day
C-343980,3,2019-12-12 11:40:17.000000000,2019-12-20 23:59:00.000000000,35.84368,-86.48701,35.84295,-86.49486999999998,0.4431076193770001,Between Carol Dr and Hickory Hills Dr - Bridge maintenance work.,5299.0,Franklin Rd,R,Murfreesboro,Rutherford,TN,37128-5578,US,US/Central,KMQY,2019-12-12 11:53:00,51.0,51.0,36.0,29.75,10.0,SE,6.0,0.0,Cloudy,False,False,False,False,False,False,False,False,False,False,False,False,False,Day,Day,Day,Day
C-343981,2,2021-08-08 11:05:30.000000000,2021-08-08 11:26:00.000000000,28.355237,-81.495121,28.358519,-81.497914,0.283304824178,Slow traffic on FL-535 from N Poinciana Blvd (CR-535) to I-4 (CR-535) due to roadwork.,14637.0,State Road 535,L,Orlando,Orange,FL,32821,US,US/Eastern,KMCO,2021-08-08 10:53:00,88.0,88.0,65.0,30.0,10.0,CALM,0.0,0.0,Mostly Cloudy,False,False,False,False,False,False,False,False,False,False,False,False,False,Day,Day,Day,Day
C-343982,4,2020-02-13 17:42:59.000000000,2020-02-13 22:42:15.000000000,42.37896,-83.03341999999998,42.38202,-83.03626,0.256341597379,Closed between Grand Blvd E and Conant St/Le Grand St - Closed due to roadwork. Left lane blocked.,6098.0,Mount Elliott St,R,Detroit,Wayne,MI,48211-2443,US,US/Eastern,KDET,2020-02-13 17:37:00,21.0,11.0,68.0,29.39,7.0,NNW,9.0,0.0,Light Snow,False,False,False,False,False,False,False,False,True,False,False,True,False,Day,Day,Day,Day
C-343983,2,2021-10-09 07:31:00.000000000,2021-10-09 09:54:03.000000000,33.025495,-96.769989,33.02763,-96.769985,0.147514632729,Slow traffic on FM-544 from W 15th St (Coit Rd) to W Parker Rd (Coit Rd) due to roadwork.,1888.0,Coit Rd,R,Plano,Collin,TX,75075-6137,US,US/Central,KADS,2021-10-09 07:47:00,70.0,70.0,73.0,29.29,10.0,S,10.0,0.0,Fair,False,False,False,False,False,False,False,False,False,False,False,False,False,Day,Day,Day,Day
C-343984,2,2021-11-20 09:58:30.000000000,2021-11-20 12:18:34.000000000,32.954390999999994,-96.837762,32.954388,-96.839548,0.10354633526,Stationary traffic from Addison Rd (8th St/Belt Line Rd) to Marsh Ln (8th St/Belt Line Rd) due to roadwork.,4319.0,Belt Line Rd,L,Addison,Dallas,TX,75001-4512,US,US/Central,KADS,2021-11-20 09:49:00,57.0,57.0,63.0,29.46,10.0,S,14.0,0.0,Fair,False,False,False,False,False,False,False,False,False,False,False,False,False,Day,Day,Day,Day
C-343985,2,2016-08-31 08:01:59.000000000,2016-08-31 14:01:59.000000000,38.9151,-75.44514000000002,38.91674,-75.45103,0.336307407097,Between East Ln and Williamsville Rd - Construction work.,704.0,East Ln,L,Milford,Sussex,DE,19963-1029,US,US/Eastern,KDOV,2016-08-31 08:03:00,69.8,,100.0,30.0,0.2,WSW,1.2,,Fog,False,False,False,False,False,False,False,False,False,False,False,False,False,Day,Day,Day,Day
C-343986,2,2021-08-04 18:18:51.000000000,2021-08-04 20:24:06.000000000,27.940087,-82.353307,27.940778,-82.354097,0.0678582047460999,Stationary traffic on US-301 N from Delaney Creek Blvd to Lee Roy Selmon Expy W due to roadwork.,1038.0,S US Highway 301,L,Tampa,Hillsborough,FL,33619-4908,US,US/Eastern,KTPF,2021-08-04 18:15:00,77.0,77.0,100.0,29.99,10.0,S,6.0,0.0,Cloudy,False,False,False,False,False,False,False,False,False,False,False,False,False,Day,Day,Day,Day
C-343987,2,2020-02-13 08:45:30.000000000,2020-02-13 15:01:00.000000000,37.01326,-121.59967,37.01465,-121.57242,1.50645595523,At Monterey Rd - Maintenance work. Lane closed.,,Santa Teresa Blvd,R,Gilroy,Santa Clara,CA,95020,US,US/Pacific,KE16,,,,,,,,,,,False,False,True,False,False,False,False,False,False,False,False,True,False,Day,Day,Day,Day
C-343988,2,2020-12-01 03:16:51.000000000,2020-12-01 15:45:00.000000000,35.120581,-81.57289499999997,35.125007000000004,-81.5625,0.66228258346,Construction on I-85 NB near EXIT 98 Construction. Left lane closed.,,I-85 N,R,Blacksburg,Cherokee,SC,29702,US,US/Eastern,KEHO,2020-12-01 03:15:00,37.0,32.0,57.0,28.91,10.0,W,7.0,0.0,Mostly Cloudy,False,False,False,False,False,False,False,False,False,False,False,False,False,Night,Night,Night,Night
C-343989,4,2021-06-28 00:13:30.000000000,2021-09-17 12:45:00.000000000,42.730476,-89.288212,42.737799,-89.298338,0.721174467706,Construction on WI-213 NB near COUNTY ROAD M Expect delays.,4100.0,N State Road 213,R,Evansville,Rock,WI,53536,US,US/Central,KJVL,2021-06-28 00:15:00,70.0,70.0,88.0,29.19,10.0,CALM,0.0,0.0,Cloudy,False,False,False,False,False,False,False,False,False,False,False,False,False,Night,Night,Night,Night
C-343990,2,2021-01-19 08:01:00.000000000,2021-01-19 12:32:13.000000000,29.763198,-96.188348,29.762367,-96.185078,0.204363382337,Roadwork from Sealy to I-10 E.,3042.0,SW I 10 Frontage Rd,R,Sealy,Austin,TX,77474,US,US/Central,KTME,2021-01-19 07:55:00,63.0,63.0,100.0,29.99,8.0,SSE,7.0,0.0,Mostly Cloudy,False,False,False,False,False,False,False,False,False,False,False,False,False,Day,Day,Day,Day
C-343991,2,2021-02-05 17:19:00.000000000,2021-02-05 18:26:30.000000000,28.405293,-81.829098,28.39771,-81.82719300000002,0.53657560926,Stationary traffic on FL-33 from CR-561 (FL-33) to Bronson Ranch Rd (Commonwealth Ave/FL-33) due to roadwork.,3942.0,State Road 33,R,Clermont,Lake,FL,34714-8668,US,US/Eastern,KISM,2021-02-05 16:56:00,78.0,78.0,43.0,29.82,10.0,SW,12.0,0.0,Fair,False,False,False,False,False,False,False,False,False,False,False,False,False,Day,Day,Day,Day
C-343992,2,2021-12-18 07:01:30.000000000,2021-12-18 07:15:00.000000000,42.242828,-85.565825,42.252308,-85.540655,1.4444030816,Slow traffic on I-94 E - Officer Eric Zapata Memorial Highway E from Portage St/Exit 78 (I-94) to Sprinkle Rd/Exit 80 (I-94) due to roadwork.,,I-94 E,R,Portage,Kalamazoo,MI,49002,US,US/Eastern,KAZO,2021-12-18 06:53:00,33.0,27.0,89.0,29.06,3.0,NE,7.0,0.03,Wintry Mix,False,False,False,False,True,False,False,False,False,False,False,False,False,Night,Night,Day,Day
C-343993,4,2018-10-19 11:51:47.000000000,2018-10-19 15:00:00.000000000,34.07135,-117.86687,34.07135,-117.86687,0.0,At Holt Ave/Exit 38B - Entry ramp closed. Bridge maintenance work.,,I-10 W,R,West Covina,Los Angeles,CA,91791,US,US/Pacific,KPOC,2018-10-19 11:47:00,80.6,,17.0,30.04,10.0,West,9.2,,Clear,False,False,False,False,False,False,False,False,False,False,False,False,False,Day,Day,Day,Day
C-343994,2,2021-09-29 12:59:35.000000000,2021-09-29 13:19:35.000000000,40.75356,-73.904927,40.750624,-73.90610500000003,0.212021624286,Stationary traffic from Northern Blvd to 37th Ave due to roadwork.,3298.0,56th St,R,Woodside,Queens,NY,11377-1917,US,US/Eastern,KLGA,2021-09-29 12:51:00,67.0,67.0,36.0,29.95,10.0,N,10.0,0.0,Fair,True,False,True,False,False,False,False,False,True,True,False,False,False,Day,Day,Day,Day
C-343995,2,2020-07-31 02:00:00.000000000,2020-07-31 13:45:00.000000000,39.631034,-84.19783000000002,39.631259,-84.198533,0.0405106886833,Construction on OH-725 SB near WASHINGTON CHURCH RD Drive with caution.,1581.0,Miamisburg Centerville Rd,R,Dayton,Montgomery,OH,45459-3803,US,US/Eastern,KMGY,2020-07-31 01:53:00,69.0,69.0,87.0,28.81,10.0,NE,8.0,0.0,Cloudy,False,False,False,False,False,False,False,False,False,False,False,True,False,Night,Night,Night,Night
C-343996,2,2020-12-07 08:45:00.000000000,2020-12-07 18:27:35.000000000,38.468894,-77.417096,38.470317,-77.415037,0.148570107396,Roadwork from N Vine Pl / Highpointe Blvd to Garrisonville Rd.,51.0,Mine Rd,R,Stafford,Stafford,VA,22554-7501,US,US/Eastern,KRMN,2020-12-07 08:55:00,35.0,35.0,51.0,29.7,10.0,CALM,0.0,0.0,Cloudy,False,False,False,False,False,False,False,False,False,False,False,False,False,Day,Day,Day,Day
C-343997,2,2021-05-17 18:00:00.000000000,2021-05-18 06:00:00.000000000,37.744506,-97.240644,37.744916,-97.248694,0.440725938901,Lane closed on KS-96 W from Webb Rd (KS-96) to Rock Rd (KS-96) due to roadwork.,,KS-96 W,R,Wichita,Sedgwick,KS,67226,US,US/Central,KAAO,2021-05-17 17:54:00,72.0,72.0,66.0,28.4,10.0,NE,7.0,0.0,Cloudy,False,False,False,False,False,False,False,False,False,False,False,False,False,Day,Day,Day,Day
C-343998,4,2021-04-05 13:22:46.000000000,2021-12-27 12:45:51.000000000,41.045324,-71.950917,41.041826,-71.946837,0.321896975507,County Hwy-49 is closed from Industrial Rd to Elwell St due to roadwork.,193.0,Edgemere St,R,Montauk,Suffolk,NY,11954,US,US/Eastern,KMTP,2021-08-05 04:54:00,65.0,65.0,97.0,30.04,,NE,7.0,0.02,,False,False,False,False,False,False,False,False,False,True,False,False,False,Day,Day,Day,Day
C-343999,2,2021-06-12 05:30:36.000000000,2021-06-12 08:45:00.000000000,38.934248,-94.406515,38.933948,-94.406445,0.0210666839114,Construction on 350 HWY EB near I-470 Construction. Left lane closed.,,MO-350 E,R,Lees Summit,Jackson,MO,64081,US,US/Central,KLXT,2021-06-12 05:53:00,71.0,71.0,93.0,28.87,10.0,WNW,3.0,0.0,Cloudy,False,False,False,False,False,False,False,False,False,False,False,False,False,Night,Day,Day,Day
C-344000,2,2020-10-01 13:00:00.000000000,2020-10-02 00:45:00.000000000,32.837837,-83.621303,32.837798,-83.62125400000002,0.00391826596791,Construction on GA-11 SB near RIVERSIDE DR Construction. Right lane closed.,300.0,Riverside Dr,L,Macon,Macon-Bibb County,GA,31201-3429,US,US/Eastern,KMCN,2020-10-01 12:53:00,80.0,,42.0,29.66,10.0,,,0.0,Fair,False,False,True,False,False,False,False,False,False,False,False,True,False,Day,Day,Day,Day
C-344001,3,2020-07-24 02:17:29.000000000,2020-07-24 06:00:00.000000000,34.06358,-117.817596,,,1.87999999523,Exit ramp from I-10 Eastbound at Exit 41 to Kellogg Dr closed due to paving repairs.,,I-10 E,R,Pomona,Los Angeles,CA,91768,US,US/Pacific,KPOC,2020-07-24 06:47:00,59.0,59.0,88.0,28.89,3.0,CALM,0.0,,Cloudy,False,False,False,False,False,False,False,False,False,False,False,False,False,Night,Night,Night,Night
C-344002,2,2021-03-13 09:56:08.000000000,2021-12-19 02:20:30.000000000,25.925983,-80.158475,25.926649,-80.155963,0.162736236897,Stationary traffic on FL-826 - FL-909 from NE 19th Pl to NE 164th St due to roadwork.,2072.0,NE 163rd St,R,North Miami Beach,Miami-Dade,FL,33162-4902,US,US/Eastern,KHWO,2021-11-18 16:38:00,70.0,70.0,90.0,30.07,5.0,NNW,10.0,0.27,Heavy Rain,False,False,False,False,False,False,False,False,False,False,False,False,False,Day,Day,Day,Day
C-344003,3,2020-02-04 20:00:00.000000000,2020-02-05 04:00:00.000000000,44.35006,-88.19278,,,0.0,Intermittent lane closures due to construction work on I-41 Southbound at Exit 154 CR-U.,,I-41 S,R,De Pere,Outagamie,WI,54115,US,US/Central,KGRB,2020-02-04 19:53:00,21.0,11.0,48.0,29.43,10.0,NNW,8.0,0.0,Fair,False,False,False,False,False,False,False,False,False,False,False,False,False,Night,Night,Night,Night
C-344004,2,2020-06-09 16:02:21.000000000,2020-06-09 18:00:00.000000000,32.5825,-85.01916,32.5825,-85.01916,0.0,At GA-315 - Roadwork. Right lane closed.,2.0,Biggers Rd,R,Columbus,Muscogee,GA,31904,US,US/Eastern,KCSG,2020-06-09 15:51:00,76.0,76.0,85.0,29.53,10.0,E,3.0,0.0,Light Rain,False,False,False,False,False,False,False,False,False,False,False,False,False,Day,Day,Day,Day
C-344005,2,2021-03-01 05:05:30.000000000,2021-03-01 15:53:10.000000000,33.426365999999994,-112.082428,33.429704,-112.082391,0.230643702903,Stationary traffic from W Broadway Rd (S 7th Ave) to I-17/US-60/W Maricopa Fwy (S 7th Ave) due to roadwork.,2314.0,S 7th Ave,R,Phoenix,Maricopa,AZ,85007,US,US/Mountain,KPHX,2021-03-01 04:51:00,45.0,45.0,16.0,29.03,10.0,N,3.0,0.0,Fair,False,False,True,False,False,False,False,False,False,False,False,True,False,Night,Night,Night,Night
C-344006,2,2020-10-28 12:23:30.000000000,2020-10-28 23:36:30.000000000,43.619397,-116.354597,43.606371,-116.354863,0.9001092461920001,Queuing traffic on ID-55 from E Fairview Ave (ID-55) to E Franklin Rd (ID-55) due to roadwork.,3325.0,E Fairview Ave,R,Meridian,Ada,ID,83642-7689,US,US/Mountain,KMAN,2020-10-28 12:15:00,50.0,50.0,47.0,27.63,7.0,CALM,0.0,0.0,Fair,False,False,True,False,False,False,False,False,False,False,False,True,False,Day,Day,Day,Day
C-344007,2,2021-02-18 04:44:00.000000000,2021-02-18 18:40:18.000000000,29.652004,-82.37367900000002,29.652889,-82.372372,0.0994886221041,Stationary traffic on FL-26 - FL-121 at NW 1st Ct due to roadwork.,3426.0,W University Ave,R,Gainesville,Alachua,FL,32607-2403,US,US/Eastern,KGNV,2021-02-18 04:39:00,64.0,64.0,96.0,29.82,0.75,SSE,8.0,0.0,Fog,False,False,True,False,False,False,False,False,False,False,False,False,False,Night,Night,Night,Night
C-344008,2,2021-08-24 09:22:30.000000000,2021-08-24 09:49:30.000000000,40.067252,-75.318549,40.069153,-75.31154599999998,0.392893948382,Stationary traffic on PA-23 from I-476 N to George St due to roadwork.,,Matsonford Rd,R,Conshohocken,Montgomery,PA,19428,US,US/Eastern,KLOM,2021-08-24 09:15:00,79.0,79.0,76.0,29.66,10.0,NNW,6.0,0.0,Fair,False,False,True,False,False,False,False,False,False,True,False,False,False,Day,Day,Day,Day
C-344009,2,2016-06-22 06:39:46.000000000,2016-06-22 18:00:00.000000000,41.35772,-74.69542,41.35343,-74.67873,0.914940309264,Between Pennsylvania/New York St Line and US-6/CR-15/Exit 1 - Construction work.,,I-84 E,R,Matamoras,Pike,PA,18336,US,US/Eastern,KFWN,2016-06-22 06:53:00,55.9,,90.0,29.82,10.0,Calm,,0.0,Clear,False,False,False,False,False,False,False,False,False,False,False,False,False,Day,Day,Day,Day
C-344010,2,2021-06-15 09:20:17.000000000,2021-06-15 11:21:38.000000000,26.682195,-81.897481,26.681167,-81.90150200000002,0.258202090573,Slow traffic on FL-78 - FL-45 - US-41 S from Woodward Ave to Pineapple Ln due to roadwork.,496.0,Pine Island Rd,R,North Fort Myers,Lee,FL,33903-3746,US,US/Eastern,KFMY,2021-06-15 08:53:00,83.0,83.0,79.0,30.01,10.0,WSW,7.0,0.0,Fair,False,False,False,False,False,False,False,False,False,False,False,True,False,Day,Day,Day,Day
C-344011,2,2021-05-12 06:49:30.000000000,2021-05-12 17:06:31.000000000,44.948358,-93.283692,44.948353,-93.272841,0.530618821165,Slow traffic on County Hwy-3 from Lyndale Ave (CR-3) to CR-33 (CR-3) due to roadwork.,351.0,W Lake St,L,Minneapolis,Hennepin,MN,55408,US,US/Central,KMSP,2021-05-12 06:53:00,46.0,46.0,56.0,29.52,10.0,CALM,0.0,0.0,Fair,False,False,True,False,False,False,False,False,True,False,False,True,False,Day,Day,Day,Day
C-344012,2,2021-09-17 12:12:30.000000000,2021-09-17 13:20:30.000000000,41.102677,-81.376357,41.100296,-81.377818,0.181246283049,Stationary traffic on County Hwy-81 - County Hwy-18 from Sunnybrook Rd to I-76 W due to roadwork.,4153.0,Mogadore Rd,L,Kent,Portage,OH,44240-7259,US,US/Eastern,KPOV,2021-09-17 12:15:00,80.0,80.0,60.0,28.92,10.0,W,5.0,0.0,Mostly Cloudy,False,False,False,False,False,False,False,False,False,False,False,False,False,Day,Day,Day,Day
C-344013,2,2021-11-29 06:52:30.000000000,2021-11-29 10:02:07.000000000,25.843969,-80.309167,25.840673,-80.30459,0.364510434312,Stationary traffic on US-27 S - FL-25 from 29th St (US-27) to FL-934/74th St Expy/21st St (US-27) due to roadwork.,2482.0,W Okeechobee Rd,R,Hialeah,Miami-Dade,FL,33010,US,US/Eastern,KMIA,2021-11-29 06:53:00,64.0,64.0,48.0,30.03,10.0,NNW,14.0,0.0,Mostly Cloudy,False,False,False,False,False,False,False,False,False,False,False,False,False,Day,Day,Day,Day
C-344014,2,2020-10-23 13:10:30.000000000,2020-10-24 02:22:13.000000000,26.51455300000001,-80.060087,26.515408,-80.058901,0.0941620506852,Queuing traffic on FL-805 - US-1 N - FL-5 from To Be Determined to Riviera Dr due to resurfacing work.,560.0,E Woolbright Rd,R,Boynton Beach,Palm Beach,FL,33435-6033,US,US/Eastern,KPBI,2020-10-23 12:53:00,82.0,82.0,74.0,29.97,10.0,E,15.0,0.0,Mostly Cloudy,False,False,False,False,False,False,False,False,False,False,False,False,False,Day,Day,Day,Day
C-344015,2,2020-09-25 12:58:00.000000000,2020-09-26 02:36:06.000000000,42.0409,-87.714091,42.040213,-87.710786,0.176109286526,Queuing traffic from Forestview Rd to Main St due to resurfacing work.,3418.0,Dempster St,R,Skokie,Cook,IL,60076-2442,US,US/Central,KORD,2020-09-25 12:51:00,78.0,78.0,43.0,29.23,10.0,S,14.0,0.0,Fair,False,False,False,False,False,False,False,False,False,False,False,False,False,Day,Day,Day,Day
C-344016,2,2020-06-24 08:52:21.000000000,2020-06-25 15:14:59.000000000,41.40853,-73.78678000000002,41.46699,-73.82125,4.41622317571,Between Bryant Pond Rd and RT-301 - Roadwork. Roadway reduced to 1 lane.,,Taconic State Pkwy N,R,Putnam Valley,Putnam,NY,10579,US,US/Eastern,KSWF,2020-06-24 08:45:00,73.0,73.0,94.0,29.19,10.0,W,8.0,0.0,Mostly Cloudy,False,False,False,False,True,False,False,False,False,True,False,False,False,Day,Day,Day,Day
C-344017,2,2021-05-06 09:30:00.000000000,2021-05-06 15:00:00.000000000,38.952723,-77.376354,38.952983,-77.369914,0.346496430618,On VA-267 West at Fairfax County Parkway in the County of Fairfax motorists can expect potential delays in this area from 05/06/21 at 9:30 AM until 05/06/21 at 3:00 PM due to construction activities. The west right shoulder is closed.,,Dulles Access Toll Rd E,R,Reston,Fairfax County,VA,20191,US,US/Eastern,KIAD,2021-05-06 09:52:00,55.0,55.0,47.0,29.75,10.0,NNW,9.0,0.0,Fair,False,False,False,False,False,False,False,False,False,False,False,False,False,Day,Day,Day,Day
C-344018,2,2021-10-25 15:52:39.000000000,2021-10-25 17:54:28.000000000,27.917866,-82.78777600000002,27.914917,-82.787864,0.203827315632,Slow traffic on US-19 Alt S - FL-595 from Golden Gate Dr to US-19 Alt due to roadwork.,125.0,Missouri Ave N,L,Largo,Pinellas,FL,33770-3763,US,US/Eastern,KPIE,2021-10-25 15:53:00,84.0,84.0,79.0,29.86,10.0,W,16.0,0.0,Mostly Cloudy,False,False,False,False,False,False,False,False,True,False,False,False,False,Day,Day,Day,Day
C-344019,2,2020-10-22 21:12:00.000000000,2020-10-22 22:41:30.000000000,40.358694,-79.849287,40.35423400000001,-79.880927,1.69414879014,Stationary traffic on PA-837 from Grant Ave (Duquesne Blvd/PA-837) to New England Rd/Coal Valley Rd (N State St/PA-837) due to roadwork.,1130.0,S Duquesne Ave,R,Duquesne,Allegheny,PA,15110,US,US/Eastern,KAGC,2020-10-22 20:53:00,73.0,73.0,53.0,28.82,,CALM,0.0,0.0,Fair,False,False,False,False,False,False,False,False,False,False,False,False,False,Night,Night,Night,Night
C-344020,2,2021-06-22 16:29:51.000000000,2021-06-22 18:02:51.000000000,30.41348300000001,-91.099257,30.419335,-91.097584,0.416441412161,Stationary traffic on LA-3064 - LA-73 from United Plaza Blvd to Brentwood Dr due to roadwork.,3899.0,Essen Ln,L,Baton Rouge,East Baton Rouge,LA,70809-2139,US,US/Central,KBTR,2021-06-22 16:26:00,87.0,87.0,69.0,29.86,10.0,NW,8.0,0.0,Partly Cloudy,False,False,False,False,False,False,False,False,False,False,False,False,False,Day,Day,Day,Day
C-344021,2,2021-03-19 11:09:32.000000000,2021-03-22 23:59:00.000000000,39.775196,-74.91221999999998,39.764216,-74.91081,0.762332245738,Construction on NJ 73 southbound North of CR 710/Factory Rd/Hayes Mill Rd (Winslow Twp) to South of CR 710/Factory Rd/Hayes Mill Rd (Winslow Twp) Not currently Scheduled,,State Route 73,R,Berlin,Camden,NJ,08009,US,US/Eastern,KVAY,2021-03-19 10:54:00,38.0,28.0,29.0,30.12,10.0,N,18.0,0.0,Fair,False,False,False,False,False,False,False,False,False,False,False,True,False,Day,Day,Day,Day
C-344022,2,2021-08-27 08:41:00.000000000,2021-08-27 17:56:09.000000000,40.244222,-75.627726,40.244735,-75.627195,0.0451727679533,Roadwork on RIDGE PK / MAIN ST / HIGH ST both directions at KEIM ST. There is a traffic disruption.,999.0,E High St,R,Pottstown,Montgomery,PA,19464,US,US/Eastern,KPTW,2021-08-27 08:54:00,77.0,77.0,84.0,29.78,7.0,CALM,0.0,0.0,Fair,False,False,False,False,False,False,False,False,False,False,False,True,False,Day,Day,Day,Day
C-344023,2,2021-04-27 07:00:00.000000000,2021-04-27 16:15:00.000000000,44.073618,-70.132974,44.067838,-70.166374,1.70547183332,Construction on I-95 SB near MM 82 Construction. Right lane closed.,,I-95 S,R,Lewiston,Androscoggin,ME,04240,US,US/Eastern,KLEW,2021-04-27 06:56:00,40.0,37.0,55.0,29.64,10.0,VAR,5.0,0.0,Fair,False,False,False,False,False,False,False,False,False,False,False,False,False,Day,Day,Day,Day
C-344024,2,2021-03-23 09:30:16.000000000,2021-03-24 10:17:52.000000000,38.895313,-76.908957,38.894707,-76.91024499999997,0.0809348300518,Construction on MD-704 SB near FOOTE ST Expect delays.,5740.0,Martin Luther King Jr Hwy,L,Capitol Heights,Prince George's,MD,20743-2160,US,US/Eastern,KWBC,2021-03-23 09:56:00,53.0,53.0,65.0,29.96,10.0,NE,8.0,0.0,Cloudy,False,False,False,False,False,False,False,False,False,False,False,False,False,Day,Day,Day,Day
C-344025,2,2019-11-14 22:12:45.000000000,2019-11-15 06:00:00.000000000,34.98814,-85.20255999999998,34.99511,-85.20721999999998,0.549087404302,Between US-41/US-76/TN-8/Exit 1 and Welcome Center - Construction work. Left lane blocked.,,I-75 S,R,Chattanooga,Hamilton,TN,37412,US,US/Eastern,KCHA,2019-11-14 21:53:00,46.0,46.0,71.0,29.54,10.0,CALM,0.0,0.0,Cloudy,False,False,False,False,False,False,False,False,False,False,False,False,False,Night,Night,Night,Night
C-344026,2,2020-10-31 14:00:00.000000000,2020-11-01 01:00:00.000000000,32.368272999999995,-82.01576700000003,32.369508,-82.016222,0.0893662061497,Lane closed from I-16 E to I-16 W due to roadwork.,,Lake Church Rd,R,Metter,Candler,GA,30439,US,US/Eastern,KCWV,2020-10-31 13:55:00,69.0,69.0,62.0,30.16,7.0,E,13.0,0.0,Cloudy,False,False,False,False,False,False,False,False,False,False,False,False,False,Day,Day,Day,Day
C-344027,2,2020-04-06 03:43:48.000000000,2020-10-21 06:43:00.000000000,43.314274,-123.34731399999998,43.364904,-123.329044,3.61667000977,Road construction is occurring. Use caution. Ramps Affected.,,I-5 N,R,Roseburg,Douglas,OR,97470,US,US/Pacific,KRBG,2020-04-06 03:36:00,46.0,46.0,89.0,29.23,10.0,CALM,0.0,0.0,Cloudy,False,False,False,False,True,False,False,False,False,False,False,False,False,Night,Night,Night,Night
C-344028,2,2021-03-11 09:24:30.000000000,2021-03-11 14:10:09.000000000,32.847515,-83.626654,32.856845,-83.638908,0.95992757276,Slow traffic on GA-540 W - I-16 W - GA-404 W from GA-22/1st St/Exit 1 (I-16) to I-75 (I-16) due to roadwork.,,North Ave,R,Macon,Macon-Bibb County,GA,31217,US,US/Eastern,KMCN,2021-03-11 09:53:00,65.0,65.0,61.0,30.05,10.0,ESE,5.0,0.0,Fair,False,False,False,False,False,False,False,False,False,False,False,False,False,Day,Day,Day,Day
C-344029,2,2021-03-04 08:23:04.000000000,2021-03-04 09:06:08.000000000,33.308712,-93.278029,33.296357,-93.253838,1.63713626648,Slow traffic on US-82 E - US-82 W from S Columbia Road 27 (US-82) to US-371/US-82 Bus/N Vine (US-82) due to roadwork.,5833.0,W Highway 82,L,Waldo,Columbia,AR,71770,US,US/Central,KELD,2021-03-04 08:53:00,53.0,53.0,64.0,29.9,10.0,CALM,0.0,0.0,Fair,False,False,False,False,False,False,False,False,False,False,False,False,False,Day,Day,Day,Day
C-344030,2,2021-08-05 13:26:00.000000000,2021-08-05 13:46:00.000000000,40.323664,-86.12716999999998,40.300973,-86.127116,1.56780136438,Slow traffic on US-31 S from W 550 N (CR-600/US-31) to IN-28/W 200 S (CR-600/US-31) due to roadwork.,1490.0,N US Highway 31,L,Tipton,Tipton,IN,46072-8508,US,US/Central,KOKK,2021-08-05 12:56:00,81.0,81.0,39.0,29.25,10.0,SSE,3.0,0.0,Fair,False,False,False,False,False,False,False,False,False,False,False,False,False,Day,Day,Day,Day
C-344031,2,2019-12-04 06:00:00.000000000,2019-12-04 20:00:00.000000000,36.314869,-88.85237099999998,,,1.10000002384,Entry ramp to Us-45E Eastbound from TN-43 Northbound intermittent ramp closures due to construction work.,,TN-43 E,R,Martin,Weakley,TN,38237,US,US/Central,KUCY,2019-12-04 05:55:00,36.0,36.0,81.0,29.53,10.0,CALM,0.0,0.0,Fair,False,False,False,False,True,False,False,False,False,False,False,False,False,Night,Night,Day,Day
C-344032,2,2020-11-18 14:52:00.000000000,2020-11-18 23:15:30.000000000,33.494937,-112.164577,33.495022,-112.168817,0.244376685061,Stationary traffic from N 43rd Ave (W Indian School Rd) to N 51st Ave (W Indian School Rd) due to roadwork.,4101.0,N 49th Ave,R,Phoenix,Maricopa,AZ,85031-2315,US,US/Mountain,KGEU,2020-11-18 14:58:00,86.0,86.0,12.0,28.78,10.0,SSW,3.0,0.0,Fair,False,False,True,False,False,False,False,False,False,True,False,True,False,Day,Day,Day,Day
C-344033,2,2020-11-11 12:47:30.000000000,2020-11-11 20:38:40.000000000,39.787972,-105.109622,39.782999,-105.10961100000002,0.343602071782,Stationary traffic on CO-391 from W 58th Ave (Kipling St/CO-391) to I-70 (Kipling St/CO-391) due to roadwork.,5027.0,Kipling St,L,Wheat Ridge,Jefferson,CO,80033-2251,US,US/Mountain,KBJC,2020-11-11 12:47:00,46.0,43.0,17.0,24.25,10.0,SSE,7.0,0.0,Fair,False,False,True,False,False,False,False,False,False,False,False,True,False,Day,Day,Day,Day
C-344034,4,2020-10-26 19:00:00.000000000,2020-10-28 05:00:00.000000000,43.423845,-88.33621600000002,43.418855,-88.333559,0.3696616631809999,Ramp Full Closure,105.0,Main St,R,Allenton,Washington,WI,53002,US,US/Central,KETB,2020-10-26 18:55:00,32.0,32.0,80.0,29.34,10.0,CALM,0.0,0.0,Fair,False,False,False,False,True,False,False,False,False,False,False,False,False,Night,Night,Night,Day
C-344035,2,2021-12-18 18:05:00.000000000,2021-12-18 18:27:00.000000000,39.044613,-94.586797,39.04223,-94.586871,0.164697498845,Slow traffic from 39th St (Main St) to W 47th St/Emanuel Cleaver II Blvd (Main St) due to roadwork.,4549.0,Main St,L,Kansas City,Jackson,MO,64111-1815,US,US/Central,KMKC,2021-12-18 17:54:00,29.0,19.0,67.0,29.52,10.0,NNW,13.0,0.0,Cloudy,False,False,True,False,False,False,False,False,False,False,False,True,False,Night,Night,Night,Day
C-344036,2,2021-09-29 09:00:00.000000000,2021-10-01 23:59:59.000000000,39.290979,-76.902507,39.289112,-76.903595,0.141510853863,POLE WORK. HOWARD COUNTY: MD-144 EAST/WEST BETWEEN (CO-70) MARRIOTTSVILLE RD AND (MD-94) WOODBINE RD,11301.0,Judah Way,R,Marriottsville,Howard,MD,21104-1190,US,US/Eastern,KBWI,2021-09-29 08:54:00,61.0,61.0,60.0,29.9,10.0,N,8.0,0.0,Partly Cloudy,False,False,False,False,False,False,False,False,False,False,False,True,False,Day,Day,Day,Day
C-344037,2,2020-02-19 22:30:00.000000000,2020-02-21 05:00:00.000000000,40.73222,-73.92539000000002,40.73175,-73.92571,0.0365411889987,At Apollo St/Meeker Ave/Exit 34 - Construction work. Right lane blocked.,,Brooklyn Queens Expy,R,Maspeth,Queens,NY,11378,US,US/Eastern,KLGA,2020-02-19 22:51:00,34.0,27.0,48.0,30.37,10.0,NNW,9.0,0.0,Fair,False,False,False,False,False,False,False,False,False,False,False,False,False,Night,Night,Night,Night
C-344038,2,2016-10-11 19:51:45.000000000,2016-10-12 05:55:00.000000000,41.32354,-72.32757,41.32642,-72.24804,4.13140936263,Between Lyme St/Exit 70 and Rocky Neck Connector/Exit 72 - Construction work.,,Lyme St,R,Old Lyme,New London,CT,06371,US,US/Eastern,KSNC,2016-10-11 19:55:00,48.2,,87.0,30.43,10.0,Calm,,,Clear,False,False,False,False,False,False,False,False,False,False,False,False,False,Night,Night,Night,Night
C-344039,3,2019-06-25 20:00:00.000000000,2019-06-26 04:00:00.000000000,36.527676,-86.64314300000002,,,8.0,Intermittent lane closures due to paving repairs on I-65 Southbound between Exit 117 TN-52 and Exit 112 TN-25.,,I-65 S,R,Cross Plains,Robertson,TN,37049,US,US/Central,KBNA,2019-06-25 19:53:00,82.0,82.0,51.0,29.41,10.0,W,3.0,0.0,Mostly Cloudy,False,False,False,False,False,False,False,False,False,False,False,False,False,Day,Day,Day,Day
C-344040,2,2021-03-30 07:43:30.000000000,2021-12-31 16:26:00.000000000,40.716072,-74.00470200000002,40.713485,-74.00483,0.178870330616,Stationary traffic from Worth St to Centre St due to roadwork.,329.0,Broadway,L,New York,New York,NY,10007-1116,US,US/Eastern,KJRB,2021-10-28 15:51:00,56.0,56.0,64.0,29.83,10.0,ENE,8.0,0.0,Fair,True,False,True,False,False,False,False,False,True,False,False,True,False,Day,Day,Day,Day
C-344041,2,2020-03-20 08:07:29.000000000,2020-03-21 15:30:00.000000000,42.15048,-75.89685,42.12538,-75.90533,1.7878399050099998,Between US-11/Upper Front St/Exit 6 and US-11/Exit 5 - Maintenance work.,,I-81 S,R,Binghamton,Broome,NY,13905,US,US/Eastern,KBGM,2020-03-20 08:00:00,52.0,52.0,97.0,28.13,9.0,S,12.0,0.0,Mostly Cloudy,False,False,False,False,False,False,False,False,False,False,False,False,False,Day,Day,Day,Day
C-344042,2,2020-09-25 11:59:30.000000000,2020-09-25 17:53:00.000000000,39.917361,-83.011268,39.917441,-83.013269,0.10618216286,Stationary traffic on OH-104 from Haul Rd (Frank Rd/OH-104) to I-71 (Frank Rd/OH-104) due to roadwork.,,Frank Rd,R,Columbus,Franklin,OH,43223,US,US/Eastern,KTZR,2020-09-25 11:50:00,72.0,72.0,60.0,29.04,10.0,SE,6.0,0.0,Fair,False,False,False,False,False,False,False,False,False,False,False,True,False,Day,Day,Day,Day
C-344043,3,2021-10-08 08:00:00.000000000,2021-10-08 15:00:00.000000000,41.681774,-71.121063,,,0.0,Right Breakdown lane closed due to construction work on I-195 Westbound before MA-24.,,MA-24 N,R,Fall River,Bristol,MA,02723,US,US/Eastern,KEWB,2021-10-08 07:53:00,55.0,55.0,100.0,30.05,7.0,CALM,0.0,0.0,Cloudy,False,False,False,False,False,False,False,False,False,False,False,False,False,Day,Day,Day,Day
C-344044,2,2021-11-30 18:34:00.000000000,2021-11-30 20:37:08.000000000,40.719181,-73.999843,40.718973,-74.001287,0.0769716284879,Slow traffic from Howard St to Broadway due to roadwork.,133.0,Lafayette St,R,New York,New York,NY,10013-3122,US,US/Eastern,KJRB,2021-11-30 18:51:00,41.0,38.0,57.0,29.85,10.0,VAR,5.0,0.0,Cloudy,True,False,True,False,False,False,True,False,True,True,False,True,False,Night,Night,Night,Night
C-344045,2,2020-10-30 14:01:00.000000000,2020-10-30 20:46:00.000000000,37.485197,-122.36037,37.410562,-122.306382,5.94664606959,Construction on CA-35 SB near CA-92 Expect delays.,11263.0,Skyline Blvd,L,Redwood City,San Mateo,CA,94062,US,US/Pacific,KSQL,2020-10-30 14:47:00,66.0,66.0,52.0,30.03,10.0,WNW,8.0,0.0,Fair,False,False,False,False,False,False,False,False,False,False,False,False,False,Day,Day,Day,Day
C-344046,2,2021-07-16 23:12:00.000000000,2021-12-09 11:29:58.000000000,32.082783,-81.09814399999998,32.08162,-81.096793,0.112748775377,Slow traffic on GA-25 Conn from US-17 N to W Bryan St due to roadwork.,536.0,W Bay St,R,Savannah,Chatham,GA,31401-1117,US,US/Eastern,KSVN,2021-12-09 08:56:00,51.0,51.0,85.0,30.11,10.0,NE,8.0,0.0,Cloudy,False,False,True,False,False,False,False,False,False,False,False,False,False,Night,Night,Night,Night
C-344047,2,2021-04-08 06:28:30.000000000,2021-04-08 11:25:32.000000000,40.17805300000001,-80.25914,40.180397,-80.262126,0.226000898708,Stationary traffic on PA-18 from W Chestnut St (US-40/W Maiden St/PA-18) to I-70/E Wylie Ave (Jefferson Ave/PA-18) due to roadwork.,698.0,Jefferson Ave,L,Washington,Washington,PA,15301-4119,US,US/Eastern,KAFJ,2021-04-08 06:53:00,61.0,61.0,62.0,28.61,10.0,ESE,6.0,0.0,Fair,False,False,True,False,False,False,False,False,False,True,False,False,False,Night,Day,Day,Day
C-344048,2,2021-12-01 17:06:30.000000000,2021-12-01 17:29:00.000000000,41.612793,-81.52180600000001,41.615267,-81.516586,0.319264010557,Stationary traffic on OH-283 from E 222nd St/Babbitt Rd (Lakeshore Blvd/OH-283) to OH-175/E 260th St (Lakeshore Blvd/OH-283) due to roadwork.,23001.0,Lake Shore Blvd,L,Euclid,Cuyahoga,OH,44123-1324,US,US/Eastern,KCGF,2021-12-01 16:45:00,43.0,38.0,70.0,28.98,10.0,S,8.0,0.0,Light Drizzle,False,False,False,False,False,False,False,False,False,False,False,True,False,Night,Day,Day,Day
C-344049,2,2021-08-16 19:28:28.000000000,2021-11-16 18:05:25.000000000,30.248214,-81.768873,30.248265000000004,-81.762371,0.388097090325,Stationary traffic on FL-134 from CR-213/Old Middleburg Rd (FL-134) to I-295 (FL-134) due to roadwork.,,103rd St,R,Jacksonville,Duval,FL,32210,US,US/Eastern,KNIP,2021-11-16 17:53:00,62.0,62.0,65.0,30.21,10.0,E,6.0,0.0,Fair,False,False,True,False,False,False,False,False,False,False,False,True,False,Day,Day,Day,Day
C-344050,2,2021-03-19 05:21:30.000000000,2021-03-19 20:36:49.000000000,32.841825,-97.337421,32.839389000000004,-97.316354,1.23448980433,Slow traffic on Loop 820 E - I-820 E from Blue Mound Rd/Exit 15 (NE Loop 820/I-820) to I-35W/US-287/Exit 16 (I-820) due to roadwork.,,I-820 E,R,Fort Worth,Tarrant,TX,76106,US,US/Central,KFTW,2021-03-19 04:53:00,40.0,33.0,77.0,29.56,10.0,NW,10.0,0.0,Fair,False,False,False,False,False,False,False,False,False,False,False,False,False,Night,Night,Night,Night
C-344051,2,2016-04-27 20:26:07.000000000,2016-04-28 06:00:00.000000000,40.75315,-74.12691,40.75275,-74.19168,3.39020242766,Between CR-508/Exit 17 and 1st St/6th St/Orange St/Exit 13 - Construction work.,,I-280 W,R,Kearny,Hudson,NJ,07032,US,US/Eastern,KEWR,2016-04-27 20:51:00,55.9,,64.0,29.88,10.0,SW,15.0,,Scattered Clouds,False,False,False,False,False,False,False,False,False,False,False,False,False,Night,Night,Day,Day
C-344052,2,2019-09-17 16:40:00.000000000,2019-09-17 18:42:42.000000000,33.91706,-118.046656,33.91706,-118.046656,0.0,At Carmenita Rd - Lane control signs not working.,,Imperial Hwy,R,Santa Fe Springs,Los Angeles,CA,90670,US,US/Pacific,KFUL,2019-09-17 16:53:00,80.0,80.0,50.0,29.77,10.0,S,8.0,0.0,Fair,False,False,False,False,False,False,False,False,False,False,False,True,False,Day,Day,Day,Day
C-344053,2,2020-12-30 15:19:00.000000000,2020-12-31 02:06:07.000000000,43.604953,-116.35241,43.604037,-116.354845,0.137286112786,Slow traffic on ID-55 from S Brooklyn Ave to E Springwood Dr due to roadwork.,2.0,S Brooklyn Ave,L,Meridian,Ada,ID,83642,US,US/Mountain,KMAN,2020-12-30 15:15:00,32.0,26.0,93.0,27.46,10.0,SSE,7.0,0.0,Cloudy,False,False,True,False,False,False,False,False,False,False,False,False,False,Day,Day,Day,Day
C-344054,2,2021-06-22 15:56:30.000000000,2021-12-14 12:17:13.000000000,40.710519,-73.940306,40.711803,-73.942226,0.134097663199,Slow traffic from Stagg St to Humboldt St due to roadwork.,281.0,Ten Eyck St,L,Brooklyn,Kings,NY,11206-1549,US,US/Eastern,KJRB,2021-08-10 18:51:00,80.0,80.0,79.0,29.93,9.0,SE,3.0,0.0,Fair,True,False,True,False,False,False,False,False,False,False,False,True,False,Day,Day,Day,Day
C-344055,2,2021-08-15 17:20:00.000000000,2021-08-15 17:45:00.000000000,40.253978,-103.811478,40.254019,-103.808688,0.147147390345,Stationary traffic on US-34 W - US-34 E from I-76 Frontage Rd/I-76/US-6/Exit 75 (CO-52/US-34) to Main St (Platte Ave/US-34) due to roadwork.,710.0,W Platte Ave,L,Fort Morgan,Morgan,CO,80701-2929,US,US/Mountain,KFMM,2021-08-15 17:30:00,92.0,92.0,14.0,25.41,10.0,S,3.0,,Fair,False,False,False,False,False,False,False,False,False,False,False,False,False,Day,Day,Day,Day
C-344056,3,2020-06-26 07:00:00.000000000,2020-06-26 19:00:00.000000000,39.952972,-75.134277,,,0.0,Three lanes closed due to construction work on I-676 Eastbound on Benjamin Franklin Brg.,,Benjamin Franklin Brg,R,Philadelphia,Philadelphia,PA,19106,US,US/Eastern,KPHL,2020-06-26 06:54:00,69.0,69.0,75.0,30.0,10.0,W,5.0,0.0,Mostly Cloudy,False,False,False,False,False,False,False,False,False,False,False,False,False,Day,Day,Day,Day
C-344057,2,2019-07-18 00:00:01.000000000,2019-07-19 00:00:01.000000000,37.737929,-104.82973,37.71312,-104.81915,1.8090265536,At Redrock Rd/Exit 56 - Construction work.,,I-25 S,R,Walsenburg,Huerfano,CO,81089,US,US/Mountain,KVTP,,,,,,,,,,,False,False,False,False,True,False,False,False,False,False,False,False,False,Night,Night,Night,Night
C-344058,2,2019-10-25 20:03:10.000000000,2019-10-29 20:02:46.000000000,41.74943,-72.7117,41.75031,-72.71106999999998,0.0689314153395,At New Park Ave - Construction work.,241.0,New Park Ave,R,Hartford,Hartford,CT,06106-2949,US,US/Eastern,KHFD,2019-10-25 19:53:00,56.0,56.0,75.0,30.15,10.0,S,5.0,0.0,Fair,False,False,False,False,False,False,False,False,False,False,False,False,False,Night,Night,Night,Night
C-344059,4,2020-06-12 16:31:30.000000000,2020-08-01 00:45:00.000000000,42.516567,-83.242595,42.5171,-83.22330799999997,0.982924882683,Construction on 13 MILE RD EB near EVERGREEN RD Road closed. Take alternate route.,19999.0,W 13 Mile Rd,L,Southfield,Oakland,MI,48076-1024,US,US/Eastern,KVLL,2020-06-12 16:35:00,70.0,70.0,50.0,29.47,10.0,NW,8.0,0.0,Mostly Cloudy,False,False,True,False,False,False,False,False,False,False,False,True,False,Day,Day,Day,Day
C-344060,2,2020-07-07 01:52:23.000000000,2020-07-07 05:01:00.000000000,37.647369,-121.018707,,,1.89999997616,Exit ramp from CA-99 Southbound at Exit 227 to Kansas Ave closed due to utility work.,,CA-99 S,R,Modesto,Stanislaus,CA,95351,US,US/Pacific,KMOD,2020-07-07 01:53:00,63.0,63.0,50.0,29.78,10.0,NW,6.0,0.0,Fair,False,False,False,False,False,False,False,False,False,False,False,False,False,Night,Night,Night,Night
C-344061,2,2021-12-18 13:12:30.000000000,2021-12-25 14:34:00.000000000,48.468976,-122.335749,48.471762,-122.337871,0.215646392804,Slow traffic on WA-20 from Cedar St to I-5 N / State Route 20 due to roadwork.,854.0,S Burlington Blvd,R,Burlington,Skagit,WA,98233-3308,US,US/Pacific,KBVS,2021-12-18 13:15:00,45.0,45.0,93.0,29.59,10.0,VAR,3.0,0.0,Cloudy,False,False,True,False,False,False,False,False,True,True,False,True,False,Day,Day,Day,Day
C-344062,2,2021-05-18 02:46:00.000000000,2021-05-18 03:14:00.000000000,40.313783,-76.881641,40.326197,-76.890828,0.984844867231,Slow traffic on US-322 W - US-22 W - William Penn Hwy from I-81 (US-22/US-322) to PA-39 (US-22/US-322) due to roadwork.,,US-22 W,R,Harrisburg,Dauphin,PA,17110,US,US/Eastern,KCXY,2021-05-18 02:56:00,51.0,51.0,86.0,29.94,10.0,WSW,3.0,0.0,Fair,False,False,False,False,False,False,False,False,False,False,False,False,False,Night,Night,Night,Night
C-344063,2,2021-11-15 16:40:03.000000000,2021-11-15 18:50:02.000000000,25.840199,-80.303641,25.841275,-80.306562,0.196267041934,Stationary traffic on FL-25 - US-27 N from Fec Railroad to NW South River Dr due to roadwork.,1985.0,W Okeechobee Rd,R,Hialeah,Miami-Dade,FL,33010-2327,US,US/Eastern,KMIA,2021-11-15 16:53:00,75.0,75.0,66.0,30.11,10.0,NE,9.0,0.0,Partly Cloudy,False,False,True,False,False,False,True,False,False,False,False,True,False,Day,Day,Day,Day
C-344064,2,2021-10-19 04:12:56.000000000,2021-10-19 14:00:00.000000000,40.521858,-80.175217,,,4.61999988556,Lane closed due to construction work on PA-51 5th Ave Southbound between Flaugherty Run Rd and Thorn St.,443.0,Thorn St,L,Coraopolis,Allegheny,PA,15108-1547,US,US/Eastern,KPIT,2021-10-19 03:51:00,41.0,41.0,86.0,28.85,10.0,CALM,0.0,0.0,Fair,False,False,False,False,False,False,False,False,False,False,False,False,False,Night,Night,Night,Night
C-344065,2,2021-12-24 11:29:30.000000000,2021-12-24 13:34:14.000000000,45.398889,-122.2744,45.39807800000001,-122.270486,0.197984638972,Slow traffic on US-26 E - US-26 W from University Ave to Hood St due to roadwork.,17242.0,University Ave,R,Sandy,Clackamas,OR,97055-9546,US,US/Pacific,KTTD,2021-12-24 11:53:00,41.0,33.0,79.0,29.32,9.0,SSW,15.0,0.01,Light Rain,False,False,False,False,False,False,False,False,False,False,False,False,False,Day,Day,Day,Day
C-344066,2,2020-07-09 04:19:00.000000000,2020-07-10 08:02:25.000000000,40.016384,-75.175086,40.020249,-75.152893,1.20431075165,Roadwork on US 1 northbound between LC FROM ABBOTTSFORD AV and Exit: US 611 - BROAD ST. There is a lane restriction.,,Roosevelt Expy N,R,Philadelphia,Philadelphia,PA,19129,US,US/Eastern,KLOM,2020-07-09 04:15:00,69.0,69.0,100.0,29.64,2.0,CALM,0.0,0.0,Fog,False,False,False,False,False,False,False,False,False,False,False,False,False,Night,Night,Night,Day
C-344067,2,2020-11-15 13:55:00.000000000,2020-11-15 16:33:00.000000000,41.950875,-122.590137,41.922735,-122.576627,2.06456305908,Stationary traffic on I-5 S from Bailey Hill Rd/Exit 793 (I-5) to Ditch Creek Rd/Hornbrook Rd/Exit 790 (I-5) due to roadwork.,,I-5 S,R,Hornbrook,Siskiyou,CA,96044,US,US/Pacific,KSIY,2020-11-15 13:53:00,48.0,43.0,86.0,27.4,10.0,NNE,10.0,0.02,Light Rain,False,False,False,False,True,False,False,False,False,False,False,False,False,Day,Day,Day,Day
C-344068,2,2021-08-18 16:17:00.000000000,2021-08-18 18:27:02.000000000,40.521326,-104.991816,40.525493,-104.992068,0.288216327732,Slow traffic from exit [265] to I-25 N due to roadwork.,,I-25 N,R,Fort Collins,Larimer,CO,80528,US,US/Mountain,KFNL,2021-08-18 15:56:00,95.0,95.0,19.0,24.84,6.0,CALM,0.0,0.0,Haze,False,False,False,False,False,False,False,False,False,False,False,False,False,Day,Day,Day,Day
C-344069,4,2021-05-12 22:49:38.000000000,2021-05-19 23:59:00.000000000,38.830293,-77.19821800000003,38.830591,-77.19774699999998,0.0326591898558,Closed road at Braddock due to roadwork.,7345.0,Little River Tpke,R,Annandale,Fairfax County,VA,22003-3305,US,US/Eastern,KDAA,2021-05-12 22:56:00,47.0,47.0,81.0,30.15,10.0,CALM,0.0,0.0,Fair,True,False,False,False,False,False,False,False,False,False,False,False,False,Night,Night,Night,Night
C-344070,2,2021-07-26 06:00:00.000000000,2021-10-15 20:00:00.000000000,43.804111,-94.167965,43.812689,-94.16807,0.5927064764450001,Lane closed on US-169 S - US-169 N from MN-109/6th Ave (US-169) to 240th St (US-169) due to roadwork.,21998.0,US Highway 169,R,Winnebago,Faribault,MN,56098,US,US/Central,KFRM,2021-07-26 05:56:00,69.0,69.0,93.0,28.82,10.0,CALM,0.0,0.0,Fair,False,False,False,False,False,False,False,False,False,False,False,False,False,Day,Day,Day,Day
C-344071,2,2018-10-10 10:03:44.000000000,2018-10-14 10:03:25.000000000,40.756407,-73.85226,40.76694000000001,-73.88768,1.99139960608,Between I-678/RT-25/Exit 8/Exit 9 and Ditmars Blvd/Exit 5 - Construction work.,,Grand Central Pkwy W,R,Corona,Queens,NY,11368,US,US/Eastern,KLGA,2018-10-10 09:51:00,75.0,,79.0,30.14,10.0,West,3.5,,Overcast,False,False,False,False,True,False,False,False,False,False,False,True,False,Day,Day,Day,Day
C-344072,4,2020-08-29 04:01:00.000000000,2020-08-29 15:46:00.000000000,37.829428,-122.001326,37.827816,-121.998251,0.2014110502809999,Construction on I-680 SB near EL CERRO BLVD Take alternate route.,,El Cerro Blvd,R,Danville,Contra Costa,CA,94526,US,US/Pacific,KCCR,2020-08-29 03:53:00,60.0,60.0,80.0,29.74,9.0,WNW,7.0,0.0,Smoke,False,False,False,False,True,False,False,False,False,False,False,False,False,Night,Night,Night,Night
C-344073,2,2020-12-11 02:01:30.000000000,2020-12-11 05:24:31.000000000,37.051997,-84.098644,36.976899,-84.111174,5.23462326205,Roadwork on KY-192/Exit 38 (I-75) from US-25/W Cumberland Gap Pkwy/Exit 29 (I-75) to I-75 S.,,I-75 S,R,London,Laurel,KY,40744,US,US/Eastern,KLOZ,2020-12-11 01:53:00,38.0,38.0,83.0,28.79,10.0,CALM,0.0,0.0,Fair,False,False,False,False,False,False,False,False,False,False,False,False,False,Night,Night,Night,Night
C-344074,4,2020-08-29 05:54:30.000000000,2020-09-11 09:52:47.000000000,38.346312,-84.047529,38.336597,-84.058605,0.9004675632539999,Road US-68 is closed from KY-165 (Mount Olivet) (US-68) to KY-36/KY-32/Headquarters Rd (Maysville Rd/US-68) due to roadwork.,4798.0,Maysville Rd,R,Carlisle,Nicholas,KY,40311-8911,US,US/Eastern,KIOB,2020-08-29 05:55:00,70.0,70.0,100.0,28.65,10.0,WNW,6.0,0.0,Cloudy,False,False,False,False,False,False,False,False,False,False,False,False,False,Night,Night,Night,Day
C-344075,2,2021-06-21 17:25:57.000000000,2021-06-21 19:29:25.000000000,25.732228,-80.36914399999998,25.733125,-80.367766,0.105817688706,Slow traffic on FL-976 - FL-985 from SW 109th Ave to SW 38th St due to roadwork.,,SW 40th St,R,Miami,Miami-Dade,FL,33165,US,US/Eastern,KMIA,2021-06-21 17:28:00,88.0,88.0,67.0,30.01,10.0,ESE,15.0,0.0,Mostly Cloudy,False,False,False,False,False,False,False,False,False,False,False,False,False,Day,Day,Day,Day
C-344076,2,2019-10-03 12:29:42.000000000,2019-10-07 12:26:21.000000000,39.645764,-75.797224,39.653539,-75.789301,0.6828215555120001,At Fletchwood Rd - Construction work. Lane blocked.,1466.0,Elkton Rd,L,Elkton,Cecil,MD,21921-4154,US,US/Eastern,KILG,2019-10-03 12:40:00,64.0,64.0,96.0,29.98,5.0,E,9.0,0.0,Cloudy,False,False,False,False,False,False,False,False,False,False,False,True,False,Day,Day,Day,Day
C-344077,2,2016-12-09 20:59:46.000000000,2016-12-12 05:00:00.000000000,38.941622,-94.787185,38.94179000000001,-94.78287,0.232177941624,At Renner Blvd - Construction work.,,KS-10 E,R,Lenexa,Johnson,KS,66219,US,US/Central,KOJC,2016-12-09 20:53:00,25.0,18.1,58.0,30.56,10.0,SSE,5.8,,Overcast,False,False,False,False,False,False,False,False,False,False,False,False,False,Night,Night,Night,Night
C-344078,2,2020-12-15 04:06:30.000000000,2020-12-15 14:45:00.000000000,34.833773,-82.29565500000002,34.842413,-82.28275500000002,0.944216152197,Construction on I-85 NB near EXIT 51B Construction. Right lane closed.,,I-85 N,R,Greenville,Greenville,SC,29615,US,US/Eastern,KGMU,2020-12-15 03:53:00,37.0,32.0,73.0,29.05,10.0,ENE,6.0,0.0,Fair,False,False,False,False,True,False,False,False,False,False,False,False,False,Night,Night,Night,Night
C-344079,2,2020-07-20 14:00:00.000000000,2020-07-22 22:45:00.000000000,41.419016,-73.796297,41.466077,-73.821455,3.50297304665,Construction on TACONIC STATE PKWY NB near PEEKSKILL HOLLOW RD Drive with caution.,,Taconic State Pkwy N,R,Putnam Valley,Putnam,NY,10579,US,US/Eastern,KSWF,2020-07-20 13:45:00,88.0,88.0,58.0,29.33,10.0,WNW,12.0,0.0,Mostly Cloudy,False,False,False,False,False,False,False,False,False,True,False,False,False,Day,Day,Day,Day
C-344080,4,2021-10-16 10:06:30.000000000,2021-10-16 12:09:18.000000000,41.879335,-87.636963,41.87931500000001,-87.63963299999998,0.137361568843,Bridge closure from S Franklin St (W Adams St) to S Canal St (W Adams St).,200.0,S Wacker Dr,R,Chicago,Cook,IL,60606-3916,US,US/Central,KMDW,2021-10-16 09:53:00,52.0,52.0,54.0,29.35,10.0,NW,13.0,0.0,Fair,True,False,True,False,False,False,True,False,True,False,False,True,False,Day,Day,Day,Day
C-344081,2,2017-10-18 09:01:52.000000000,2017-10-18 15:01:52.000000000,27.95638,-82.456329,27.95638,-82.456329,0.0,At I-275/N Orange Ave - Construction work. Lane blocked.,,E Scott St,R,Tampa,Hillsborough,FL,33602,US,US/Eastern,KTPF,2017-10-18 08:55:00,69.8,,100.0,30.09,10.0,NE,12.7,,Overcast,False,False,True,False,False,False,False,False,False,False,False,True,False,Day,Day,Day,Day
C-344083,4,2021-12-10 12:19:00.000000000,2021-12-10 14:20:47.000000000,39.548844,-107.325609,39.561379,-107.295424,1.82641913173,I-70 E - US-6 E is closed from North River Dr/Exit 116 (I-70) to CR-129/No Name Ln/Exit 119 (I-70) due to roadwork.,,I-70 E,R,Glenwood Springs,Garfield,CO,81601,US,US/Mountain,K5SM,2021-12-10 12:15:00,,,,19.93,,,,,Cloudy,False,False,False,False,True,False,False,False,False,False,False,False,False,Day,Day,Day,Day
C-344084,2,2020-08-28 15:41:00.000000000,2020-08-28 16:18:30.000000000,41.948425,-87.723128,41.946489,-87.719748,0.219232035411,Stationary traffic from N Avers Ave to W Addison St due to resurfacing work.,3718.0,N Avondale Ave,L,Chicago,Cook,IL,60618-4021,US,US/Central,KORD,2020-08-28 15:51:00,94.0,94.0,43.0,28.91,10.0,WSW,16.0,0.0,Partly Cloudy,False,False,True,False,False,False,False,False,False,True,False,False,False,Day,Day,Day,Day
C-344085,2,2021-10-07 14:50:00.000000000,2021-10-07 16:57:55.000000000,34.506708,-117.36756499999998,34.506711,-117.363586,0.2265528686589999,Stationary traffic on CA-18 from US-395 (CA-18) to El Evado Rd (CA-18) due to roadwork.,14099.0,Cordley Rd,R,Victorville,San Bernardino,CA,92392,US,US/Pacific,KVCV,2021-10-07 14:45:00,70.0,70.0,43.0,27.01,10.0,S,21.0,0.0,Fair / Windy,False,False,False,False,False,False,False,False,False,False,False,False,False,Day,Day,Day,Day
C-344086,2,2021-06-29 01:26:00.000000000,2021-06-29 01:40:00.000000000,41.982554,-87.79480699999998,41.982462,-87.807965,0.6758317380750001,Slow traffic on I-90 W - Kennedy Expy W from Bryn Mawr Ave/Nagle Ave/Exit 82C (I-90) to IL-43/Harlem Ave (I-90) due to roadwork.,,I-90 W,R,Chicago,Cook,IL,60656,US,US/Central,KORD,2021-06-29 01:51:00,73.0,73.0,87.0,29.4,10.0,SSW,7.0,0.0,Cloudy,False,False,False,False,True,False,False,False,True,False,False,False,False,Night,Night,Night,Night
C-344087,2,2018-12-03 17:30:00.000000000,2018-12-03 19:00:00.000000000,43.26929000000001,-91.47654,43.26928,-91.482267,0.2881245008599999,At Iron Mine Dr - Roadwork.,19.0,W Main St,R,Waukon,Allamakee,IA,52172-1637,US,US/Central,KDEH,2018-12-03 17:35:00,28.4,22.2,86.0,30.19,10.0,North,5.8,,Overcast,False,False,False,False,False,False,False,False,False,False,False,False,False,Night,Night,Day,Day
C-344088,2,2020-10-05 12:37:30.000000000,2020-10-06 00:33:30.000000000,40.709398,-73.92188399999998,40.712448,-73.918534,0.274212229409,Queuing traffic from Bushwick Ave (Flushing Ave) to Metropolitan Ave (Flushing Ave) due to resurfacing work.,1300.0,Flushing Ave,R,Brooklyn,Kings,NY,11237-2303,US,US/Eastern,KJRB,2020-10-05 12:51:00,66.0,66.0,52.0,30.04,10.0,VAR,3.0,0.0,Fair,False,False,False,False,False,False,False,False,False,False,False,True,False,Day,Day,Day,Day
C-344089,2,2018-10-18 23:01:27.000000000,2018-10-22 23:01:09.000000000,40.76198,-74.00108,40.77087,-73.9944,0.706743120338,Between 42nd St and 57th St - Construction work.,,W 42nd St,R,New York,New York,NY,10019,US,US/Eastern,KNYC,2018-10-18 22:51:00,44.1,,53.0,30.35,10.0,North,,,Clear,False,False,True,False,False,False,False,False,False,False,False,True,False,Night,Night,Night,Night
C-344090,2,2021-06-23 14:29:30.000000000,2021-06-23 14:51:30.000000000,33.480302,-112.07089,33.481262,-112.073674,0.173609257457,Slow traffic from N 2nd St to E Catalina Dr / W Catalina Dr due to roadwork.,2904.0,N 2nd St,L,Phoenix,Maricopa,AZ,85012,US,US/Mountain,KPHX,2021-06-23 14:42:00,80.0,80.0,62.0,28.74,10.0,NE,8.0,0.11,Mostly Cloudy,False,False,False,False,False,False,True,False,True,False,False,False,False,Day,Day,Day,Day
C-344091,2,2021-11-29 08:00:00.000000000,2021-12-03 17:00:00.000000000,37.173827,-105.939892,37.173816,-105.943829,0.2167491532,Between Ninth Street and Third Street (Manassa) from Mile Point 2.39 to Mile Point 2.88. Right shoulder closed due to road work. Starting November 29 2021 at 8:00AM MST until December 3 2021 at about 5:00PM MST.Between Third Street and Ninth Street (Manassa) from Mile Point 2.88 to Mile Point 2.39. Right shoulder closed due to road work. Starting November 29 2021 at 8:00AM MST until December 3 2021 at about 5:00PM MST.,605.0,Main St,R,Sanford,Conejos,CO,81151-2020,US,US/Mountain,KALS,2021-11-29 07:52:00,19.0,19.0,59.0,22.99,10.0,CALM,0.0,0.0,Fair,False,False,False,False,False,False,False,False,False,False,False,False,False,Day,Day,Day,Day
C-344092,2,2019-10-17 14:12:59.000000000,2019-10-22 07:00:30.000000000,47.5759,-122.14012,47.57097,-122.14133,0.345268593896,At Newport Way - Construction work. Lane blocked.,,150th Ave SE,R,Bellevue,King,WA,98006,US,US/Pacific,KRNT,2019-10-18 06:53:00,50.0,50.0,74.0,29.86,8.0,S,8.0,0.0,Cloudy,False,False,True,False,False,False,False,False,True,False,False,True,False,Day,Day,Day,Day
C-344093,3,2017-08-27 05:07:47.000000000,2017-09-09 02:01:37.000000000,36.00287,-79.85406,36.05347,-79.6852,10.0624018032,Between I-85-BR/US-29/US-70/Exit 120A and I-840/Exit 131 - Construction work.,,I-85 N,R,Greensboro,Guilford,NC,27407,US,US/Eastern,KGSO,2017-08-27 04:54:00,64.9,,97.0,30.13,10.0,ENE,5.8,,Partly Cloudy,False,False,False,False,True,False,False,False,False,False,False,False,False,Night,Night,Night,Night
C-344094,2,2020-09-29 12:52:30.000000000,2020-09-29 18:19:44.000000000,40.600077,-73.965963,40.597985,-73.96410300000002,0.174397001881,Stationary traffic on Ocean Pkwy from Avenue T to E 7th St due to roadwork.,,Ocean Pkwy,R,Brooklyn,Kings,NY,11223,US,US/Eastern,KJRB,2020-09-29 12:51:00,72.0,72.0,91.0,29.76,6.0,VAR,6.0,0.01,Cloudy,False,False,True,False,False,False,False,False,False,False,False,True,False,Day,Day,Day,Day
C-344095,4,2020-12-01 03:00:00.000000000,2020-12-01 16:45:00.000000000,43.22218400000001,-123.359225,43.22665,-123.359359,0.308644953824,Construction on I-5 NB near MP 125 Use alternate exit ramp.,,I-5 N,R,Roseburg,Douglas,OR,97470,US,US/Pacific,KRBG,2020-12-01 02:53:00,39.0,36.0,93.0,29.94,10.0,N,5.0,0.0,Cloudy,False,False,True,False,False,False,False,False,False,False,False,True,False,Night,Night,Night,Night
C-344096,2,2021-05-11 22:00:00.000000000,2021-05-15 23:59:00.000000000,40.71442,-73.952611,40.71886,-73.94623100000003,0.453589138119,Construction on I-278 eastbound at Manhattan Avenue (New York) Subject to change without notice. Tuesday May 11th 2021 thru Saturday May 15th 2021 Tuesday/Wednesday/Thursday/Friday 10:00 PM thru 12:01 AM 1 Right lane of 4 lanes closed Wednesday May 12th 2021 thru Saturday May 15th 2021 Wednesday/Thursday/Friday/Saturday 12:01 AM thru 05:00 AM 2 Right lanes of 4 lanes closed,,Brooklyn Queens Expy,R,Brooklyn,Kings,NY,11211,US,US/Eastern,KJRB,2021-05-11 21:51:00,57.0,57.0,39.0,29.97,10.0,NW,9.0,0.0,Mostly Cloudy,False,False,True,False,True,False,False,False,False,False,False,False,False,Night,Night,Night,Night
C-344097,2,2020-11-12 05:48:30.000000000,2020-11-12 09:58:51.000000000,29.615954,-98.358203,29.632294,-98.374332,1.48763830682,Roadwork from W Green Mountain Rd to San Antonio North.,,E Evans Rd,R,San Antonio,Bexar,TX,78266,US,US/Central,KRND,2020-11-12 05:56:00,65.0,65.0,86.0,29.15,10.0,CALM,0.0,0.0,Cloudy,False,False,False,False,False,False,False,False,False,False,False,False,False,Night,Night,Night,Day
C-344098,3,2021-05-14 22:00:00.000000000,2021-05-15 00:01:00.000000000,40.714359,-73.952698,,,0.0,Right lane closed due to construction work on I-278 Brooklyn Queens Expy Eastbound at Metropolitan Ave.,,Brooklyn Queens Expy,R,Brooklyn,Kings,NY,11211,US,US/Eastern,KJRB,2021-05-14 21:51:00,66.0,66.0,28.0,30.1,10.0,SW,9.0,0.0,Fair,True,False,True,False,False,False,False,False,False,False,False,False,False,Night,Night,Night,Night
C-344099,2,2019-12-11 22:01:00.000000000,2019-12-12 05:29:00.000000000,34.01639,-118.1733,33.96812,-118.16789,3.3495080442000003,Between Whittier Blvd/Olympic Blvd and Florence Ave - Bridge maintenance work. Lane closed.,,I-710 S,R,Los Angeles,Los Angeles,CA,90040,US,US/Pacific,KCQT,2019-12-11 21:52:00,59.0,59.0,78.0,29.98,10.0,CALM,0.0,0.0,Mostly Cloudy,False,False,False,False,False,False,False,False,False,False,False,False,False,Night,Night,Night,Night
C-344100,2,2020-11-27 06:19:00.000000000,2020-11-27 08:21:30.000000000,34.878383,-98.117598,34.882513,-98.109468,0.54201172053,Stationary traffic on H. E. Bailey Tpke E - I-44 E from Exit 62 (I-44) to Chickasha Toll Plaza (I-44) due to roadwork.,,H. E. Bailey Tpke E,R,Cement,Caddo,OK,73017,US,US/Central,KCHK,2020-11-27 06:15:00,40.0,32.0,88.0,28.85,10.0,NNW,15.0,0.0,Fair,False,False,False,False,False,False,False,False,False,False,False,False,False,Night,Night,Night,Day
C-344102,2,2020-11-14 14:32:30.000000000,2020-11-15 03:45:01.000000000,26.166945,-80.257977,26.167557,-80.25636899999998,0.108310664839,Slow traffic on FL-817 - FL-816 from NW 84th Ter to Equinox Way due to roadwork.,8100.0,W Oakland Park Blvd,R,Sunrise,Broward,FL,33351-6712,US,US/Eastern,KFXE,2020-11-14 14:36:00,82.0,82.0,76.0,29.98,10.0,E,12.0,0.0,Cloudy,False,False,False,False,False,False,False,False,False,False,False,False,False,Day,Day,Day,Day
C-344103,2,2021-09-20 00:00:00.000000000,2021-11-29 17:07:38.000000000,44.8094,-72.078602,44.813346,-72.07731700000002,0.279823781806,Construction on VT-58 NB near VT-5A Allow extra time.,1798.0,Willoughby Lake Rd,R,Orleans,Orleans,VT,05860-9490,US,US/Eastern,KEFK,2021-09-20 00:15:00,45.0,45.0,92.0,29.29,10.0,CALM,0.0,0.0,Fair,False,False,False,False,False,False,False,False,False,False,False,False,False,Night,Night,Night,Night
C-344104,4,2018-03-24 00:30:00.000000000,2018-03-24 01:30:00.000000000,39.683917,-75.502871,39.693694,-75.532092,1.694158949,Closed between Delaware Memorial Brg (North) and Delaware Memorial Brg (South) - Closed. Maintenance work.,,I-295 S,R,Pennsville,Salem,NJ,08070,US,US/Eastern,KILG,2018-03-24 00:51:00,32.0,26.4,64.0,30.16,10.0,NW,5.8,,Clear,False,False,False,False,False,False,False,False,False,False,False,False,False,Night,Night,Night,Night
C-344105,2,2021-11-02 17:11:53.000000000,2021-11-02 19:14:21.000000000,29.726062,-95.349972,29.727663,-95.349294,0.117861639038,Slow traffic from Holman St to Milby St due to roadwork.,3293.0,Scott St,R,Houston,Harris,TX,77204,US,US/Central,KMCJ,2021-11-02 16:53:00,78.0,78.0,56.0,30.09,10.0,ESE,10.0,0.0,Partly Cloudy,False,False,True,False,False,False,True,False,False,False,False,False,False,Day,Day,Day,Day
C-344106,2,2019-03-28 02:54:14.000000000,2019-03-28 05:00:00.000000000,32.77071,-117.163017,,,0.589999973774,Intermittent lane closures due to maintenance work on Friars Rd Westbound between Frazee Rd and Ulric St.,,Friars Rd,R,San Diego,San Diego,CA,92108,US,US/Pacific,KMYF,2019-03-28 02:53:00,59.0,,81.0,30.15,10.0,NNW,5.8,,Overcast,False,False,True,False,False,False,False,False,False,False,False,True,False,Night,Night,Night,Night
C-344107,2,2021-10-19 15:16:30.000000000,2021-10-19 15:44:00.000000000,30.247881,-81.594583,30.244282,-81.600226,0.4186665180089999,Slow traffic on FL-202 W - FL-202 from Belfort Rd (J Turner Butler Blvd/FL-202) to US-1/FL-5/Philips Hwy (J Turner Butler Blvd/FL-202) due to roadwork.,,J Turner Butler Blvd W,R,Jacksonville,Duval,FL,32216,US,US/Eastern,KCRG,2021-10-19 14:53:00,79.0,79.0,52.0,30.15,10.0,E,9.0,0.0,Fair,False,False,True,False,True,False,False,False,False,False,False,True,False,Day,Day,Day,Day
C-344108,2,2021-02-05 11:40:00.000000000,2021-02-06 00:35:25.000000000,25.732167,-80.380358,25.734329,-80.383277,0.235207646532,Slow traffic on FL-976 from SW 114th Ave to SW 36th St due to roadwork.,11427.0,SW 40th St,R,Miami,Miami-Dade,FL,33165-3311,US,US/Eastern,KMIA,2021-02-05 11:53:00,76.0,76.0,56.0,30.03,10.0,SSE,12.0,0.0,Partly Cloudy,False,False,False,False,False,False,False,False,False,False,False,False,False,Day,Day,Day,Day
C-344109,4,2021-12-29 09:30:00.000000000,2021-12-29 11:31:23.000000000,44.658723,-111.099652,44.658683,-111.097333,0.1140044302319999,US-20 W - US-20 E - US-191 N - US-287 S - US-191 S - US-287 N is closed from US-20/Firehole Ave (US-191) to MT--WY State Border (US-191) due to roadwork.,1.0,S Canyon St,R,West Yellowstone,Gallatin,MT,59758,US,US/Mountain,KWEY,,,,,,,,,,,False,False,False,False,False,False,False,False,False,False,False,True,False,Day,Day,Day,Day
C-344110,2,2020-09-08 14:00:00.000000000,2020-09-08 22:45:00.000000000,41.677349,-72.865057,41.66995,-72.838899,1.44354097743,Construction on CT-72 EB near CT-177 Construction. Right lane closed.,,CT-72 E,R,Plainville,Hartford,CT,06062,US,US/Eastern,KMMK,2020-09-08 13:53:00,82.0,82.0,54.0,30.05,10.0,VAR,5.0,0.0,Fair,False,False,False,False,False,False,False,False,False,False,False,False,False,Day,Day,Day,Day
C-344111,2,2020-04-02 10:43:32.000000000,2020-04-03 15:00:00.000000000,39.028,-77.00914,39.0331,-77.00289000000002,0.486516052821,At MD-650/New Hampshire Ave - Roadwork. Right lane closed.,10498.0,Crestmoor Dr,L,Silver Spring,Montgomery,MD,20901-1933,US,US/Eastern,KCGS,2020-04-02 10:46:00,52.0,52.0,31.0,29.86,10.0,NW,15.0,0.0,Fair,False,False,True,False,False,False,False,False,True,False,False,False,False,Day,Day,Day,Day
C-344112,1,2021-08-17 09:00:00.000000000,2021-11-30 17:00:00.000000000,42.273609,-84.414673,,,0.6100000143050001,Road closed due to construction work on Lansing Ave both ways between Royal Dr and Shirley Dr.,500.0,Shirley Dr,R,Jackson,Jackson,MI,49202-1629,US,US/Eastern,KJXN,2021-08-17 08:56:00,65.0,65.0,93.0,29.04,0.25,CALM,0.0,0.0,Fog,False,False,False,False,False,False,False,False,False,False,False,False,False,Day,Day,Day,Day
C-344113,2,2020-09-28 20:02:00.000000000,2020-09-29 01:45:00.000000000,35.436607,-78.535264,35.43445300000001,-78.53370799999998,0.1726918288349999,Construction on I-40 EB near MM 324 Drive with caution.,,I-40 E,R,Benson,Johnston,NC,27504,US,US/Eastern,KHRJ,2020-09-28 19:55:00,71.0,71.0,100.0,29.7,10.0,S,6.0,0.05,Drizzle,False,False,False,False,False,False,False,False,False,False,False,False,False,Night,Night,Night,Day
C-344114,2,2020-10-05 15:22:30.000000000,2020-10-05 22:30:15.000000000,33.639112,-112.220374,33.638117,-112.219346,0.0906815368318999,Stationary traffic from Southeast Mall Dr to N 73rd Ave due to roadwork.,17082.0,N 75th Ave,L,Glendale,Maricopa,AZ,85308,US,US/Mountain,KDVT,2020-10-05 14:53:00,98.0,98.0,7.0,28.33,10.0,SSE,3.0,0.0,Fair,False,False,False,False,False,False,False,False,False,False,False,False,False,Day,Day,Day,Day
C-344115,2,2021-02-04 05:01:00.000000000,2021-02-04 13:46:00.000000000,38.563497,-121.638613,38.54010200000001,-121.735763,5.492656788169999,Lane closure due to Guardrail Repair between Yolo Causeway West (Short Bridge) and Richards Blvd Oc,,I-80 W,R,Davis,Yolo,CA,95618,US,US/Pacific,KEDU,,,,,,,,,,,False,False,False,False,True,False,False,False,False,False,False,False,False,Night,Night,Night,Night
C-344116,2,2020-11-10 19:33:56.000000000,2020-11-10 23:45:00.000000000,40.739987,-73.818793,40.739139,-73.792736,1.36536694822,Construction on I-495 EB near KISSENA BLVD Construction. Left lane closed.,,Long Island Expy E,R,Flushing,Queens,NY,11367,US,US/Eastern,KLGA,2020-11-10 19:51:00,68.0,68.0,70.0,30.11,10.0,SSW,5.0,0.0,Fair,False,False,True,False,True,False,False,False,False,False,False,True,False,Night,Night,Night,Night
C-344117,2,2020-06-19 08:04:09.000000000,2020-06-19 15:59:59.000000000,40.66402,-74.24691999999997,40.65832,-74.28893000000002,2.23679794523,Between RT-439/Elmora Ave and Garden State Pky - Roadwork. Right lane closed.,100.0,Galloping Hill Rd,L,Roselle Park,Union,NJ,07204-2411,US,US/Eastern,KLDJ,2020-06-19 07:55:00,68.0,68.0,88.0,30.14,10.0,CALM,0.0,0.0,Partly Cloudy,False,False,False,False,False,False,False,False,False,False,False,True,False,Day,Day,Day,Day
C-344118,2,2020-10-05 19:37:30.000000000,2020-10-06 00:52:06.000000000,39.688701,-105.025069,39.689482,-105.025666,0.0626053928325,Stationary traffic on CO-88 from W Iowa Ave to S Hazel Ct due to resurfacing work.,1517.0,S Federal Blvd,R,Denver,Denver,CO,80219-4722,US,US/Mountain,KAPA,2020-10-05 19:53:00,65.0,65.0,23.0,24.36,10.0,VAR,3.0,0.0,Fair,False,False,False,False,False,False,False,False,False,False,False,False,False,Night,Night,Night,Day
C-344119,2,2021-11-17 16:15:00.000000000,2021-11-17 16:37:30.000000000,33.494936,-112.162792,33.495022,-112.168817,0.3472075209800001,Stationary traffic from N 43rd Ave (W Indian School Rd) to N 51st Ave (W Indian School Rd) due to roadwork.,,W Indian School Rd,R,Phoenix,Maricopa,AZ,85031,US,US/Mountain,KGEU,2021-11-17 16:08:00,79.0,79.0,16.0,28.79,4.0,CALM,0.0,0.0,Haze,False,False,True,False,False,False,False,False,False,True,False,True,False,Day,Day,Day,Day
C-344120,2,2017-05-28 23:02:40.000000000,2017-05-29 05:02:40.000000000,40.752119,-73.943949,40.752109,-73.943928,0.00129828701651,At 59th St bridge - Construction work.,,Ed Koch Queensboro Brg,R,Long Island City,Queens,NY,11101,US,US/Eastern,KNYC,2017-05-28 22:51:00,62.1,,65.0,29.93,10.0,SE,4.6,,Partly Cloudy,False,False,False,False,False,False,False,False,False,False,False,True,False,Night,Night,Night,Night
C-344121,2,2021-10-30 14:37:00.000000000,2021-10-30 16:41:44.000000000,41.960808,-87.74506600000002,41.959836,-87.74755400000002,0.144397677324,Slow traffic on IL-50 from I-94 E to W Pensacola Ave due to roadwork.,,N Knox Ave,R,Chicago,Cook,IL,60641,US,US/Central,KORD,2021-10-30 14:51:00,59.0,59.0,64.0,28.95,10.0,NNE,12.0,0.0,Partly Cloudy,False,False,True,False,False,False,False,False,True,False,False,True,False,Day,Day,Day,Day
C-344122,2,2021-09-09 14:31:00.000000000,2021-09-09 14:52:05.000000000,42.194628,-83.376581,42.194177,-83.382666,0.313041426803,Stationary traffic from Wayne Rd (Eureka Rd) to Wahrman Rd/Wayne Rd (Eureka Rd) due to roadwork.,34892.0,Eureka Rd,R,Romulus,Wayne,MI,48174-3767,US,US/Eastern,KDTW,2021-09-09 14:53:00,68.0,68.0,56.0,29.27,10.0,NW,9.0,0.0,Mostly Cloudy,False,False,False,False,False,False,False,False,False,False,False,True,False,Day,Day,Day,Day
C-344123,2,2021-10-07 09:39:49.000000000,2021-10-07 11:51:52.000000000,40.712359,-73.993608,40.711679,-73.993234,0.0509030119646,Roving repairs on Manhattan Bridge Upper Level eastbound Manhattan Side (Manhattan) to Brooklyn Side (New York) All lanes open alternate lanes blocked from 10:00 A.M. until 2:00 P.M.,,Manhattan Brg S,R,New York,New York,NY,10002,US,US/Eastern,KJRB,2021-10-07 09:51:00,66.0,66.0,78.0,30.23,10.0,WNW,6.0,0.0,Cloudy,False,False,True,False,False,False,False,False,True,False,False,False,False,Day,Day,Day,Day
C-344124,2,2021-08-28 17:08:07.000000000,2021-08-28 19:10:35.000000000,40.71744,-74.00353199999998,40.715792,-74.003498,0.113879875967,Slow traffic from Canal St to Lafayette St due to roadwork.,62.0,Franklin St,R,New York,New York,NY,10013-3407,US,US/Eastern,KJRB,2021-08-28 16:51:00,72.0,72.0,66.0,30.16,10.0,CALM,0.0,0.0,Cloudy,True,False,True,False,False,False,True,False,True,False,False,True,False,Day,Day,Day,Day
C-344125,2,2021-06-26 12:21:57.000000000,2021-06-26 14:28:13.000000000,26.258109,-80.186273,26.259627,-80.184811,0.138590105857,Slow traffic from NW 22nd St to NW 44th Ave due to roadwork.,2290.0,Lyons Rd,L,Pompano Beach,Broward,FL,33066,US,US/Eastern,KFXE,2021-06-26 11:53:00,87.0,87.0,65.0,30.05,10.0,ESE,15.0,0.0,Partly Cloudy,False,False,False,False,False,False,False,False,False,False,False,False,False,Day,Day,Day,Day
C-344126,2,2021-04-14 13:45:41.000000000,2021-04-16 13:47:14.000000000,40.68639500000001,-73.979231,40.684435,-73.977817,0.154362978513,Slow traffic from Nevins St (Flatbush Ave) to Atlantic Ave (Flatbush Ave) due to roadwork.,,Flatbush Ave,R,Brooklyn,Kings,NY,11217,US,US/Eastern,KJRB,2021-04-14 13:51:00,70.0,,31.0,29.88,10.0,,,0.0,Mostly Cloudy,True,False,False,False,False,False,True,False,True,False,False,False,False,Day,Day,Day,Day
C-344128,3,2019-04-01 04:17:34.000000000,2019-04-01 19:00:00.000000000,32.720787,-83.531212,,,0.0,Right lane closed due to construction work on I-16 Eastbound at Exit 12 Sgoda Rd.,,Sgoda Rd,R,Macon,Twiggs,GA,31217,US,US/Eastern,KMCN,2019-04-01 03:53:00,47.0,42.0,46.0,29.77,10.0,N,10.0,0.0,Fair,False,False,False,False,False,False,False,False,False,False,False,False,False,Night,Night,Night,Night
C-344129,3,2018-02-16 21:25:19.000000000,2018-02-17 03:55:19.000000000,34.19511,-118.33205,34.200774,-118.33826299999998,0.528408500808,At N Victory Pl/N Lincoln St - Roadwork.,,I-5 N,R,Burbank,Los Angeles,CA,91504,US,US/Pacific,KBUR,2018-02-16 21:53:00,57.0,,42.0,30.09,10.0,Calm,,,Clear,False,False,False,False,False,False,False,False,False,False,False,False,False,Night,Night,Night,Night
C-344130,2,2020-08-14 02:01:00.000000000,2020-08-14 13:44:00.000000000,40.58646,-122.39711,40.586444,-122.397174,0.00353544491323,Construction on CA-299 WB near COURT ST Expect delays.,1800.0,Eureka Way,R,Redding,Shasta,CA,96001-0433,US,US/Pacific,KRDD,2020-08-14 01:53:00,78.0,78.0,30.0,29.37,10.0,N,7.0,0.0,Fair,False,False,True,False,False,False,False,False,False,False,False,True,False,Night,Night,Night,Night
C-344131,2,2021-11-29 09:07:30.000000000,2021-11-29 11:11:40.000000000,33.333627,-96.509354,33.344144,-96.528247,1.3104777588299998,Roadwork on TX-121/CR-475 (E FM-455/W FM-455) from TX-5/S Powell Pkwy (E FM-455/S Easton St/W White St/W FM-455) to FM-455.,4840.0,E FM 455,L,Anna,Collin,TX,75409,US,US/Central,KTKI,2021-11-29 08:53:00,52.0,52.0,71.0,29.58,10.0,S,7.0,0.0,Fair,False,False,False,False,False,False,False,False,False,False,False,False,False,Day,Day,Day,Day
C-344132,2,2021-07-08 17:47:28.000000000,2021-07-08 20:18:27.000000000,41.72082,-87.700232,41.721494,-87.70180400000002,0.09349279055,Stationary traffic on US-20 W - US-12 W from S Albany Ave to W 94th St due to roadwork.,3116.0,W 95th St,R,Evergreen Park,Cook,IL,60805-2405,US,US/Central,KMDW,2021-07-08 17:53:00,67.0,67.0,68.0,29.28,10.0,NE,8.0,0.0,Cloudy,False,False,True,False,False,False,True,False,False,False,False,False,False,Day,Day,Day,Day
C-344133,2,2020-09-02 13:42:00.000000000,2020-09-02 17:50:00.000000000,40.661442,-74.26528,40.661715,-74.263273,0.1068692701149999,Stationary traffic on NJ-28 from Garden State Pkwy (North Ave/NJ-28) to Elmora Ave (Westfield Ave/NJ-28) due to roadwork.,28.0,W Westfield Ave,R,Roselle Park,Union,NJ,07204-2249,US,US/Eastern,KLDJ,2020-09-02 13:35:00,81.0,81.0,66.0,29.86,10.0,CALM,0.0,0.0,Cloudy,False,False,False,False,False,False,False,False,False,False,False,False,False,Day,Day,Day,Day
C-344134,2,2021-06-03 10:36:30.000000000,2021-06-03 11:41:30.000000000,41.484375,-114.762356,41.536748,-114.780975,3.74466273749,Slow traffic on US-93 S - US-93 N from 6th St (US-93) to Ace Dr (US-93) due to roadwork.,,US-93 N,R,Montello,Elko,NV,89830,US,US/Pacific,,,,,,,,,,,,False,False,False,False,False,False,False,False,False,False,False,False,False,Day,Day,Day,Day
C-344135,3,2020-02-17 18:00:00.000000000,2020-02-18 07:00:00.000000000,37.509323,-77.274559,,,0.0,Intermittent lane closures due to construction work on I-295 Northbound at Exits 28 28A 28B I-64 Exit 200.,,I-295 N,R,Sandston,Henrico,VA,23150,US,US/Eastern,KRIC,2020-02-17 17:54:00,51.0,51.0,46.0,30.07,10.0,E,5.0,0.0,Mostly Cloudy,False,False,False,False,False,False,False,False,False,False,False,False,False,Night,Day,Day,Day
C-344136,2,2020-06-14 11:49:09.000000000,2020-06-23 11:50:18.000000000,41.07586,-77.56645,41.09106,-77.53389,1.99458672053,At PA-64/N Water St - Roadwork. Lane blocked. Traffic problem.,678.0,Eagle Valley Rd,R,Beech Creek,Clinton,PA,16822-7211,US,US/Eastern,KUNV,2020-06-14 11:53:00,61.0,61.0,55.0,29.01,10.0,NE,6.0,0.0,Partly Cloudy,False,False,False,False,False,False,False,False,False,True,False,False,False,Day,Day,Day,Day
C-344137,2,2020-12-23 14:43:30.000000000,2020-12-23 17:39:30.000000000,30.248028,-90.922522,30.246893,-90.920842,0.127297795743,Slow traffic on LA-44 - US-61 S from Airline Hwy to E Bayou Narcisse St due to roadwork.,1769.0,N Airline Hwy,L,Gonzales,Ascension,LA,70737-2128,US,US/Central,KL38,2020-12-23 14:53:00,72.0,72.0,71.0,29.84,10.0,S,14.0,0.0,Cloudy,False,False,False,False,False,False,False,False,False,False,False,False,False,Day,Day,Day,Day
C-344138,2,2017-04-13 09:29:48.000000000,2017-04-13 15:31:57.000000000,40.25394,-74.85346,40.25693,-74.85545,0.231711166908,At I-95/Delaware Expy - Roadwork. Lane blocked.,,Taylorsville Rd,R,Morrisville,Bucks,PA,19067,US,US/Eastern,KTTN,2017-04-13 09:53:00,51.1,,52.0,30.37,10.0,NNW,10.4,,Clear,False,False,False,False,False,False,False,False,False,False,False,True,False,Day,Day,Day,Day
C-344139,4,2019-04-14 10:57:27.000000000,2019-04-14 17:03:18.000000000,44.55629,-123.26869,44.56471,-123.25221,0.998333712856,Closed between US-20/OR-34/OR-99w and OR-34/Corvallis-Lebanon Hwy - Closed. repairs in progress.,,OR-34 Byp,R,Corvallis,Benton,OR,97333,US,US/Pacific,KCVO,2019-04-14 10:56:00,48.0,48.0,80.0,29.75,10.0,SSE,3.0,0.0,Cloudy,False,False,False,False,False,False,False,False,False,False,False,True,False,Day,Day,Day,Day
C-344140,2,2020-12-14 17:01:00.000000000,2020-12-14 23:46:00.000000000,36.85185900000001,-120.45162,36.854175,-120.453148,0.1809506145499999,Construction on CA-33 NB near SAIPAN Expect delays.,1651.0,N St,R,Firebaugh,Fresno,CA,93622-2448,US,US/Pacific,KMAE,2020-12-14 16:53:00,48.0,44.0,74.0,29.94,10.0,NNW,8.0,0.0,Fair,False,False,True,False,False,False,False,False,False,False,False,False,False,Night,Day,Day,Day
C-344141,4,2020-03-20 13:31:04.000000000,2020-03-24 13:29:46.000000000,38.8738,-76.74852,38.86076,-76.72961,1.35890937013,Closed between Oak Grove Rd and US-301 - Closed due to roadwork.,14749.0,Leeland Rd,R,Upper Marlboro,Prince George's,MD,20774,US,US/Eastern,KADW,2020-03-20 13:36:00,73.0,73.0,65.0,29.66,10.0,SW,14.0,0.0,Fair,False,False,False,False,False,False,False,False,False,False,False,False,False,Day,Day,Day,Day
C-344142,2,2018-02-26 20:02:28.000000000,2018-02-27 05:00:00.000000000,41.725129,-93.57649,41.768447,-93.570101,3.01105562556,Between IA-160/Exit 90 and IA-87/126th Ave/Exit 96 - Construction work. Right lane closed.,,I-35 N,R,Ankeny,Polk,IA,50021,US,US/Central,KIKV,2018-02-26 19:55:00,42.8,38.0,49.0,30.1,10.0,South,8.1,,Clear,False,False,False,False,False,False,False,False,False,False,False,False,False,Night,Night,Night,Night
C-344143,2,2020-09-17 12:40:00.000000000,2020-09-18 01:30:18.000000000,26.273871000000003,-80.18924100000002,26.27503,-80.186258,0.20141507454,Queuing traffic on FL-834 from Fishermans Dr to Coral Tree Ter / Coral Tree Cir due to roadwork.,4758.0,W Sample Rd,R,Pompano Beach,Broward,FL,33063,US,US/Eastern,KFXE,2020-09-17 12:53:00,90.0,90.0,59.0,29.91,10.0,SSE,7.0,0.0,Light Rain,False,False,False,False,False,False,False,False,False,False,False,False,False,Day,Day,Day,Day
C-344144,2,2021-06-09 05:01:30.000000000,2021-06-15 05:28:55.000000000,36.905577,-104.424211,36.992754,-104.480672,6.782360509319999,Roadwork on NM-72/Exit 452 (I-25) from Exit 460 (I-25) to US-85 N - I-25 N - US-87 W.,,I-25 N,R,Raton,Colfax,NM,87740,US,US/Mountain,KRTN,2021-06-09 04:53:00,50.0,50.0,39.0,23.84,10.0,NE,9.0,0.0,Fair,False,False,False,False,True,False,False,False,False,False,False,False,False,Night,Night,Day,Day
C-344145,2,2020-09-18 15:09:00.000000000,2020-09-18 18:33:56.000000000,41.99736,-87.709351,41.99805,-87.711722,0.130748323948,Stationary traffic from N Kedzie Ave to W Pratt Ave due to resurfacing work.,3175.0,W Devon Ave,L,Chicago,Cook,IL,60659-1424,US,US/Central,KORD,2020-09-18 14:51:00,60.0,60.0,42.0,29.63,10.0,NE,10.0,0.0,Partly Cloudy,False,False,True,False,False,False,False,False,True,False,False,True,False,Day,Day,Day,Day
C-344146,2,2021-06-01 06:00:00.000000000,2021-11-30 17:45:00.000000000,41.40770300000001,-81.506138,41.42486,-81.532788,1.81990137824,Construction on I-480 WB near I-271 Allow extra time.,,I-271 N,R,Bedford,Cuyahoga,OH,44146,US,US/Eastern,KBKL,2021-06-01 05:53:00,62.0,62.0,53.0,29.59,10.0,SSE,8.0,0.0,Cloudy,False,False,False,False,False,False,False,False,False,False,False,False,False,Day,Day,Day,Day
C-344147,2,2021-08-28 13:30:30.000000000,2021-08-28 13:43:30.000000000,40.108649,-80.202492,40.116823,-80.203183,0.5659486989220001,Slow traffic on I-79 N from Ten Mile Rd/Exit 23 (I-79) to US-40/Exit 33 (I-79) due to roadwork.,,I-79 N,R,Washington,Washington,PA,15301,US,US/Eastern,KAFJ,2021-08-28 13:53:00,86.0,86.0,59.0,28.92,10.0,WSW,7.0,0.0,Fair,False,False,False,False,False,False,False,False,False,False,False,False,False,Day,Day,Day,Day
C-344148,4,2021-09-02 02:57:15.000000000,2021-09-09 23:59:00.000000000,40.009239,-75.379942,40.014107,-75.373727,0.470426610571,Closed road from Darby Paoli Rd to Abrahams Dr due to roadwork.,692.0,Darby Paoli Rd,R,Newtown Square,Delaware,PA,19073,US,US/Eastern,KOQN,2021-09-02 02:55:00,63.0,63.0,94.0,29.03,10.0,NNW,9.0,0.0,Cloudy,False,False,False,False,False,False,False,False,False,False,False,False,False,Night,Night,Night,Night
C-344149,4,2018-06-28 06:52:44.000000000,2018-07-02 23:59:00.000000000,42.423076,-97.150976,42.42394,-97.116252,1.7720438720599998,Closed at NE-15/NE-14G-LINK/572nd Ave - Closed due to roadwork.,,Highway 20,R,Laurel,Cedar,NE,68745,US,US/Central,KLCG,2018-06-28 06:55:00,69.8,,96.0,29.82,10.0,Calm,,,Clear,False,False,False,False,False,False,False,False,False,False,False,False,False,Day,Day,Day,Day
C-344150,2,2020-05-07 11:09:18.000000000,2020-05-08 15:00:00.000000000,39.0619,-94.49635,39.0619,-94.49635,0.0,At I-435/Exit 8 - Roadwork. Hard shoulder closed.,,I-70 W,R,Kansas City,Jackson,MO,64129,US,US/Central,KMKC,2020-05-07 10:54:00,61.0,61.0,46.0,29.32,10.0,S,5.0,0.0,Fair,False,False,False,False,False,False,False,False,False,False,False,False,False,Day,Day,Day,Day
C-344151,2,2021-09-24 21:31:00.000000000,2021-09-24 23:36:50.000000000,32.952694,-96.838765,32.955321999999995,-96.838671,0.181659272896,Slow traffic from Spring Valley Rd (Midway Rd) to Keller Springs Rd (Midway Rd) due to roadwork.,14958.0,Midway Rd,L,Addison,Dallas,TX,75001-4907,US,US/Central,KADS,2021-09-24 21:47:00,77.0,77.0,36.0,29.35,10.0,ESE,7.0,0.0,Fair,False,False,False,False,False,False,False,False,False,False,False,False,False,Night,Night,Night,Night
C-344152,2,2020-09-04 00:11:12.000000000,2020-09-04 13:15:00.000000000,43.02877700000001,-77.964821,43.047549,-77.65704699999998,15.596703528,Construction on I-90 EB near I-90 Construction. Left lane closed.,,I-90 E,R,Le Roy,Genesee,NY,14482,US,US/Eastern,KROC,2020-09-04 00:54:00,66.0,66.0,96.0,29.16,10.0,WNW,6.0,0.05,Cloudy,False,False,False,False,True,False,False,False,False,False,False,False,False,Night,Night,Night,Night
C-344153,2,2021-03-12 04:20:30.000000000,2021-03-12 17:36:56.000000000,42.01188300000001,-87.709069,42.010832,-87.711505,0.144612050033,Slow traffic from N Kedzie Ave to W Lunt Ave due to roadwork.,7134.0,N Kedzie Ave,L,Skokie,Cook,IL,60076,US,US/Central,KORD,2021-03-12 03:51:00,38.0,33.0,68.0,29.57,10.0,WNW,7.0,0.0,Fair,False,False,False,False,False,False,False,False,True,False,False,True,False,Night,Night,Night,Night
C-344154,3,2020-03-23 01:41:05.000000000,2020-03-27 01:39:18.000000000,32.356120000000004,-86.21718,32.35971,-86.21519,0.273891102404,At I-85/Martin Luther King Jr Expy - Roadwork. Lane blocked.,1677.0,Eastern Blvd,L,Montgomery,Montgomery,AL,36117-1605,US,US/Central,KMXF,2020-03-23 01:41:00,63.0,63.0,88.0,30.0,2.0,SE,7.0,0.0,Fog,False,False,False,False,False,False,False,False,False,False,False,True,False,Night,Night,Night,Night
C-344155,2,2019-08-19 08:30:00.000000000,2019-08-19 15:30:00.000000000,39.816993,-105.16521000000002,39.816545,-105.1652,0.0309584010836,At CR-172/W 64th Ave - Construction work.,6657.0,Indiana St,L,Arvada,Jefferson,CO,80007-7547,US,US/Mountain,KBJC,2019-08-19 08:15:00,75.0,75.0,25.0,24.48,10.0,SSE,5.0,0.0,Partly Cloudy,False,False,False,False,False,False,False,False,False,False,False,False,False,Day,Day,Day,Day
C-344156,4,2019-09-05 20:06:13.000000000,2019-09-07 10:02:44.000000000,42.45736,-83.09822,42.45736,-83.09822,0.0,At John R Rd/Exit 60 - Entry ramp closed. Construction work.,,Chrysler Expy S,R,Hazel Park,Oakland,MI,48030,US,US/Eastern,KDET,2019-09-05 19:53:00,68.0,68.0,56.0,29.41,10.0,SE,3.0,0.0,Fair,False,False,False,False,False,False,False,False,False,False,False,False,False,Night,Day,Day,Day
C-344157,2,2020-04-26 21:00:00.000000000,2020-04-29 06:00:00.000000000,32.83266,-97.20945,32.819340000000004,-97.20595,0.942492496956,At Glenview Dr/Pipeline Rd/Exit 23 - Construction work.,,Loop 820 E,R,North Richland Hills,Tarrant,TX,76180,US,US/Central,KFWD,2020-04-26 20:53:00,72.0,72.0,38.0,29.31,10.0,SE,14.0,0.0,Fair,False,False,False,False,True,False,False,False,False,False,False,False,False,Night,Night,Day,Day
C-344158,2,2021-10-26 03:43:23.000000000,2021-12-24 18:01:25.000000000,29.724706,-95.427724,29.72529500000001,-95.42773,0.040697616471,Roadwork from W Holcombe Blvd (Buffalo Speedway) to Bissonnet St (Buffalo Speedway).,5345.0,Buffalo Speedway,L,Houston,Harris,TX,77005-2121,US,US/Central,KMCJ,2021-10-26 03:37:00,75.0,75.0,90.0,29.87,2.0,S,3.0,0.0,Mist,False,False,False,False,False,False,False,False,False,True,False,True,False,Night,Night,Night,Night
C-344159,2,2018-10-15 07:00:00.000000000,2018-10-16 16:00:00.000000000,41.396815,-83.096889,41.381088,-83.014337,4.415021256419999,At 96.1 - Roadwork.,,Ohio Tpke E,R,Fremont,Sandusky,OH,43420,US,US/Eastern,KPCW,2018-10-15 06:55:00,53.6,,94.0,29.9,10.0,WSW,9.2,,Overcast,False,False,False,False,False,False,False,False,False,False,False,False,False,Night,Night,Day,Day
C-344160,2,2019-05-30 11:17:23.000000000,2019-06-03 11:19:46.000000000,40.31515,-76.92907,40.315768,-76.92746700000002,0.0946324218816,At US-11/US-15/Enola Rd/Exit 65 - Roadwork. Open.,,I-81 N,R,Enola,Cumberland,PA,17025,US,US/Eastern,KCXY,2019-05-30 10:56:00,78.0,78.0,66.0,29.42,10.0,W,9.0,0.0,Partly Cloudy,False,False,False,False,False,False,False,False,False,False,False,False,False,Day,Day,Day,Day
C-344162,2,2019-04-30 08:00:00.000000000,2019-04-30 18:00:00.000000000,27.945021,-82.33503,,,0.0,Intermittent lane closures due to construction work on Horace Ave both ways at Falkenburg Rd.,10100.0,Horace Ave,L,Tampa,Hillsborough,FL,33619-8014,US,US/Eastern,KTPF,2019-04-30 07:55:00,70.0,70.0,94.0,30.16,0.5,CALM,0.0,0.0,Fog,False,False,True,False,False,False,False,False,False,True,False,False,False,Day,Day,Day,Day
C-344163,2,2021-11-22 16:09:08.000000000,2021-11-22 16:30:33.000000000,40.736507,-74.175393,40.735672,-74.172437,0.165161682989,Slow traffic on County Hwy-510 from Springfield Ave (Market St) to Broad St (Market St) due to roadwork.,87.0,Market St,L,Newark,Essex,NJ,07102-1702,US,US/Eastern,KEWR,2021-11-22 16:02:00,48.0,42.0,52.0,29.84,10.0,NW,14.0,0.0,Mostly Cloudy,False,False,False,False,False,False,False,False,False,False,False,True,False,Day,Day,Day,Day
C-344164,2,2019-08-03 08:02:29.000000000,2019-08-09 08:00:51.000000000,37.730344,-122.382876,37.72975,-122.38344,0.0513254678886,At Palou Ave - Construction work.,1401.0,Ingalls St,L,San Francisco,San Francisco,CA,94124-2805,US,US/Pacific,KSFO,2019-08-03 07:56:00,62.0,62.0,80.0,29.96,10.0,WNW,6.0,0.0,Fair,False,False,True,False,False,False,False,False,True,True,False,False,False,Day,Day,Day,Day
C-344166,4,2021-04-27 09:00:00.000000000,2021-04-28 06:00:00.000000000,34.3716,-83.61825999999998,34.371520000000004,-83.60895,0.530971388737,GA-51 is closed from Osprey Roost Dr to Jacks Dr due to roadwork.,4147.0,Highway 51 S,R,Lula,Banks,GA,30554-3960,US,US/Eastern,KGVL,2021-04-27 08:53:00,65.0,65.0,70.0,28.86,10.0,WSW,5.0,0.0,Fair,False,False,False,False,False,False,False,False,False,False,False,False,False,Day,Day,Day,Day
C-344168,2,2021-07-01 16:00:49.000000000,2021-07-01 16:36:00.000000000,40.709394,-73.921898,40.711457,-73.919865,0.177917786734,Stationary traffic from Bushwick Ave (Flushing Ave) to Metropolitan Ave (Flushing Ave) due to roadwork.,1300.0,Flushing Ave,R,Brooklyn,Kings,NY,11237-2303,US,US/Eastern,KJRB,2021-07-01 15:51:00,79.0,79.0,79.0,29.72,10.0,CALM,0.0,0.0,Mostly Cloudy,False,False,False,False,False,False,False,False,True,False,False,True,False,Day,Day,Day,Day
C-344169,3,2019-03-25 19:00:00.000000000,2019-03-26 06:00:00.000000000,31.281605,-97.258858,,,0.0,One lane closed due to construction during the night on I-35 Southbound at Old Blevins.,,I-35 S,R,Eddy,Falls,TX,76524,US,US/Central,KPWG,2019-03-25 18:56:00,71.1,,41.0,30.2,6.0,NNE,10.4,,Haze,False,False,False,False,False,False,False,False,False,False,False,False,False,Day,Day,Day,Day
C-344170,2,2019-02-12 08:02:32.000000000,2019-02-16 08:02:02.000000000,40.323056,-74.061538,40.32391,-74.06148,0.0590848269321,At CR-13A/Sycamore Ave - Construction work. Right lane blocked.,910.0,Broad St,L,Shrewsbury,Monmouth,NJ,07702-4346,US,US/Eastern,KBLM,2019-02-12 07:56:00,33.1,22.2,78.0,30.33,8.0,ENE,17.3,0.0,Light Rain,False,False,False,False,False,False,False,False,False,False,False,True,False,Day,Day,Day,Day
C-344171,2,2020-10-25 07:46:00.000000000,2020-10-25 23:55:00.000000000,40.476604,-104.99201399999998,40.441314,-104.992374,2.43838022313,Slow traffic on I-25 from CO-392/Exit 262 (I-25) to Crossroads Blvd/Exit 259 (I-25) due to roadwork.,,I-25 S,R,Fort Collins,Larimer,CO,80528,US,US/Mountain,KFNL,2020-10-25 07:56:00,14.0,-2.0,84.0,25.12,2.0,N,16.0,0.0,Light Snow,False,False,False,False,False,False,False,False,False,False,False,False,False,Day,Day,Day,Day
C-344172,3,2020-10-21 23:00:00.000000000,2020-10-22 05:00:00.000000000,42.941608,-85.677818,,,0.0,Road closed intermittently due to utility work on US-131 Southbound at Exit 83A Shamrock/Hall Conn.,,US-131 S,R,Grand Rapids,Kent,MI,49507,US,US/Eastern,KGRR,2020-10-21 22:53:00,47.0,43.0,90.0,29.22,10.0,E,8.0,0.02,Cloudy,False,False,False,False,False,False,False,False,False,False,False,False,False,Night,Night,Night,Night
C-344173,4,2020-10-06 13:29:21.000000000,2020-12-08 07:59:00.000000000,28.532911,-81.384863,28.53288400000001,-81.386718,0.112616809031,Closed road from I-4 W / S Division Ave to Conley St / Avondale Ave due to roadwork.,501.0,Callahan Dr,L,Orlando,Orange,FL,32805,US,US/Eastern,KORL,2020-10-06 13:53:00,91.0,91.0,59.0,29.84,10.0,ENE,14.0,0.0,Cloudy,False,False,False,False,False,False,False,False,False,False,False,False,False,Day,Day,Day,Day
C-344174,4,2021-06-22 04:20:30.000000000,2021-06-28 09:51:27.000000000,40.678504,-73.989962,40.677845,-73.98826600000002,0.0998545798665,Bridge closure from Bond St to Nevins St.,,Carroll St,R,Brooklyn,Kings,NY,11231,US,US/Eastern,KJRB,2021-06-22 03:51:00,73.0,73.0,84.0,29.53,10.0,VAR,3.0,0.01,Fair,False,False,False,False,False,False,False,False,False,True,False,False,False,Night,Night,Day,Day
C-344175,2,2021-08-31 09:14:30.000000000,2021-08-31 11:31:04.000000000,33.480218,-112.044922,33.478859,-112.04765,0.183120067195,Slow traffic from Piestewa Fwy S to E Windsor Ave due to roadwork.,1731.0,E Thomas Rd,R,Phoenix,Maricopa,AZ,85016-7603,US,US/Mountain,KPHX,2021-08-31 08:51:00,85.0,85.0,53.0,28.56,10.0,WNW,9.0,0.0,Mostly Cloudy,False,False,False,False,False,False,False,False,False,False,False,False,False,Day,Day,Day,Day
C-344176,2,2021-11-23 14:49:26.000000000,2021-11-23 17:04:17.000000000,28.595688,-81.365115,28.593046,-81.36449499999998,0.186379573932,Stationary traffic on US-92 E - FL-424A - US-17 N - FL-426 - US-92 W - US-17 S from N Orlando Ave to Ward Ave due to roadwork.,1200.0,Fairview Ave,L,Winter Park,Orange,FL,32789-3645,US,US/Eastern,KORL,2021-11-23 14:53:00,66.0,66.0,36.0,29.97,10.0,NNE,14.0,0.0,Fair,False,False,True,False,False,False,False,False,False,False,False,False,False,Day,Day,Day,Day
C-344177,2,2021-05-22 02:26:09.000000000,2021-12-30 14:37:25.000000000,32.933454,-97.31318,32.933368,-97.315597,0.140288482603,Slow traffic on FM-1709 from Alta Vista Rd (Golden Triangle Blvd) to I-35W/North Fwy (Golden Triangle Blvd) due to roadwork.,3137.0,Golden Triangle Blvd,R,Fort Worth,Tarrant,TX,76177,US,US/Central,KAFW,2021-12-30 11:53:00,69.0,69.0,25.0,29.15,10.0,W,8.0,0.0,Partly Cloudy,False,False,False,False,False,False,False,False,False,False,False,False,False,Night,Night,Night,Night
C-344178,2,2021-09-23 15:26:32.000000000,2021-09-23 17:34:47.000000000,27.91572,-82.796442,27.916664,-82.795813,0.0756898030229999,Slow traffic on FL-686 from Cleveland Ave to Ridge Rd SW due to roadwork.,152.0,Clearwater Largo Rd S,L,Largo,Pinellas,FL,33770-3233,US,US/Eastern,KPIE,2021-09-23 15:53:00,86.0,86.0,63.0,29.86,10.0,CALM,0.0,0.0,Cloudy,False,False,False,False,False,False,False,False,True,False,False,False,False,Day,Day,Day,Day
C-344179,2,2021-10-10 05:30:28.000000000,2021-10-10 08:26:55.000000000,46.050581,-96.358848,46.183993,-96.488131,11.1044848928,Construction on MN-9 NB near 5TH ST Allow extra time.,,MN-9,R,Nashua,Wilkin,MN,56565,US,US/Central,KY63,2021-10-10 05:35:00,55.0,55.0,100.0,28.2,10.0,SSE,12.0,0.0,Light Rain,False,False,False,False,False,False,False,False,False,False,False,False,False,Night,Night,Night,Night
C-344180,2,2017-01-23 07:01:53.000000000,2017-01-23 13:01:53.000000000,32.645596000000005,-116.105632,32.70662,-116.36435,15.6262140002,Between In-Ko-Pah Park Rd and Crestwood Rd - Construction work.,,I-8 W,R,Ocotillo,Imperial,CA,92259,US,US/Pacific,KNJK,2017-01-23 06:56:00,55.9,,57.0,29.96,10.0,West,27.6,,Scattered Clouds,False,False,False,False,False,False,False,False,False,False,False,False,False,Day,Day,Day,Day
C-344181,4,2021-11-29 19:38:54.000000000,2021-12-03 23:59:00.000000000,40.008692,-105.276826,40.008694,-105.27622,0.0320709637645,Closed road from 12th St to Broadway St due to roadwork.,1247.0,Pennsylvania Ave,L,Boulder,Boulder,CO,80302-7022,US,US/Mountain,KBDU,2021-11-29 19:35:00,52.0,52.0,38.0,24.76,10.0,WSW,3.0,0.0,Fair,True,False,False,False,False,False,False,False,False,False,False,False,False,Night,Night,Night,Night
C-344182,2,2020-04-22 08:04:23.000000000,2020-04-27 08:03:18.000000000,47.647872,-121.914299,47.647872,-121.914299,0.0,At Entwistle St - Construction work. Lane blocked.,31800.0,E Entwistle St,L,Carnation,King,WA,98014,US,US/Pacific,KRNT,2020-04-22 07:53:00,50.0,50.0,86.0,30.11,10.0,CALM,0.0,0.0,Cloudy,False,False,True,False,False,False,False,False,False,False,False,False,False,Day,Day,Day,Day
C-344183,2,2020-11-05 16:01:00.000000000,2020-11-06 00:46:00.000000000,37.020263,-120.836472,37.001953,-120.837043,1.26549269927,Construction on CA-165 SB near COPA DE ORO RD Expect long delays.,18499.0,S Mercey Springs Rd,L,Los Banos,Merced,CA,93635-9547,US,US/Pacific,KMCE,2020-11-05 15:53:00,76.0,76.0,32.0,29.81,10.0,CALM,0.0,0.0,Fair,False,False,False,False,False,False,False,False,False,False,False,False,False,Day,Day,Day,Day
C-344184,2,2021-11-17 08:24:30.000000000,2021-11-17 10:35:38.000000000,25.747513,-80.33807900000002,25.748123,-80.335622,0.158609928218,Slow traffic on County Hwy-913 - FL-973 - FL-972 from SW 89th Ave to SW 21st St / SW 21st Ter due to roadwork.,8818.0,SW 24th St,L,Miami,Miami-Dade,FL,33165-2008,US,US/Eastern,KMIA,2021-11-17 08:53:00,78.0,78.0,66.0,30.18,10.0,E,13.0,0.0,Mostly Cloudy,True,False,True,False,False,False,False,False,False,False,False,False,False,Day,Day,Day,Day
C-344185,2,2021-11-06 18:11:30.000000000,2021-11-06 20:21:39.000000000,25.928826,-80.153093,25.925974,-80.153147,0.1970829998759999,Slow traffic on FL-826 - US-1 S - FL-5 from US-1 to NE 26th Ave due to roadwork.,,Biscayne Blvd,R,North Miami Beach,Miami-Dade,FL,33160,US,US/Eastern,KHWO,2021-11-06 17:53:00,71.0,71.0,66.0,29.91,10.0,W,16.0,0.0,Mostly Cloudy,False,False,False,False,False,False,False,False,True,False,False,False,False,Day,Day,Day,Day
C-344186,2,2020-09-29 15:40:00.000000000,2020-09-29 23:38:34.000000000,35.19762,-111.649567,35.198606,-111.65113999999998,0.111932321499,Stationary traffic lane closed on US-180 from Enterprise Rd (I-40 Bus/US-89/E Santa Fe Ave/US-180) to W Columbus Ave (N Humphreys St/US-180) due to roadwork.,33.0,W Route 66,L,Flagstaff,Coconino,AZ,86001,US,US/Mountain,KFLG,2020-09-29 15:57:00,75.0,,9.0,23.43,10.0,,,0.0,Fair,False,False,False,False,False,False,False,False,False,False,False,False,False,Day,Day,Day,Day
C-344187,2,2019-03-27 10:03:29.000000000,2019-04-02 10:02:12.000000000,40.64074,-74.41650899999998,40.5759,-74.56527,8.997739653250001,Between North Dr and I-287 - Roadwork. Lane blocked.,,US Highway 22,R,Plainfield,Somerset,NJ,07062,US,US/Eastern,KLDJ,2019-03-28 09:55:00,42.1,37.7,61.0,30.47,10.0,SSW,6.9,,Clear,False,False,False,False,False,False,False,False,False,False,False,False,False,Day,Day,Day,Day
C-344188,2,2021-12-09 17:57:34.000000000,2021-12-09 20:13:55.000000000,28.387537,-81.506474,28.384762,-81.50609,0.193149830238,Slow traffic on FL-535 - County Hwy-435 from Vinings Way Blvd to Hotel Plaza Blvd due to roadwork.,12202.0,S Apopka Vineland Rd,L,Orlando,Orange,FL,32836-6803,US,US/Eastern,KISM,2021-12-09 17:56:00,76.0,76.0,71.0,30.04,10.0,NE,5.0,0.0,Fair,False,False,True,False,False,False,False,False,False,False,False,False,False,Night,Night,Day,Day
C-344189,2,2021-10-04 12:19:00.000000000,2021-10-09 01:59:50.000000000,28.771991,-98.984644,28.784342,-98.970348,1.2156431292399998,Roadwork on FM-1582 (TX-85) from CR-3501/Keystone Rd (TX-85) to TX-85.,,E State Highway 85,R,Pearsall,Frio,TX,78061,US,US/Central,KCOT,2021-10-04 11:53:00,92.0,92.0,45.0,29.55,10.0,NE,8.0,0.0,Partly Cloudy,False,False,False,False,False,False,False,False,False,True,False,False,False,Day,Day,Day,Day
C-344190,2,2021-05-04 05:59:14.000000000,2021-12-22 14:42:37.000000000,33.393399,-111.801308,33.393349,-111.806043,0.273169278596,Slow traffic from S Gilbert Rd (E Southern Ave) to S Mesa Dr (E Southern Ave) due to roadwork.,1409.0,E Southern Ave,R,Mesa,Maricopa,AZ,85204,US,US/Mountain,KFFZ,2021-05-19 06:51:00,74.0,74.0,32.0,28.59,10.0,E,6.0,0.0,Fair,False,False,False,False,False,False,False,False,True,False,False,False,False,Day,Day,Day,Day
C-344191,2,2020-07-22 00:05:00.000000000,2020-07-23 02:30:35.000000000,39.967696,-75.335444,39.872666,-75.349791,6.6098150033300005,Construction on I-476 SB near MP 7 Allow extra time.,,I-476 S,R,Broomall,Delaware,PA,19008,US,US/Eastern,KPHL,2020-07-22 00:54:00,77.0,77.0,79.0,30.01,10.0,E,6.0,0.0,Cloudy,False,False,False,False,False,False,False,False,False,False,False,False,False,Night,Night,Night,Night
C-344192,2,2019-04-24 07:20:11.000000000,2019-04-28 07:22:20.000000000,40.62901,-79.73501,40.666838,-79.715661,2.80359069185,Between PA-366/Exit 14 and Route 908/Exit 16 - Roadwork. Lane blocked.,,PA-28 N,R,Natrona Heights,Allegheny,PA,15065,US,US/Eastern,KBTP,2019-04-24 07:56:00,45.0,43.0,74.0,28.63,10.0,WNW,5.0,0.0,Cloudy,False,False,False,False,True,False,False,False,False,False,False,False,False,Day,Day,Day,Day
C-344193,2,2021-06-10 08:43:00.000000000,2021-06-10 10:58:55.000000000,25.734578,-80.265676,25.734251,-80.26207099999998,0.225511601153,Slow traffic on FL-976 - FL-953 from Segovia St to Altara Ave due to roadwork.,576.0,Bird Rd,L,Coral Gables,Miami-Dade,FL,33146-1308,US,US/Eastern,KMIA,2021-06-10 08:53:00,85.0,85.0,67.0,30.08,10.0,ESE,14.0,0.0,Partly Cloudy,False,False,False,False,False,False,False,False,True,False,False,False,False,Day,Day,Day,Day
C-344194,2,2021-08-06 08:39:00.000000000,2021-08-06 09:01:00.000000000,45.577002,-117.987079,45.56707,-117.972979,0.967467893569,Slow traffic on OR-204 from NF-3727/NF-021 (OR-204) to OR-82/8th Ave (Division St/OR-204) due to roadwork.,70103.0,Weston Elgin Hwy,R,Elgin,Union,OR,97827,US,US/Pacific,KLGD,2021-08-06 08:56:00,66.0,66.0,60.0,27.24,10.0,NNW,10.0,0.0,Fair,False,False,False,False,False,False,False,False,False,False,False,False,False,Day,Day,Day,Day
C-344195,2,2020-04-21 20:30:00.000000000,2020-04-22 06:30:00.000000000,25.73418,-80.38419300000002,,,7.46000003815,Lane closed due to construction work on FL-821 Florida's Tpke both ways from SW 72nd St to SW 40th St.,,FL-821 N,R,Miami,Miami-Dade,FL,33175,US,US/Eastern,KTMB,2020-04-21 20:53:00,78.0,78.0,64.0,29.94,10.0,W,13.0,0.0,Fair,False,False,False,False,False,False,False,False,False,False,False,False,False,Night,Night,Day,Day
C-344196,2,2017-04-05 21:01:53.000000000,2017-04-06 03:01:53.000000000,40.560376,-74.166342,40.560381,-74.166365,0.0012557645375999,At Getz Ave - Construction work.,703.0,Arthur Kill Rd,L,Staten Island,Richmond,NY,10314,US,US/Eastern,KLDJ,2017-04-05 20:55:00,48.2,,81.0,29.99,10.0,SSE,5.8,,Clear,False,False,False,False,False,False,False,False,True,False,False,False,False,Night,Night,Night,Night
C-344197,2,2021-08-31 13:05:00.000000000,2021-08-31 13:25:00.000000000,40.847067,-75.711617,40.852319,-75.713411,0.374796231584,Stationary traffic on US-209 N - US-209 S from PA-902/North St/South St/Maiden Ln (1st St/Sgt Stanley Hoffman Blvd/US-209) to PA-903/River St (US-209) due to roadwork.,888.0,N 1st St,L,Lehighton,Carbon,PA,18235,US,US/Eastern,KABE,2021-08-31 12:51:00,80.0,80.0,48.0,29.41,10.0,NW,3.0,0.0,Fair,False,False,False,False,False,False,False,False,False,False,False,False,False,Day,Day,Day,Day
C-344198,2,2017-02-08 03:01:00.000000000,2017-02-12 02:59:00.000000000,34.06715,-118.309105,,,0.0,Intermittent lane closures due to resurfacing work on 4th St both ways from Normandie Ave to Western Ave.,398.0,S Western Ave,L,Los Angeles,Los Angeles,CA,90020-3805,US,US/Pacific,KCQT,2017-02-08 02:47:00,61.0,,93.0,30.16,2.5,East,3.5,0.0,Overcast,False,False,False,False,False,False,False,False,True,False,False,True,False,Night,Night,Night,Night
C-344199,3,2019-05-17 09:03:05.000000000,2019-05-21 09:02:43.000000000,41.79395,-88.32511,41.79566,-88.33123,0.336664206145,Ramp to IL-31/IL-56 - Roadwork.,,IL-56,R,North Aurora,Kane,IL,60542,US,US/Central,KDPA,2019-05-17 08:52:00,56.0,56.0,62.0,29.1,10.0,NE,9.0,0.0,Cloudy,False,False,False,False,False,False,False,False,False,False,False,False,False,Day,Day,Day,Day
C-344200,2,2020-11-11 13:36:00.000000000,2020-11-11 15:24:30.000000000,33.998769,-96.587301,33.998339,-96.635801,2.7783366024,Stationary traffic on US-70 W - US-70 E from N3620 Rd/Willow Springs Rd (US-70) to OK-32/5th St (US-70) due to roadwork.,,N3610 Rd,R,Mead,Bryan,OK,73449,US,US/Central,KDUA,2020-11-11 13:35:00,75.0,75.0,29.0,29.26,10.0,CALM,0.0,0.0,Fair,False,False,False,False,False,False,False,False,False,False,False,False,False,Day,Day,Day,Day
C-344201,2,2020-10-22 13:09:00.000000000,2020-10-22 21:35:00.000000000,40.19362,-75.260435,40.18303,-75.274555,1.04443123148,Stationary traffic on US-202 from Sumneytown Pike (DeKalb Pike/US-202) to PA-73/Skippack Pike (DeKalb Pike/US-202) due to roadwork.,1700.0,School House Ln,R,Ambler,Montgomery,PA,19002-1917,US,US/Eastern,KLOM,2020-10-22 13:15:00,66.0,66.0,98.0,29.92,5.0,CALM,0.0,0.0,Cloudy,False,False,False,False,False,False,False,False,False,False,False,True,False,Day,Day,Day,Day
C-344202,2,2017-04-11 07:40:19.000000000,2017-04-11 15:01:57.000000000,40.05876,-75.3398,40.05894,-75.33959,0.0166734785216,At PA-320/Montgomery Ave/S Gulph Rd - Roadwork. Traffic problem.,800.0,W Matsonford Rd,L,Villanova,Montgomery,PA,19085,US,US/Eastern,KLOM,2017-04-11 07:35:00,57.2,,67.0,30.18,10.0,SW,3.5,,Clear,False,False,False,True,False,False,False,False,False,False,False,True,False,Day,Day,Day,Day
