ID,Severity,Start_Time,End_Time,Start_Lat,Start_Lng,End_Lat,End_Lng,Distance(mi),Description,Number,Street,Side,City,County,State,Zipcode,Country,Timezone,Airport_Code,Weather_Timestamp,Temperature(F),Wind_Chill(F),Humidity(%),Pressure(in),Visibility(mi),Wind_Direction,Wind_Speed(mph),Precipitation(in),Weather_Condition,Amenity,Bump,Crossing,Give_Way,Junction,No_Exit,Railway,Roundabout,Station,Stop,Traffic_Calming,Traffic_Signal,Turning_Loop,Sunrise_Sunset,Civil_Twilight,Nautical_Twilight,Astronomical_Twilight
C-715205,2,2021-12-03 15:00:14,2021-12-03 17:04:41,28.568045,-81.288022,28.568957,-81.286027,0.136476577725,Stationary traffic on FL-551 - FL-50 from Old Cheney Hwy to Puritan Rd due to roadwork.,7498.0,Old Cheney Hwy,L,Orlando,Orange,FL,32807,US,US/Eastern,KORL,2021-12-03 14:53:00,77.0,77.0,45.0,29.95,10.0,CALM,0.0,0.0,Fair,False,False,True,False,False,False,False,False,False,False,False,False,False,Day,Day,Day,Day
C-715206,2,2021-11-22 08:49:00,2021-11-22 09:09:30,27.161504,-80.32579799999998,27.161574,-80.317817,0.490647873806,Stationary traffic on FL-714 - County Hwy-714 from I-95 (SW Martin Hwy/FL-714) to FL-714/SW Martin Downs Blvd (SW Martin Hwy/FL-714) due to roadwork.,5312.0,SW Martin Hwy,L,Palm City,Martin,FL,34990-5534,US,US/Eastern,KSUA,2021-11-22 08:50:00,70.0,70.0,94.0,29.94,5.0,W,6.0,0.0,Mostly Cloudy,False,False,False,False,False,False,False,False,False,False,False,False,False,Day,Day,Day,Day
C-715207,2,2018-04-04 20:51:54,2018-04-05 02:51:54,40.75327,-74.21083,40.8538,-74.17437,7.202955456110001,Between I-280/Exit 145 and RT-3/Exit 153 - Construction work. Left lane blocked.,,Garden State Pkwy N,R,East Orange,Essex,NJ,07018,US,US/Eastern,KEWR,2018-04-04 20:51:00,46.0,37.4,35.0,29.74,10.0,West,25.3,,Partly Cloudy,False,False,False,False,False,False,False,False,False,False,False,False,False,Night,Night,Night,Day
C-715208,2,2020-09-11 17:39:30,2020-09-12 02:55:08,33.636558,-112.065405,33.637671000000005,-112.066406,0.0960700827355,Stationary traffic from E Aire Libre Ave to N 3rd St due to roadwork.,16671.0,N 7th St,L,Phoenix,Maricopa,AZ,85022,US,US/Mountain,KDVT,2020-09-11 17:53:00,88.0,88.0,22.0,28.28,10.0,S,8.0,0.0,Fair,True,False,False,False,False,False,False,False,True,False,False,False,False,Day,Day,Day,Day
C-715209,2,2017-02-13 09:00:00,2017-02-13 15:00:00,40.464752,-79.979752,,,0.01,Intermittent lane closures due to construction on PA-28 both ways at Exit 2 31st St.,,31st St,R,Pittsburgh,Allegheny,PA,15212,US,US/Eastern,KAGC,2017-02-13 08:53:00,30.0,25.2,61.0,30.22,10.0,Variable,4.6,,Overcast,False,False,True,False,False,False,False,False,True,False,False,True,False,Day,Day,Day,Day
C-715210,2,2021-06-04 17:54:30,2021-06-04 18:18:12,40.657614,-73.89703399999998,40.658493,-73.89065500000002,0.339826788357,Slow traffic on NY-27 from NY-27/Linden Blvd/Van Sinderen Ave (Linden Blvd (Frontage)) to Pennsylvania Ave (Linden Blvd (Frontage)) due to roadwork.,701.0,Hinsdale St,L,Brooklyn,Kings,NY,11207-6604,US,US/Eastern,KJFK,2021-06-04 17:51:00,63.0,63.0,93.0,29.88,10.0,SW,8.0,0.1,Light Rain,False,False,True,False,False,False,False,False,False,False,False,True,False,Day,Day,Day,Day
C-715211,2,2021-08-25 08:18:30,2021-08-25 08:43:30,32.904027,-96.713316,32.900941,-96.717521,0.323987317435,Slow traffic from Forest Ln (Skillman St) to I-635 (Skillman St) due to roadwork.,9341.0,Skillman St,R,Dallas,Dallas,TX,75243-7330,US,US/Central,KADS,2021-08-25 08:47:00,84.0,84.0,62.0,29.37,10.0,S,8.0,0.0,Fair,False,False,False,False,False,False,False,False,False,False,False,True,False,Day,Day,Day,Day
C-715212,2,2017-11-06 18:01:14,2017-11-07 00:01:14,41.38805,-72.08613000000003,41.38742,-72.07893,0.3757598898229999,Between Military Hwy and CT-12 - Construction work.,,Military Hwy,R,Groton,New London,CT,06340,US,US/Eastern,KGON,2017-11-06 17:56:00,63.0,,87.0,29.9,10.0,WNW,6.9,0.0,Partly Cloudy,False,False,True,False,False,False,False,False,False,False,False,True,False,Night,Night,Night,Day
C-715213,2,2021-12-13 12:00:00,2021-12-13 15:45:00,33.228962,-85.754447,33.229865999999994,-85.754311,0.062953081584,Construction on AL-77 NB near MM 25 Lane blocked. Expect delays.,53776.0,Highway 49,L,Ashland,Clay,AL,36251-7510,US,US/Central,KANB,2021-12-13 11:53:00,61.0,61.0,42.0,29.73,10.0,VAR,5.0,0.0,Fair,False,False,False,False,False,False,False,False,False,False,False,False,False,Day,Day,Day,Day
C-715214,2,2021-02-19 04:16:00,2021-02-19 19:16:48,25.890179,-80.188488,25.890274,-80.186465,0.12591818742,Stationary traffic on FL-922 from Griffing Blvd/NE North Miami Blvd (NE 125th St/North Miami Blvd/FL-922) to FL-909/W Dixie Hwy (NE 125th St/North Miami Blvd/FL-922) due to roadwork.,12400.0,NE 5th Ave,L,North Miami,Miami-Dade,FL,33161-4703,US,US/Eastern,KOPF,2021-02-19 03:53:00,75.0,75.0,87.0,30.05,10.0,SSE,8.0,0.0,Fair,False,False,False,False,False,False,False,False,True,False,False,True,False,Night,Night,Night,Night
C-715215,2,2020-10-16 13:26:00,2020-10-17 02:47:05,33.494781,-112.070498,33.494796,-112.074765,0.245864554263,Queuing traffic from N 7th St (E Indian School Rd) to N 7th Ave (W Indian School Rd) due to roadwork.,230.0,E Indian School Rd,L,Phoenix,Maricopa,AZ,85012,US,US/Mountain,KPHX,2020-10-16 13:51:00,99.0,99.0,7.0,28.68,10.0,VAR,6.0,0.0,Partly Cloudy,True,False,False,False,False,False,False,False,True,False,False,False,False,Day,Day,Day,Day
C-715216,2,2020-10-10 20:41:30,2020-10-10 21:48:00,44.887843,-103.744268,44.895729,-103.725821,1.0546145860299998,Queuing traffic on US-85 from US-212/Mountain View St/N Alzada Rd (US-85) to SD-168 (US-85) due to roadwork.,15915.0,US Highway 85,L,Belle Fourche,Butte,SD,57717-6426,US,US/Mountain,KEFC,2020-10-10 20:56:00,68.0,68.0,28.0,26.27,10.0,S,20.0,0.0,Fair,False,False,False,False,False,False,False,False,False,False,False,False,False,Night,Night,Night,Night
C-715217,2,2021-10-07 11:10:00,2021-10-07 11:33:00,41.38832,-81.278612,41.387869,-81.265041,0.704172887279,Slow traffic from CR-11/Bainbridge Rd (E Washington St) to CR-4/Auburn Rd (E Washington St) due to roadwork.,10199.0,Bainbridge Rd,L,Chagrin Falls,Geauga,OH,44023-5445,US,US/Eastern,KPOV,2021-10-07 11:15:00,73.0,73.0,71.0,28.96,7.0,CALM,0.0,0.0,Fair,False,False,False,False,False,False,False,False,False,False,False,False,False,Day,Day,Day,Day
C-715218,2,2021-09-18 18:33:06,2021-09-18 19:14:22,40.877918,-73.868534,40.879867,-73.87595300000002,0.410305032653,Slow traffic from US-1/Boston Rd/Hering Ave (E Gun Hill Rd) to Jerome Ave (Gun Hill Rd) due to roadwork.,621.0,E Gun Hill Rd,L,Bronx,Bronx,NY,10467-5616,US,US/Eastern,KLGA,2021-09-18 18:51:00,83.0,83.0,49.0,29.95,10.0,NNW,7.0,0.0,Partly Cloudy,False,False,True,False,False,False,False,False,True,False,False,True,False,Day,Day,Day,Day
C-715219,1,2021-01-30 08:00:00,2021-01-30 18:00:00,40.70116,-73.80526,,,0.0,Road closed due to construction work and crane operation on 149th St both ways from Jamaica Ave to Archer Ave.,14820.0,Archer Ave,R,Jamaica,Queens,NY,11435-4317,US,US/Eastern,KJFK,2021-01-30 07:51:00,18.0,4.0,52.0,30.3,10.0,NW,14.0,0.0,Mostly Cloudy,False,False,False,False,False,False,True,False,False,False,False,False,False,Day,Day,Day,Day
C-715220,2,2021-02-08 13:29:00,2021-02-09 00:06:06,25.770303,-80.263514,25.771667,-80.264669,0.118517895405,Stationary traffic on FL-968 - FL-953 from SW 2nd St to NW 43rd Ave / SW 43rd Ave due to roadwork.,195.0,SW 42nd Ave,R,Coral Gables,Miami-Dade,FL,33134-1749,US,US/Eastern,KMIA,2021-02-08 13:53:00,83.0,83.0,65.0,30.07,10.0,SSE,13.0,0.0,Partly Cloudy,True,False,False,False,False,False,False,False,True,False,False,False,False,Day,Day,Day,Day
C-715221,2,2021-12-30 11:29:00,2021-12-30 13:35:26,28.569294,-81.28619599999998,28.568198,-81.285504,0.0865895144163999,Stationary traffic on FL-551 - FL-50 from Puritan Rd to Fabian Ave due to roadwork.,,N Goldenrod Rd,R,Orlando,Orange,FL,32807,US,US/Eastern,KORL,2021-12-30 11:35:00,75.0,75.0,76.0,30.0,10.0,SSW,9.0,0.0,Mostly Cloudy,False,False,True,False,False,False,False,False,False,False,False,False,False,Day,Day,Day,Day
C-715222,2,2020-10-03 22:38:03,2020-10-04 03:17:01,34.351061,-89.03325600000002,34.351171,-89.03365600000002,0.0240497901896,Roadwork on MS-345 from Elm St to Highway 15 N.,,W Main St,R,Ecru,Pontotoc,MS,38841,US,US/Central,KTUP,2020-10-03 22:53:00,55.0,55.0,89.0,29.73,10.0,S,6.0,0.0,Fair,False,False,False,False,False,False,False,False,False,False,False,True,False,Night,Night,Night,Night
C-715223,4,2020-01-24 15:03:53,2020-01-24 20:02:41,33.97533,-117.96873,33.96556,-117.95762,0.927879119473,Closed at East Rd - Closed due to roadwork. Hazardous driving conditions.,3532.0,S Hacienda Blvd,L,Hacienda Heights,Los Angeles,CA,91745,US,US/Pacific,KEMT,2020-01-24 14:53:00,69.0,69.0,57.0,29.83,9.0,SSW,6.0,0.0,Mostly Cloudy,False,False,False,False,False,False,False,False,False,False,False,False,False,Day,Day,Day,Day
C-715224,2,2021-01-23 15:05:30,2021-01-24 00:39:10,30.430067,-91.108593,30.430821,-91.109267,0.0657751463593,Slow traffic on LA-73 from LA-3064/Essen Ln (Jefferson Hwy/LA-73) to Corporate Blvd (Jefferson Hwy/LA-73) due to roadwork.,7637.0,Jefferson Hwy,L,Baton Rouge,East Baton Rouge,LA,70809-1102,US,US/Central,KBTR,2021-01-23 15:16:00,61.0,61.0,87.0,29.99,10.0,E,7.0,0.0,Cloudy,False,False,False,False,False,False,False,False,False,False,False,True,False,Day,Day,Day,Day
C-715225,2,2021-08-28 15:54:30,2021-08-28 17:58:16,39.654,-105.042246,39.653283,-105.034084,0.437003957723,Stationary traffic on US-285 N from CO-95/Sheridan Blvd (US-285) to S Lowell Blvd/S Knox Ct (US-285) due to roadwork.,,US-285 N,R,Denver,Denver,CO,80236,US,US/Mountain,KAPA,2021-08-28 15:53:00,89.0,89.0,17.0,24.18,10.0,NNE,12.0,0.0,Fair,False,False,False,False,False,False,False,False,False,False,False,False,False,Day,Day,Day,Day
C-715226,2,2019-07-15 09:02:31,2019-07-21 09:02:16,34.003874,-84.391991,34.00442,-84.39115,0.0611851430091999,At Coleman Rd - Construction work.,1011.0,Marietta Hwy,L,Roswell,Fulton,GA,30075,US,US/Eastern,KMGE,2019-07-15 21:56:00,83.0,83.0,61.0,28.98,10.0,S,3.0,0.0,Mostly Cloudy,False,False,True,False,False,False,False,False,False,False,False,True,False,Day,Day,Day,Day
C-715227,2,2021-09-19 16:00:30,2021-09-19 18:04:22,42.661947,-84.539688,42.662051,-84.539194,0.0261079007901,Roadwork from Amwood Dr to S Cedar St / S Pennsylvania Ave.,959.0,American Rd,L,Lansing,Ingham,MI,48911,US,US/Eastern,KLAN,2021-09-19 15:53:00,82.0,82.0,51.0,29.2,10.0,ESE,7.0,0.0,Fair,False,False,False,False,False,False,False,False,False,False,False,False,False,Day,Day,Day,Day
C-715229,2,2021-05-03 06:33:00,2021-05-03 11:01:06,27.995319,-82.523663,27.996295,-82.52465699999998,0.0906916682749,Slow traffic on FL-580 from W Crest Ave to Airport Blvd due to roadwork.,5329.0,Air Cargo Rd,R,Tampa,Hillsborough,FL,33614,US,US/Eastern,KTPA,2021-05-03 06:31:00,77.0,77.0,84.0,29.92,10.0,SSE,12.0,0.0,Partly Cloudy,False,False,False,False,False,False,False,False,True,False,False,False,False,Night,Day,Day,Day
C-715230,2,2020-12-12 05:00:00,2020-12-13 13:45:00,29.722414,-95.377225,29.7213,-95.377552,0.079431624193,Construction on TX-288 SB near SOUTHMORE BLVD Drive with caution.,2199.0,Southmore Blvd,R,Houston,Harris,TX,77004-7414,US,US/Central,KMCJ,2020-12-12 04:53:00,67.0,67.0,93.0,29.89,4.0,NNW,3.0,0.0,Cloudy,False,False,False,False,True,False,False,False,False,False,False,False,False,Night,Night,Night,Night
C-715231,2,2021-08-21 11:49:38,2021-08-21 12:16:09,42.155697,-87.954499,42.15417,-87.95514,0.1104963125819999,Stationary traffic on County Hwy-W17 - County Hwy-73 from Deerfield Pkwy (Weiland Rd) to E Lake Cook Rd (Weiland Rd) due to roadwork.,151.0,N Weiland Rd,R,Buffalo Grove,Lake,IL,60089-7004,US,US/Central,KPWK,2021-08-21 11:52:00,87.0,87.0,55.0,29.17,10.0,S,14.0,0.0,Fair,False,False,False,False,False,False,False,False,False,False,False,True,False,Day,Day,Day,Day
C-715232,2,2021-06-22 00:20:00,2021-06-22 00:33:00,25.793181,-80.205464,25.785763,-80.20266600000002,0.541287194447,Slow traffic on I-95 S from I-95 Exp (I-95) to I-395/FL-836/NE 3rd St/NE 2nd Ave/Exit 2D/Exit 3A (I-95) due to roadwork.,,I-95 S,R,Miami,Miami-Dade,FL,33136,US,US/Eastern,KMIA,2021-06-22 00:53:00,84.0,84.0,79.0,30.09,10.0,E,7.0,0.0,Cloudy,False,False,False,False,False,False,False,False,False,False,False,False,False,Night,Night,Night,Night
C-715233,3,2020-05-10 15:30:26,2020-05-19 12:48:07,42.18581,-88.61806999999996,42.16833,-88.62311,1.23501602383,Between W Coral Rd/Pleasant Grove Rd and N Ash Rd - Roadwork.,8725.0,S State Route 23,L,Marengo,McHenry,IL,60152-9318,US,US/Central,KDKB,2020-05-14 10:55:00,57.0,57.0,100.0,28.91,1.0,S,9.0,0.0,Fog,False,False,False,False,False,False,False,False,False,False,False,False,False,Day,Day,Day,Day
C-715234,2,2021-07-24 11:09:03,2021-07-24 11:33:58,29.340223,-81.137107,29.337188,-81.132976,0.325396397823,Stationary traffic on US-1 S - FL-5 from S Old Dixie Hwy (US-1) to I-95 (Ormond Beach) (US-1) due to roadwork.,1686.0,N US Highway 1,R,Ormond Beach,Volusia,FL,32174-2525,US,US/Eastern,KOMN,2021-07-24 10:50:00,82.0,82.0,84.0,30.0,7.0,NNE,12.0,,Partly Cloudy,False,False,False,False,False,False,False,False,False,False,False,True,False,Day,Day,Day,Day
C-715235,4,2020-06-26 11:21:33,2020-06-26 13:20:50,33.76392,-118.02797,33.75658,-118.01917,0.716043552924,At Westminster Ave/Exit 19 - Roadwork.,,San Diego Fwy S,R,Westminster,Orange,CA,92683,US,US/Pacific,KSLI,2020-06-26 10:58:00,75.0,75.0,50.0,29.89,10.0,SSW,3.0,0.0,Fair,False,False,False,False,False,False,False,False,False,False,False,False,False,Day,Day,Day,Day
C-715236,2,2017-01-11 09:52:31,2017-01-11 16:30:00,33.79334,-116.49522,33.791067,-116.48706,0.4941730486949999,Between E Palm Canyon Dr/E Matthew Dr and Golf Club Dr - Construction work.,4705.0,E Palm Canyon Dr,R,Palm Springs,Riverside,CA,92264-5219,US,US/Pacific,KPSP,2017-01-11 09:53:00,59.0,,69.0,29.99,10.0,Calm,,,Scattered Clouds,False,False,False,False,False,False,False,False,False,False,False,True,False,Day,Day,Day,Day
C-715237,2,2021-10-09 03:13:30,2021-10-09 23:47:35,39.757303,-104.827531,39.766657,-104.827384,0.646347003997,Stationary traffic on I-225 N from exit [10B] to exit [12A] due to roadwork.,,I-225 N,R,Aurora,Adams,CO,80011,US,US/Mountain,KBKF,2021-10-09 02:58:00,51.0,51.0,56.0,24.25,10.0,S,6.0,0.0,Mostly Cloudy,False,False,False,False,False,False,False,False,False,False,False,False,False,Night,Night,Night,Night
C-715238,2,2019-09-05 00:01:00,2019-09-06 23:59:00,36.09819,-97.092567,,,0.0,Intermittent lane closures due to maintenance work on 22nd Ave both ways at August Dr.,2699.0,W 22nd Ave,R,Stillwater,Payne,OK,74074-2302,US,US/Central,KSWO,2019-09-05 00:53:00,72.0,72.0,84.0,29.04,10.0,SSE,3.0,0.0,Fair,False,False,False,False,False,False,False,False,False,False,False,False,False,Night,Night,Night,Night
C-715239,2,2021-09-05 16:24:30,2021-09-05 17:01:05,40.726555,-73.995866,40.719939,-74.001423,0.541879368188,Slow traffic from E 14th St (Broadway) to Canal St (Broadway) due to roadwork.,640.0,Broadway,R,New York,New York,NY,10012-2629,US,US/Eastern,KJRB,2021-09-05 16:51:00,73.0,73.0,79.0,29.7,10.0,CALM,0.0,0.0,Cloudy,True,False,True,False,False,False,False,False,False,False,False,True,False,Day,Day,Day,Day
C-715240,4,2017-11-13 00:02:23,2017-11-13 06:02:23,40.79966,-73.92926999999997,40.805611,-73.932286,0.440394103299,Closed between I-87/Willis Ave Brg/Exit 18 and 2nd Ave/125th St/Exit 19 - Closed. Construction work.,,FDR Dr N,R,New York,New York,NY,10035,US,US/Eastern,KNYC,2017-11-13 00:51:00,44.1,,55.0,30.38,10.0,Calm,,,Clear,False,False,False,False,False,False,False,False,False,False,False,False,False,Night,Night,Night,Night
C-715241,2,2021-12-07 07:41:30,2021-12-07 08:16:00,28.536141,-81.285646,28.542069,-81.285729,0.4096167733510001,Slow traffic on FL-551 from Autumnvale Dr (S Goldenrod Rd/FL-551) to Valencia College Ln (N Goldenrod Rd/FL-551) due to roadwork.,627.0,S Goldenrod Rd,L,Orlando,Orange,FL,32822-8125,US,US/Eastern,KORL,2021-12-07 07:50:00,66.0,66.0,100.0,29.97,0.25,WSW,6.0,0.0,Fog,False,False,False,False,False,False,False,False,False,False,False,False,False,Day,Day,Day,Day
C-715242,2,2021-10-19 03:27:00,2021-10-19 04:03:00,39.851185,-75.375295,39.856348,-75.362381,0.772305670843,Slow traffic on Vietnam Veterans Memorial Hwy - I-95 N from US-322/Exit 4 (I-95) to PA-320/E 6th St/Exit 6 (I-95) due to roadwork.,,I-95 N,R,Chester,Delaware,PA,19013,US,US/Eastern,KPHL,2021-10-19 03:54:00,49.0,45.0,69.0,30.05,10.0,W,10.0,0.0,Fair,False,False,False,False,False,False,False,False,False,False,False,False,False,Night,Night,Night,Night
C-715243,2,2021-07-28 17:53:37,2021-07-28 18:13:37,34.794583,-87.672638,34.796597,-87.673637,0.150255649003,Stationary traffic on AL-13 - US-72 W - US-43 S - US-72 E - US-43 N - AL-2 - AL-17 from AL-20/Coffee Rd (AL-13) to N Wood Ave (AL-13) due to roadwork.,705.0,O'Neal Brg,L,Florence,Lauderdale,AL,35630,US,US/Central,KMSL,2021-07-28 17:53:00,94.0,94.0,51.0,29.41,10.0,NNE,3.0,0.0,Fair,False,False,True,True,False,False,False,False,False,False,False,True,False,Day,Day,Day,Day
C-715244,2,2018-08-20 08:00:00,2018-08-30 17:01:00,39.751957,-104.88281299999998,,,0.0,Intermittent lane closures due to paving repairs and maintenance work on 24th Pl both ways from Xenia St to Akron Ct.,2451.0,Akron Ct,L,Denver,Denver,CO,80238,US,US/Mountain,KBKF,2018-08-20 07:58:00,52.2,,95.0,30.21,6.0,ESE,3.5,,Clear,False,False,False,False,False,False,False,False,False,False,False,False,False,Day,Day,Day,Day
C-715245,2,2020-11-06 12:53:00,2020-11-06 22:13:32,42.240556,-87.982939,42.240451,-87.974425,0.435567705558,Slow traffic on IL-60 from US-45/S Lake St (Townline Rd/IL-60) to IL-21/N Milwaukee Ave (E Townline Rd/IL-60) due to roadwork.,1279.0,Townline Rd,R,Mundelein,Lake,IL,60060-4430,US,US/Central,KPWK,2020-11-06 12:52:00,74.0,74.0,43.0,29.44,10.0,SSW,12.0,0.0,Fair,False,False,True,False,False,False,False,False,False,False,False,False,False,Day,Day,Day,Day
C-715246,2,2021-06-09 17:16:30,2021-06-09 19:27:37,25.899382,-80.18779599999998,25.900355,-80.186842,0.0896405661673,Stationary traffic on FL-916 - FL-915 from NE 5th Ave to NE 137th St due to roadwork.,554.0,NE 135th St,R,North Miami,Miami-Dade,FL,33161-3725,US,US/Eastern,KOPF,2021-06-09 16:53:00,86.0,86.0,59.0,30.08,10.0,E,13.0,0.0,Fair,False,False,False,False,False,False,False,False,False,False,False,False,False,Day,Day,Day,Day
C-715247,2,2020-10-30 13:37:30,2020-11-01 08:18:48,33.420319,-111.926285,33.42264,-111.92629,0.160366085996,Slow traffic from E Apache Blvd (S Rural Rd) to E Rio Salado Pkwy/N Scottsdale Rd (S Rural Rd) due to roadwork.,900.0,S Terrace Rd,R,Tempe,Maricopa,AZ,85281,US,US/Mountain,KPHX,2020-10-30 13:51:00,84.0,84.0,15.0,28.77,10.0,E,6.0,0.0,Mostly Cloudy,False,False,True,False,False,False,True,False,True,False,False,True,False,Day,Day,Day,Day
C-715248,4,2021-02-21 00:00:00,2021-02-22 00:44:00,35.565308,-82.590612,35.563248,-82.59630200000002,0.350049436613,Construction on I-240 WB near EXIT 1 Road closed. Take alternate route.,,I-240 W,R,Asheville,Buncombe,NC,28806,US,US/Eastern,KAVL,2021-02-21 00:54:00,27.0,27.0,75.0,28.1,10.0,CALM,0.0,0.0,Fair,False,False,False,False,True,False,False,False,False,False,False,False,False,Night,Night,Night,Night
C-715249,2,2021-08-29 20:00:00,2021-09-02 23:59:59,41.107318,-73.729989,41.106222,-73.729786,0.0764602911479,Road rehabilitation on NY 22 both directions between King Street; NY 120 (North Castle) and Middle Patent Road (North Castle) D264425 *NIGHT* 29242409 Sunday August 29th 2021 thru Friday September 3rd 2021 Sunday/ Monday/ Tuesday/ Wednesday/ Thursday 08:00 PM thru 06:00 AM various lane closures Tuesday September 7th 2021 thru Friday September 10th 2021 Tuesday/ Wednesday/ Thursday 08:00 PM thru 06:00 AM various lane closures,,King St,R,Armonk,Westchester,NY,10504,US,US/Eastern,KHPN,2021-08-29 19:56:00,70.0,70.0,90.0,29.63,10.0,SSE,6.0,0.0,Mostly Cloudy,False,False,False,False,False,False,False,False,False,False,False,False,False,Night,Night,Day,Day
C-715250,2,2021-08-11 14:07:30,2021-08-11 14:32:30,40.091285,-75.126099,40.087715,-75.12889200000002,0.287470331395,Stationary traffic on PA-611 - PA-73 at Washington Ln due to roadwork.,95.0,York Rd,R,Jenkintown,Montgomery,PA,19046-3921,US,US/Eastern,KPNE,2021-08-11 13:54:00,90.0,90.0,61.0,29.9,10.0,SSW,9.0,0.0,Fair,False,False,False,False,False,False,False,False,False,True,False,False,False,Day,Day,Day,Day
C-715251,4,2020-09-25 16:00:00,2020-09-25 23:00:00,26.001619,-80.13473499999998,26.000694,-80.134712,0.0639273710748,Closed road from Rodman St to Plunkett St due to roadwork.,1198.0,S 14th Ave,R,Hollywood,Broward,FL,33020-6420,US,US/Eastern,KFLL,2020-09-25 15:53:00,83.0,83.0,88.0,29.94,10.0,SSW,5.0,0.0,Mostly Cloudy,False,False,False,False,False,False,False,False,False,False,False,False,False,Day,Day,Day,Day
C-715252,2,2021-06-28 12:43:00,2021-06-28 13:26:30,41.418226,-87.369988,41.416848,-87.364333,0.308087724454,Slow traffic on IN-55 - US-231 N - US-231 S from Cline St (W 109th Ave/US-231) to IN-55/Main St/N Court St/Court St (Joliet St/US-231) due to roadwork.,416.0,W Joliet St,L,Crown Point,Lake,IN,46307-3809,US,US/Central,KIGQ,2021-06-28 12:35:00,82.0,82.0,74.0,29.47,10.0,S,12.0,0.0,Cloudy,False,False,False,False,False,False,False,False,False,False,False,False,False,Day,Day,Day,Day
C-715254,4,2020-12-02 03:01:00,2020-12-02 13:46:00,33.01097,-117.263453,33.013178,-117.267681,0.288585796374,Construction on I-5 NB near MANCHESTER AVE Take alternate route.,3029.0,Manchester Ave,R,Cardiff By The Sea,San Diego,CA,92007-2205,US,US/Pacific,KCRQ,2020-12-02 02:53:00,51.0,51.0,36.0,29.67,10.0,CALM,0.0,0.0,Fair,False,False,False,False,False,False,False,False,False,False,False,True,False,Night,Night,Night,Night
C-715255,2,2021-02-11 06:21:00,2021-02-11 17:33:40,25.733125,-80.367766,25.732279,-80.36662199999998,0.0921237568889,Stationary traffic on FL-976 - FL-985 from SW 38th St to SW 104th Ct due to roadwork.,3857.0,SW 107th Ave,L,Miami,Miami-Dade,FL,33165-3640,US,US/Eastern,KMIA,2021-02-11 05:53:00,73.0,73.0,87.0,30.05,10.0,ESE,8.0,0.0,Mostly Cloudy,True,False,False,False,False,False,False,False,False,False,False,False,False,Night,Night,Day,Day
C-715256,3,2019-06-14 16:55:09,2019-06-18 16:53:25,42.38248,-87.95203000000002,42.37043,-87.88154,3.69299328902,Between CR-29/CR-W15/N Hunt Club Rd and IL-131/N Green Bay Rd - Roadwork.,5601.0,Grand Ave,R,Gurnee,Lake,IL,60031,US,US/Central,KUGN,2019-06-14 16:55:00,75.0,75.0,40.0,29.03,10.0,SW,20.0,0.0,Partly Cloudy,False,False,False,False,False,False,False,False,False,False,False,True,False,Day,Day,Day,Day
C-715257,2,2021-05-18 10:10:03,2021-09-20 00:44:00,43.974376,-75.90818,43.989258,-75.905064,1.0398528857,NYSDOT - Region 7: Construction reconstruction on MILL ST northbound between HIGHLAND AVE (Watertown) and US 11 at Junction US 11 Southbound (Pamelia) All lanes of 1 lane open Until 11:59 PM,,Mill St,R,Watertown,Jefferson,NY,13601,US,US/Eastern,KART,2021-05-18 09:56:00,65.0,65.0,56.0,29.97,10.0,W,13.0,0.0,Fair,False,False,False,False,False,False,False,False,False,False,False,True,False,Day,Day,Day,Day
C-715258,2,2020-07-02 20:00:00,2020-07-03 05:00:00,33.093899,-96.814888,,,0.0,Right lane closed due to construction work on Tx-121 both ways at Parkwood Blvd.,8198.0,State Highway 121,L,Frisco,Collin,TX,75034,US,US/Central,KADS,2020-07-02 19:47:00,84.0,84.0,62.0,29.25,10.0,SSW,10.0,0.0,Partly Cloudy,False,False,False,False,False,False,False,False,False,False,False,True,False,Day,Day,Day,Day
C-715259,2,2019-07-23 22:03:42,2019-07-28 22:00:46,37.60405,-97.32375,37.64246,-97.30765,2.79631099185,Between I-35 and KS-15/Southeast Blvd/Exit 3 - Construction work.,,I-135 S,R,Wichita,Sedgwick,KS,67216,US,US/Central,KIAB,2019-07-23 21:56:00,75.0,75.0,37.0,28.72,10.0,ENE,7.0,0.0,Fair,False,False,False,False,True,False,False,False,False,False,False,False,False,Night,Night,Night,Day
C-715260,2,2021-04-01 07:00:00,2021-11-01 17:45:00,41.023727,-102.160357,41.02324,-102.16121,0.0557609993401,Construction on I-76 WB near I-80 Construction. Expect long delays.,,I-76 W,R,Big Springs,Deuel,NE,69122,US,US/Mountain,KOGA,2021-04-01 06:55:00,26.0,20.0,65.0,26.95,10.0,WSW,5.0,0.0,Fair,False,False,False,False,False,False,False,False,False,False,False,False,False,Day,Day,Day,Day
C-715261,3,2021-10-31 21:00:00,2021-11-01 06:00:00,43.151241,-123.366081,,,1.78999996185,Entry ramp to I-5 Southbound from OR-42 Eastbound intermittent ramp closures due to construction work.,,I-5 S,R,Roseburg,Douglas,OR,97471,US,US/Pacific,KRBG,2021-10-31 20:53:00,52.0,52.0,93.0,29.31,,CALM,0.0,0.0,Cloudy,False,False,False,False,False,False,False,False,False,False,False,False,False,Night,Night,Night,Night
C-715262,2,2021-07-29 14:10:00,2021-07-29 14:33:30,41.900258,-88.340025,41.902568,-88.34142,0.174987177704,Slow traffic on IL-38 from Randall Rd / Bricher Rd to State Route 38 / Millers Rd due to roadwork.,872.0,S Randall Rd,R,Saint Charles,Kane,IL,60174-1521,US,US/Central,KDPA,2021-07-29 13:52:00,88.0,88.0,63.0,29.1,10.0,NNW,14.0,0.0,Partly Cloudy,False,False,False,False,False,False,False,False,False,False,False,False,False,Day,Day,Day,Day
C-715263,2,2020-10-16 23:58:30,2020-10-17 03:50:00,42.545274,-113.47288,42.564464,-113.50669,2.17236794292,Queuing traffic on I-84 from Yale Rd/Exit 228 (I-84) to I-86/Exit 222 (I-84) due to roadwork.,,I-84 W,R,Declo,Cassia,ID,83323,US,US/Mountain,KBYI,2020-10-16 23:53:00,51.0,51.0,48.0,25.8,10.0,W,6.0,0.0,Fair,False,False,False,False,False,False,False,False,False,False,False,False,False,Night,Night,Night,Night
C-715264,4,2018-11-05 22:02:12,2018-11-06 03:01:55,47.30272,-122.24755,47.30273,-122.25344,0.275970662976,Ramp closed to WA-167 Southbound and W Valley Hwy - Closed due to roadwork.,,WA-18 W,R,Pacific,King,WA,98047,US,US/Pacific,KPLU,2018-11-05 21:55:00,48.2,,93.0,30.12,10.0,SSW,4.6,,Clear,False,False,False,False,True,False,False,False,False,False,False,False,False,Night,Night,Night,Night
C-715265,2,2021-06-07 18:50:00,2021-12-04 20:09:30,25.94735,-80.15034399999998,25.947074,-80.148677,0.105309433201,Stationary traffic on FL-860 from NE 25th Ct to NE 184th Ter due to roadwork.,2500.0,NE Miami Gardens Dr,R,Miami,Miami-Dade,FL,33180-2731,US,US/Eastern,KHWO,2021-08-30 08:12:00,82.0,82.0,82.0,30.03,10.0,CALM,0.0,0.0,Partly Cloudy,False,False,True,False,False,True,False,False,False,False,False,False,False,Day,Day,Day,Day
C-715266,2,2020-06-09 06:30:00,2020-06-09 15:30:00,41.42428,-122.38788999999998,41.42291,-122.38729,0.0996314865541,Between Boles Ave (Weed) L and Route 265 (Weed) - Construction work.,42240.0,State Highway 97,R,Weed,Siskiyou,CA,96094,US,US/Pacific,KMHS,2020-06-09 06:56:00,45.0,45.0,82.0,26.56,10.0,CALM,0.0,0.0,Fair,False,False,False,False,False,False,True,False,False,False,False,True,False,Day,Day,Day,Day
C-715267,2,2021-08-12 16:36:13,2021-08-12 16:57:13,36.85146500000001,-76.178547,36.854565,-76.178687,0.214329408344,Slow traffic on US-58 W from Elam Ave to Reel St due to roadwork.,,Elam Ave,R,Virginia Beach,Virginia Beach,VA,23462,US,US/Eastern,KORF,2021-08-12 16:59:00,94.0,94.0,54.0,30.03,8.0,W,8.0,0.0,Mostly Cloudy,False,False,False,False,False,False,False,False,False,False,False,False,False,Day,Day,Day,Day
C-715268,1,2020-07-31 21:00:00,2020-08-01 05:00:00,42.4007,-71.03778100000002,,,0.449999988079,Road closed due to construction work on Carter St both ways from Beech St to Blossom St.,198.0,Blossom St,L,Chelsea,Suffolk,MA,02150-1911,US,US/Eastern,KBOS,2020-07-31 20:54:00,70.0,70.0,84.0,29.82,10.0,E,5.0,0.0,Fair,False,False,False,False,False,False,False,False,False,False,False,False,False,Night,Night,Day,Day
C-715269,2,2020-10-07 18:55:16,2020-10-10 06:59:00,40.814756,-74.109746,40.817936,-74.115586,0.376205253679,Construction construction on NJ 3 westbound Ridge Rd (Rutherford) 1 Left lane and shoulder of 4 lanes closed for repairs Until 3:00 PM,,NJ-3 W,R,Rutherford,Bergen,NJ,07070,US,US/Eastern,KTEB,2020-10-07 18:51:00,70.0,70.0,41.0,29.64,10.0,WNW,16.0,0.0,Fair,False,False,False,False,True,False,False,False,False,False,False,False,False,Night,Night,Day,Day
C-715270,2,2021-11-20 15:02:00,2021-11-20 17:10:34,33.509233,-112.046391,33.508519,-112.047532,0.0821861376836,Stationary traffic from Piestewa Fwy S to E Pierson St due to roadwork.,1608.0,E Camelback Rd,L,Phoenix,Maricopa,AZ,85016,US,US/Mountain,KPHX,2021-11-20 14:51:00,79.0,79.0,14.0,28.76,10.0,CALM,0.0,0.0,Mostly Cloudy,True,False,False,False,False,False,False,False,True,False,False,False,False,Day,Day,Day,Day
C-715271,2,2021-03-10 05:33:30,2021-03-10 18:04:00,41.829721,-87.678926,41.826411,-87.684341,0.360593495699,Slow traffic from 35th St (S Archer Ave) to Western Ave (S Archer Ave) due to roadwork.,3528.0,S Archer Ave,R,Chicago,Cook,IL,60609-1134,US,US/Central,KMDW,2021-03-10 05:53:00,56.0,56.0,49.0,29.33,10.0,SSW,15.0,0.0,Mostly Cloudy,False,False,False,False,False,False,False,False,False,False,False,True,False,Night,Night,Day,Day
C-715272,2,2021-08-31 05:43:19,2021-11-30 20:00:00,44.219299,-83.803253,,,23.8099994659,Intermittent lane closures due to construction work on M-65 both ways between Main St and Leggett Rd.,436.0,M 65,L,Whittemore,Iosco,MI,48770,US,US/Eastern,KOSC,2021-08-31 05:35:00,55.0,55.0,99.0,29.2,10.0,NW,5.0,0.0,Fair,False,False,False,False,False,False,False,False,False,False,False,False,False,Night,Night,Night,Day
C-715273,4,2021-08-02 10:46:30,2021-08-18 23:59:00,40.449384,-80.107512,40.448648,-80.108109,0.059760456853,Closed road from Steubenville Pike / Lorish Rd to Cedar Ridge Dr due to roadwork.,4927.0,Steubenville Pike,L,Pittsburgh,Allegheny,PA,15205-9642,US,US/Eastern,KPIT,2021-08-02 10:51:00,66.0,66.0,65.0,28.85,10.0,N,6.0,0.0,Partly Cloudy,False,False,False,False,False,False,False,False,False,False,False,True,False,Day,Day,Day,Day
C-715274,2,2021-09-25 17:25:05,2021-09-25 17:45:45,40.66881,-73.738197,40.665611,-73.735669,0.257695604447,Slow traffic from Merrick Blvd (Francis Lewis Blvd) to NY-27/Sunrise Hwy/S Conduit Ave (Francis Lewis Blvd) due to roadwork.,,Francis Lewis Blvd,R,Rosedale,Queens,NY,11422,US,US/Eastern,KJFK,2021-09-25 17:51:00,68.0,68.0,61.0,29.92,10.0,S,5.0,0.0,Mostly Cloudy,True,False,False,False,False,False,False,False,False,False,False,False,False,Day,Day,Day,Day
C-715275,2,2021-01-08 13:55:00,2021-01-08 22:29:12,30.533298,-87.273785,30.533453,-87.28186,0.480682493515,Stationary traffic on US-90 Alt W - FL-10 from FL-291/N Davis Hwy (US-90 Alt/FL-10) to CR-297/Pine Forest Rd (US-90 Alt/FL-10) due to roadwork.,2.0,N Palafox St,R,Pensacola,Escambia,FL,32534,US,US/Central,KPNS,2021-01-08 13:53:00,47.0,41.0,66.0,29.92,10.0,NNW,14.0,0.0,Cloudy,False,False,True,False,False,False,False,False,False,False,False,True,False,Day,Day,Day,Day
C-715276,2,2016-12-20 21:00:51,2016-12-21 03:00:51,40.72587,-74.0112,40.713673,-74.01393900000002,0.854851267572,Between Canal St and Vesey St - Construction work.,,West St,R,New York,New York,NY,10013,US,US/Eastern,KJRB,2016-12-20 20:56:00,34.0,25.5,48.0,30.27,,West,11.5,,Clear,False,False,True,False,False,False,False,False,False,False,False,True,False,Night,Night,Night,Night
C-715277,2,2021-12-08 13:49:30,2021-12-08 14:13:00,32.949337,-117.062519,32.958746000000005,-117.062507,0.650100356812,Slow traffic from Scripps Poway Pkwy (Pomerado Rd) to Holland Rd (Pomerado Rd) due to roadwork.,12831.0,Pomerado Rd,R,Poway,San Diego,CA,92064-5323,US,US/Pacific,KRNM,2021-12-08 13:53:00,65.0,65.0,50.0,28.49,10.0,CALM,0.0,0.0,Fair,False,False,False,False,False,False,False,False,False,False,False,True,False,Day,Day,Day,Day
C-715278,4,2021-11-04 17:43:33,2021-11-07 23:59:00,47.618065,-122.333585,47.617715,-122.334056,0.0326497303035,Closed road from Denny Way / Minor Ave N to Boren Ave due to roadwork.,1193.0,Virginia St,R,Seattle,King,WA,98101-1444,US,US/Pacific,KBFI,2021-11-04 17:53:00,52.0,52.0,83.0,29.89,10.0,SSW,16.0,0.0,Partly Cloudy,True,False,True,False,False,False,False,False,False,False,False,True,False,Day,Day,Day,Day
C-715279,4,2021-09-14 00:51:02,2021-09-21 23:59:00,40.854109,-74.12044,40.85416,-74.120207,0.012676354924,Closed road from NJ-21 N / Gregory Ave to Paterson Ave due to roadwork.,,Main Ave,R,Passaic,Passaic,NJ,07055,US,US/Eastern,KTEB,2021-09-14 00:51:00,68.0,68.0,90.0,30.04,10.0,CALM,0.0,0.0,Fair,False,False,True,False,False,False,False,False,False,False,False,True,False,Night,Night,Night,Night
C-715281,4,2021-06-14 07:00:00,2021-06-15 23:59:00,43.465744,-76.23231700000002,43.459674,-76.231717,0.420475067785,NYSDOT - Region 3: guard rail repairs on NY 3 eastbound between Main Street; NY 104 (Mexico) and NY 13 (Richland) ; Alternating one-way traffic with flaggers Monday June 14th 2021 thru Tuesday June 15th 2021 Monday/Tuesday 07:00 AM thru 03:00 PM All,5781.0,Scenic Ave,L,Mexico,Oswego,NY,13114-3179,US,US/Eastern,KFZY,2021-06-14 06:54:00,63.0,63.0,97.0,29.26,5.0,CALM,0.0,0.0,Fair,False,False,False,False,False,False,False,False,False,False,False,False,False,Day,Day,Day,Day
C-715282,2,2021-10-22 08:01:00,2021-10-22 08:22:00,42.427321,-122.855933,42.427281,-122.849563,0.3248830242,Stationary traffic from Agate Rd (Antelope Rd) to OR-62/Crater Lake Hwy (Antelope Rd) due to roadwork.,7191.0,Agate Rd,L,White City,Jackson,OR,97503-1644,US,US/Pacific,KMFR,2021-10-22 07:53:00,50.0,50.0,96.0,28.47,10.0,S,3.0,0.0,Cloudy,False,False,True,False,False,False,False,False,False,False,False,True,False,Day,Day,Day,Day
C-715283,2,2020-05-12 07:52:27,2020-05-16 07:54:03,41.83194,-75.88716,41.83194,-75.88716,0.0,At PA-167/Oswego St - Roadwork. Open.,28.0,Wyalusing St,R,Montrose,Susquehanna,PA,18801-9649,US,US/Eastern,KBGM,2020-05-12 07:53:00,33.0,24.0,61.0,28.29,10.0,NNW,12.0,0.0,Fair,False,False,False,False,False,False,False,False,False,False,False,False,False,Day,Day,Day,Day
C-715284,2,2021-09-24 16:15:30,2021-09-24 16:36:00,42.151807,-87.968312,42.153217,-87.961826,0.346222596297,Stationary traffic from N Arlington Heights Rd (W Lake Cook Rd) to Buffalo Grove Rd (Buffalo Grove) (West) (W Lake Cook Rd) due to roadwork.,425.0,W Lake Cook Rd,L,Buffalo Grove,Cook,IL,60089,US,US/Central,KPWK,2021-09-24 15:52:00,80.0,80.0,30.0,29.15,10.0,S,24.0,0.0,Fair / Windy,False,False,True,False,False,False,False,False,False,False,False,True,False,Day,Day,Day,Day
C-715285,2,2020-10-01 14:19:30,2020-10-02 01:55:00,44.857929,-93.334645,44.861753,-93.302363,1.60296139218,Slow traffic on I-494 from MN-100/CR-34/Exit 7 (I-494) to I-35W/MN-5/Exit 5 (I-494) due to roadwork.,,I-494 E,R,Minneapolis,Hennepin,MN,55435,US,US/Central,KMSP,2020-10-01 13:53:00,52.0,52.0,53.0,29.28,10.0,NNW,15.0,0.0,Mostly Cloudy,False,False,False,False,True,False,False,False,False,False,False,False,False,Day,Day,Day,Day
C-715286,2,2021-05-05 04:11:00,2021-05-05 21:51:30,42.08844600000001,-122.603379,42.060434,-122.607421,1.94651478722,Slow traffic on OR-99 S - Pacific Highway 1 S - I-5 S from OR-99/Exit 11 (I-5) to OR-99/Exit 1 (I-5) due to roadwork.,,I-5 S,R,Ashland,Jackson,OR,97520,US,US/Pacific,KMFR,2021-05-05 03:53:00,50.0,50.0,74.0,28.62,10.0,CALM,0.0,0.0,Fair,False,False,False,False,False,False,False,False,False,False,False,False,False,Night,Night,Night,Day
C-715287,2,2021-10-10 16:53:31,2021-10-10 18:58:10,42.05142,-87.98016700000002,42.05079600000001,-87.982061,0.106307260621,Stationary traffic on IL-58 from S Goebbert Rd to E Seegers Rd due to roadwork.,126.0,E Golf Rd,L,Arlington Heights,Cook,IL,60005-4004,US,US/Central,KPWK,2021-10-10 16:52:00,77.0,77.0,69.0,29.05,10.0,CALM,0.0,0.0,Fair,False,False,False,False,False,False,False,False,False,False,False,False,False,Day,Day,Day,Day
C-715288,2,2018-12-04 10:25:03,2018-12-08 10:24:52,38.189642,-104.63292,38.207825,-104.628652,1.27752115779,At CO-45/Pueblo Blvd/Exit 94 - Roadwork.,,US-85 N,R,Pueblo,Pueblo,CO,81004,US,US/Mountain,KPUB,2018-12-04 10:53:00,39.0,31.0,22.0,30.32,10.0,WNW,13.8,,Clear,False,False,False,False,False,False,False,False,False,False,False,False,False,Day,Day,Day,Day
C-715289,2,2021-06-23 13:57:44,2021-06-23 14:46:36,42.756616,-90.494607,42.74764,-90.488711,0.688554757343,Slow traffic on County Hwy-D - WI-81 from CR-D (WI-81) to S Chestnut St (WI-81) due to roadwork.,2349.0,State Road 81,L,Platteville,Grant,WI,53818,US,US/Central,KPVB,2021-06-23 13:55:00,76.0,76.0,66.0,28.82,10.0,S,22.0,0.0,Partly Cloudy / Windy,False,False,False,False,False,False,False,False,False,False,False,False,False,Day,Day,Day,Day
C-715290,2,2021-09-14 04:50:20,2021-09-14 17:00:00,40.495342,-79.9095,,,0.0,Lane closed due to construction work on PA-28 Northbound at Exit 6 Highland Park Brg.,,PA-28 N,R,Pittsburgh,Allegheny,PA,15215,US,US/Eastern,KAGC,2021-09-14 04:53:00,67.0,67.0,93.0,28.73,6.0,S,7.0,0.0,Fair,False,False,False,False,False,False,False,False,False,False,False,False,False,Night,Night,Night,Night
C-715291,2,2021-11-08 08:19:00,2021-11-08 08:42:30,33.449166,-112.012937,33.451314,-112.01293,0.148413213822,Stationary traffic from E Washington St (32nd St) to E Van Buren St (N 32nd St) due to roadwork.,99.0,N 32nd St,R,Phoenix,Maricopa,AZ,85034-1521,US,US/Mountain,KPHX,2021-11-08 07:51:00,63.0,63.0,37.0,28.8,10.0,E,7.0,0.0,Fair,False,False,True,False,False,False,False,False,False,False,False,True,False,Day,Day,Day,Day
C-715292,2,2019-11-03 07:00:00,2019-11-03 17:00:00,40.637,-103.19596,40.63853,-103.19482,0.121440674466,At Pioneer Rd - Construction work.,20449.0,Highway 138,L,Sterling,Logan,CO,80751-8401,US,US/Mountain,KSTK,2019-11-03 06:50:00,27.0,20.0,86.0,25.85,5.0,SSW,6.0,0.0,Partly Cloudy,False,False,False,False,False,False,False,False,False,True,False,False,False,Day,Day,Day,Day
C-715293,2,2021-12-18 19:18:30,2021-12-18 20:05:00,40.225616,-74.884788,40.225805,-74.883491,0.0696560056988999,Slow traffic from Floral Vale Blvd to I-295 W due to roadwork.,877.0,Township Line Rd,L,Morrisville,Bucks,PA,19067,US,US/Eastern,KTTN,2021-12-18 19:27:00,42.0,42.0,100.0,29.65,3.0,CALM,0.0,0.0,Cloudy,False,False,False,False,False,False,False,False,False,False,False,False,False,Night,Night,Night,Night
C-715295,2,2021-09-28 11:54:00,2021-09-28 14:31:50,28.593081,-81.36296800000002,28.593612,-81.365095,0.134152413696,Stationary traffic on FL-424A - US-92 E - FL-426 - US-17 N - US-92 W - US-17 S from Ward Ave to W Comstock Ave due to roadwork.,1069.0,W Fairbanks Ave,R,Winter Park,Orange,FL,32789-4753,US,US/Eastern,KORL,2021-09-28 11:53:00,84.0,84.0,44.0,29.95,10.0,NNE,7.0,0.0,Fair,False,False,True,False,False,False,False,False,False,False,False,False,False,Day,Day,Day,Day
C-715296,2,2018-06-28 09:01:45,2018-06-28 15:01:45,38.62787,-77.41055,38.62787,-77.41055,0.0,At Minnieville Rd - Construction work. Lane closed.,14953.0,Dumfries Rd,L,Manassas,Prince William,VA,20112-4025,US,US/Eastern,KHEF,2018-06-28 08:56:00,77.0,,84.0,29.86,10.0,Calm,,,Overcast,False,False,True,False,False,False,False,False,False,False,False,True,False,Day,Day,Day,Day
C-715297,2,2017-09-11 09:50:00,2021-12-31 21:25:29,40.821483,-73.888402,40.82285,-73.883298,0.283088456156,Slow traffic on I-278 E from I-895 (I-278) to Bronx River Ave (Bronx) (South) (I-278) due to roadwork.,,Bruckner Expy E,R,Bronx,Bronx,NY,10459,US,US/Eastern,KLGA,2021-07-08 12:51:00,80.0,80.0,69.0,29.94,10.0,NE,13.0,0.0,Mostly Cloudy,False,False,False,False,False,False,False,False,False,False,False,False,False,Day,Day,Day,Day
C-715298,2,2021-02-20 16:30:21,2021-02-23 10:47:51,33.2486,-85.039464,33.247257,-85.038637,0.104374391238,Roadwork on US-27/GA-1/Martha Berry Hwy (GA-100) from US-27/GA-1 (Franklin) (South) (GA-100) to US-27 S - GA-100 - GA-1.,,US Highway 27,R,Franklin,Heard,GA,30217,US,US/Eastern,KLGC,2021-02-20 16:35:00,55.0,55.0,18.0,29.58,10.0,NNW,7.0,,Fair,False,False,False,False,False,False,False,False,False,False,False,False,False,Day,Day,Day,Day
C-715299,2,2021-01-27 07:25:00,2021-01-27 08:28:30,38.570666,-102.78614,38.70617100000001,-102.775803,9.37911001716,Slow traffic on US-287 S - US-287 N from CO-96/W 15th St/S Wansted St (US-287) to US-40 (US-287) due to roadwork.,21013.0,County Road 40,R,Eads,Kiowa,CO,81036,US,US/Mountain,KLAA,2021-01-27 07:53:00,2.0,-12.0,88.0,26.4,,W,8.0,0.0,Cloudy,False,False,False,False,False,False,False,False,False,True,False,False,False,Day,Day,Day,Day
C-715300,2,2021-02-24 07:01:00,2021-02-24 17:46:00,40.918116,-123.913376,40.93005,-123.911594,0.8297922863789999,Construction on CA-299 EB near N FORK MAD RIV Expect long delays.,17727.0,State Highway 299,R,Blue Lake,Humboldt,CA,95525-9711,US,US/Pacific,KEKA,2021-02-24 06:53:00,30.0,25.0,100.0,30.12,10.0,E,5.0,0.0,Fair,False,False,False,False,False,False,False,False,False,False,False,False,False,Day,Day,Day,Day
C-715301,4,2018-12-20 21:56:31,2018-12-21 02:32:52,32.83742,-96.982106,32.83708,-97.02355,2.40607460406,Closed between MacArthur Blvd and Valley View Ln - Closed due to roadwork.,,Airport Fwy W,R,Irving,Dallas,TX,75062,US,US/Central,KDFW,2018-12-20 21:53:00,48.9,,43.0,29.98,10.0,NW,16.1,,Clear,False,False,False,False,False,False,False,False,False,False,False,False,False,Night,Night,Night,Night
C-715302,2,2021-04-12 00:00:00,2021-12-06 08:25:00,39.403388,-76.950973,39.406434,-76.950424,0.212489646491,ROAD WIDENING DRAINAGE SAFETY &amp; PAVING. CARROLL COUNTY: MD-32 NORTH AT (CO - 662) - BARTHOLOW RD (MD - 32),6215.0,Sykesville Rd,L,Sykesville,Carroll,MD,21784-7910,US,US/Eastern,KDMW,2021-04-12 00:15:00,57.0,57.0,88.0,28.76,10.0,NE,6.0,0.0,Cloudy,False,False,False,False,False,False,False,False,False,False,False,False,False,Night,Night,Night,Night
C-715303,2,2021-10-04 15:07:00,2021-10-04 17:18:04,27.914923,-82.79645,27.916664,-82.795813,0.126422285675,Slow traffic on FL-686 from 2nd Ave SW to Ridge Rd SW due to roadwork.,248.0,Clearwater Largo Rd S,L,Largo,Pinellas,FL,33770-3235,US,US/Eastern,KPIE,2021-10-04 14:53:00,88.0,88.0,46.0,29.93,10.0,VAR,6.0,0.0,Partly Cloudy,False,False,True,False,False,False,False,False,True,False,False,False,False,Day,Day,Day,Day
C-715304,2,2020-06-17 06:48:48,2020-06-18 15:00:00,45.58979,-121.55035,45.61323,-121.53171,1.8533413321,At Davis Dr/Odell Hwy - Maintenance work.,4772.0,Highway 35,L,Hood River,Hood River,OR,97031-8416,US,US/Pacific,KCZK,2020-06-17 06:53:00,55.0,55.0,83.0,30.25,10.0,CALM,0.0,0.0,Cloudy,False,False,False,False,False,False,False,False,False,False,False,False,False,Day,Day,Day,Day
C-715305,2,2021-10-05 09:13:30,2021-10-05 11:15:28,40.665515,-73.727947,40.663979,-73.729619,0.137629649807,Slow traffic on NY-27 from W Sunrise Hwy to 250th St due to roadwork.,792.0,W Sunrise Hwy,L,Valley Stream,Nassau,NY,11580,US,US/Eastern,KJFK,2021-10-05 09:10:00,61.0,61.0,87.0,30.21,10.0,NE,13.0,0.0,Cloudy,False,False,False,False,False,False,False,False,False,True,False,False,False,Day,Day,Day,Day
C-715306,3,2020-05-10 15:30:26,2020-05-19 12:48:07,42.05363,-87.91044000000002,42.05137,-87.99644,4.41490896538,Between N Wolf Rd/State St/N Broadway St and S Mt Prospect Rd - Roadwork.,599.0,State St,R,Des Plaines,Cook,IL,60016-2267,US,US/Central,KPWK,2020-05-12 14:52:00,61.0,61.0,26.0,29.49,10.0,VAR,6.0,0.0,Partly Cloudy,False,False,False,False,False,False,False,False,False,True,False,False,False,Day,Day,Day,Day
C-715307,2,2021-06-07 12:58:00,2021-11-24 18:27:00,28.303711,-81.456841,28.304363,-81.444216,0.769335214463,Stationary traffic on US-192 E from CR-535/Vineland Rd (US-192) to N Bermuda Ave/N John Young Pkwy (US-192) due to roadwork.,4386.0,W Vine St,L,Kissimmee,Osceola,FL,34746-6313,US,US/Eastern,KISM,2021-11-24 14:56:00,69.0,69.0,53.0,30.15,10.0,ENE,10.0,0.0,Cloudy,False,False,True,False,False,False,False,False,True,False,False,False,False,Day,Day,Day,Day
C-715308,2,2021-09-07 06:57:00,2021-09-07 07:28:30,39.77026400000001,-104.99188999999998,39.761874,-105.00401399999998,0.86640166183,Slow traffic on US-87 N - I-25 N - US-87 S - I-25 S from I-70 (Overpass) (I-25 HOV) to 20th St/Exit 212 (I-25 HOV) due to roadwork.,,US-6 W,R,Denver,Denver,CO,80216,US,US/Mountain,KBJC,2021-09-07 06:47:00,64.0,64.0,19.0,24.54,10.0,CALM,0.0,0.0,Fair,False,False,False,False,False,False,False,False,False,False,False,False,False,Day,Day,Day,Day
C-715309,2,2021-08-30 15:28:05,2021-08-30 17:36:40,28.99887,-81.303341,28.998909,-81.301778,0.0944922631725,Stationary traffic on FL-15A from S Florida Ave to Taylor Rd E / S State Road 15A due to roadwork.,104.0,Taylor Rd W,R,Deland,Volusia,FL,32720,US,US/Eastern,KDED,2021-08-30 15:30:00,92.0,92.0,42.0,29.87,10.0,SSE,6.0,0.0,Fair,False,False,False,False,False,False,False,False,False,False,False,False,False,Day,Day,Day,Day
C-715310,2,2021-02-18 04:33:00,2021-02-18 18:26:25,25.687938,-80.41644000000002,25.685286,-80.41563199999999,0.190017072332,Slow traffic on FL-825 - FL-94 from SW 84th St to SW 134th Ct due to roadwork.,8466.0,SW 137th Ave,R,Miami,Miami-Dade,FL,33183,US,US/Eastern,KTMB,2021-02-18 04:53:00,75.0,75.0,79.0,30.04,10.0,SE,5.0,0.0,Fair,False,False,False,False,False,False,False,False,True,False,False,False,False,Night,Night,Night,Night
C-715311,2,2021-05-07 05:44:00,2021-09-28 20:50:00,42.016062,-122.613144,42.030036,-122.603576,1.08323404908,Slow traffic on Pacific Highway 1 N - I-5 N - OR-99 N from OR--CA State Border (I-5) to Old Siskiyou Hwy/Exit 6 (I-5) due to roadwork.,,I-5 N,R,Ashland,Jackson,OR,97520,US,US/Pacific,KMFR,2021-05-07 05:53:00,47.0,45.0,61.0,28.81,10.0,NW,5.0,0.0,Partly Cloudy,False,False,False,False,True,False,False,False,False,False,False,False,False,Night,Day,Day,Day
C-715312,2,2020-04-20 07:55:45,2020-04-23 04:37:04,41.41118,-82.17135999999998,41.41118,-82.17135999999998,0.0,At Middle Ridge Rd - Roadwork. Right lane closed.,,OH-2 E,R,Lorain,Lorain,OH,44053,US,US/Eastern,KLPR,2020-04-20 09:53:00,42.0,37.0,37.0,28.95,10.0,E,8.0,0.0,Fair,False,False,False,False,False,False,False,False,False,False,False,False,False,Day,Day,Day,Day
C-715313,2,2020-12-18 17:56:30,2020-12-19 03:05:55,33.49573,-112.117057,33.494861,-112.115584,0.1039638978229999,Stationary traffic from W Devonshire Ave to I-17 S due to roadwork.,4119.0,N 27th Ave,R,Phoenix,Maricopa,AZ,85017-4306,US,US/Mountain,KPHX,2020-12-18 17:51:00,62.0,62.0,26.0,28.91,10.0,W,3.0,0.0,Fair,False,False,False,False,False,False,False,False,False,False,False,False,False,Night,Night,Day,Day
C-715314,2,2021-07-06 17:54:00,2021-07-06 19:55:48,41.72082,-87.700232,41.721494,-87.70180400000002,0.09349279055,Stationary traffic on US-20 W - US-12 W from S Albany Ave to W 94th St due to roadwork.,3116.0,W 95th St,R,Evergreen Park,Cook,IL,60805-2405,US,US/Central,KMDW,2021-07-06 17:53:00,88.0,88.0,46.0,29.27,10.0,SSW,16.0,0.0,Partly Cloudy,False,False,True,False,False,False,True,False,False,False,False,False,False,Day,Day,Day,Day
C-715315,2,2019-06-06 04:06:59,2019-06-06 06:00:00,41.52829000000001,-72.744331,,,0.0,Right lane closed due to construction on CT-66 Meriden Rd Westbound at Exit 13 Main St.,684.0,Meriden Rd,L,Middlefield,Middlesex,CT,06455-1033,US,US/Eastern,KMMK,2019-06-06 04:09:00,68.0,68.0,90.0,29.54,10.0,SSE,6.0,0.0,Partly Cloudy,False,False,False,False,False,False,False,False,False,False,False,False,False,Night,Night,Day,Day
C-715316,2,2021-11-22 09:45:00,2021-11-22 10:09:00,39.830627,-75.761787,39.833191,-75.756168,0.346799138068,Stationary traffic from PA-41/Pennsylvania Ave (Baltimore Pike) to PA-82/Union St (Baltimore Pike/State St) due to roadwork.,1599.0,Baltimore Pike,L,Toughkenamon,Chester,PA,19374-1008,US,US/Eastern,KMQS,2021-11-22 09:35:00,43.0,43.0,93.0,29.18,10.0,CALM,0.0,0.0,Fair,False,False,False,False,False,False,False,False,False,True,False,False,False,Day,Day,Day,Day
C-715317,2,2020-09-11 06:05:30,2020-09-12 07:03:42,43.539177,-112.008549,43.524566,-112.028396,1.41687316049,Roadwork on US-20 from N 25th E (US-20) to US-20 Bus/Lewisville Hwy (US-20).,,Rigby Hwy S,R,Idaho Falls,Bonneville,ID,83401,US,US/Mountain,KIDA,2020-09-11 05:53:00,43.0,43.0,74.0,25.35,10.0,CALM,0.0,0.0,Fair,False,False,False,False,False,False,False,False,False,False,False,False,False,Night,Night,Day,Day
C-715318,2,2021-12-03 15:54:02,2021-12-03 18:14:37,25.685172,-80.419318,25.685304,-80.41514699999998,0.259872453963,Slow traffic on FL-94 from 147th Ave (N Kendall Dr) to 130th Ave/132nd Ave (N Kendall Dr) due to roadwork.,13826.0,SW 88th St,L,Miami,Miami-Dade,FL,33186-1304,US,US/Eastern,KTMB,2021-12-03 15:53:00,78.0,78.0,54.0,30.05,10.0,E,10.0,0.0,Mostly Cloudy,False,False,True,False,False,False,False,False,False,False,False,False,False,Day,Day,Day,Day
C-715319,2,2021-11-19 07:34:30,2021-11-19 07:54:30,35.423174,-97.618979,35.423044,-97.613964,0.282506480548,Slow traffic on OK-152 E from S Council Rd (OK-152) to S MacArthur Blvd (OK-152) due to roadwork.,,Airport Rd E,R,Oklahoma City,Oklahoma,OK,73179,US,US/Central,KOKC,2021-11-19 07:52:00,33.0,27.0,66.0,29.0,10.0,S,7.0,0.0,Mostly Cloudy,False,False,False,False,False,False,False,False,False,False,False,False,False,Day,Day,Day,Day
C-715320,2,2021-09-14 17:35:30,2021-09-14 19:45:09,42.041012,-87.706287,42.039869,-87.71079499999998,0.244431893582,Stationary traffic from Pitner Ave to Main St due to roadwork.,2330.0,Dempster St,L,Evanston,Cook,IL,60202,US,US/Central,KORD,2021-09-14 17:51:00,77.0,77.0,50.0,29.09,10.0,NW,17.0,0.0,Mostly Cloudy,False,False,False,False,False,False,False,False,False,False,False,False,False,Day,Day,Day,Day
C-715321,2,2021-10-06 11:05:30,2021-10-06 11:35:00,47.331197,-106.289018,47.32686500000001,-106.268733,0.995997513554,Slow traffic on MT-200 from MT-59/MT-22 (MT-200) to MT-24/South Flowing Wells Rd (MT-200) due to roadwork.,3109.0,Highway 200 E,R,Cohagen,Garfield,MT,59322,US,US/Mountain,KJDN,2021-10-06 10:48:00,71.0,71.0,21.0,27.02,,E,3.0,0.0,,False,False,False,False,False,False,False,False,False,False,False,False,False,Day,Day,Day,Day
C-715323,2,2020-09-08 12:57:54,2020-09-10 18:15:23,35.18725300000001,-101.94134,35.189322,-101.980144,2.19582222186,Roadwork on I-40 from S Coulter St/Exit 65 (I-40) to Hope Rd/Exit 62A (I-40).,,I-40 W,R,Amarillo,Potter,TX,79124,US,US/Central,KAMA,2020-09-08 12:53:00,47.0,38.0,93.0,26.32,2.0,N,28.0,0.0,Light Rain / Windy,False,False,False,False,True,False,False,False,False,False,False,False,False,Day,Day,Day,Day
C-715324,2,2019-11-12 19:56:03,2019-11-16 19:55:42,33.80458,-117.50597,34.02838,-117.55005,15.6682979708,Between Weirick Rd and CA-60 - Roadwork.,,Corona Fwy N,R,Corona,Riverside,CA,92883,US,US/Pacific,KAJO,2019-11-12 19:56:00,63.0,63.0,84.0,29.44,5.0,WSW,7.0,0.0,Fair,False,False,False,False,False,False,False,False,False,False,False,False,False,Night,Night,Night,Night
C-715325,2,2021-08-25 18:16:30,2021-08-25 20:43:19,42.690005,-83.370728,42.690615,-83.372846,0.1155266222529999,Stationary traffic from Seebaldt Ave to Quillen Ave due to roadwork.,4138.0,W Walton Blvd,R,Waterford,Oakland,MI,48329-4178,US,US/Eastern,KPTK,2021-08-25 17:53:00,88.0,88.0,53.0,29.01,10.0,SW,8.0,0.0,Partly Cloudy,False,False,True,False,False,False,False,False,False,False,False,False,False,Day,Day,Day,Day
C-715326,2,2021-12-26 10:58:30,2021-12-26 11:22:00,37.430883,-106.889318,37.40419,-106.897758,1.90157636567,Slow traffic on US-160 W - US-160 E from CO-149 (US-160) to US-84 (US-160) due to roadwork.,,E Highway 160,R,Creede,Mineral,CO,81130,US,US/Mountain,KCPW,2021-12-26 10:55:00,33.0,21.0,72.0,22.4,5.0,SW,22.0,0.0,Cloudy / Windy,False,False,False,False,False,False,False,False,False,False,False,False,False,Day,Day,Day,Day
C-715327,4,2021-12-13 09:00:00,2021-12-17 15:45:00,37.062607,-76.422886,37.059547,-76.423579,0.214850757258,Construction on I-64 EB near MM 261 Use alternate exit ramp.,,I-64 E,R,Hampton,Hampton,VA,23666,US,US/Eastern,KLFI,2021-12-13 08:56:00,43.0,39.0,66.0,30.43,10.0,SW,6.0,0.0,Fair,False,False,False,False,True,False,False,False,False,False,False,False,False,Day,Day,Day,Day
C-715328,2,2020-11-22 19:27:30,2020-11-22 23:10:09,28.394584,-81.82641,28.401129,-81.828052,0.463097847006,Stationary traffic on FL-33 from Bronson Ranch Rd (Commonwealth Ave/FL-33) to CR-561 (FL-33) due to roadwork.,3188.0,State Road 33,R,Clermont,Lake,FL,34714-8620,US,US/Eastern,KISM,2020-11-22 19:56:00,70.0,70.0,93.0,29.98,10.0,CALM,0.0,0.0,Fair,False,False,False,False,False,False,False,False,False,False,False,False,False,Night,Night,Night,Night
C-715329,2,2021-12-03 14:29:24,2021-12-03 16:37:39,28.568395,-81.28406899999997,28.567612,-81.286174,0.138718561396,Stationary traffic on FL-551 - FL-50 from Regan Ave to Marietta St due to roadwork.,7665.0,E Colonial Dr,L,Orlando,Orange,FL,32807-8407,US,US/Eastern,KORL,2021-12-03 14:53:00,77.0,77.0,45.0,29.95,10.0,CALM,0.0,0.0,Fair,False,False,False,False,False,False,False,False,False,False,False,False,False,Day,Day,Day,Day
C-715330,2,2020-08-05 16:00:00,2020-08-08 06:59:59,40.774983,-74.04106999999998,40.774344,-74.041545,0.0506654176709999,Construction on US 1&amp;9/Tonnelle Avenue both directions NJ 495/NJ 3 (North Bergen Twp) to Paterson Plank Road (North Bergen Twp) Wednesday August 5th 2020 thru Friday August 7th 2020 Wednesday/ Thursday/ Friday 09:00 AM thru 03:00 PM 1 lane closed,2731.0,Tonnelle Ave,L,North Bergen,Hudson,NJ,07047-2241,US,US/Eastern,KNYC,2020-08-05 15:51:00,85.0,85.0,44.0,29.91,10.0,CALM,0.0,0.0,,False,False,True,False,False,False,False,False,False,False,False,False,False,Day,Day,Day,Day
C-715331,2,2021-12-21 11:19:30,2021-12-21 11:41:00,34.925161,-95.741869,34.90932100000001,-95.745659,1.11530464685,Slow traffic on US-69 S from US-270 (US-69) to US-69 (McAlester) (US-69) due to roadwork.,,US-69 S,R,McAlester,Pittsburg,OK,74501,US,US/Central,KMLC,2021-12-21 11:01:00,42.0,42.0,92.0,29.28,8.0,S,3.0,0.0,Mostly Cloudy,False,False,False,True,False,False,False,False,False,False,False,False,False,Day,Day,Day,Day
C-715332,2,2019-08-21 06:00:00,2019-08-22 19:00:00,39.770601,-105.811684,39.770723,-105.810853,0.0449288957542,At Main St/Bard Creek Rd - Roadwork.,6205.0,US Highway 40,R,Empire,Clear Creek,CO,80438,US,US/Mountain,K0CO,2019-08-21 05:53:00,42.0,42.0,62.0,21.04,10.0,E,3.0,0.0,Fair,False,False,False,False,False,False,False,False,False,False,False,False,False,Night,Day,Day,Day
C-715333,2,2021-12-19 18:30:30,2021-12-19 20:37:44,40.223814,-74.885173,40.226494,-74.884623,0.187429738687,Stationary traffic from Floral Vale Blvd to Floral Vale Commerce Ctr due to roadwork.,790.0,Township Line Rd,R,Yardley,Bucks,PA,19067-4200,US,US/Eastern,KTTN,2021-12-19 18:53:00,31.0,23.0,61.0,29.98,10.0,NNW,8.0,0.0,Fair,False,False,False,False,False,False,False,False,False,False,False,False,False,Night,Night,Night,Night
C-715334,2,2020-09-17 15:00:00,2020-09-18 18:26:55,40.662161,-75.42324,40.64975,-75.430314,0.934252324029,Construction on PA-987 SB near SCHOENERSVILLE RD Allow extra time.,,Airport Rd,R,Allentown,Lehigh,PA,18109,US,US/Eastern,KABE,2020-09-17 14:51:00,73.0,73.0,57.0,29.58,10.0,WSW,5.0,0.0,Fair,False,False,True,False,False,False,False,False,False,False,False,True,False,Day,Day,Day,Day
C-715335,2,2021-08-20 01:20:30,2021-08-20 03:24:00,46.868755,-113.942929,46.876245,-113.988323,2.20570617017,Slow traffic on US-12 W - I-90 W - MT-200 W from MT-200/Exit 109 (I-90) to Orange St/Exit 104 (I-90) due to roadwork.,,I-90 W,R,Missoula,Missoula,MT,59802,US,US/Mountain,KMSO,2021-08-20 00:53:00,64.0,64.0,56.0,26.62,10.0,N,8.0,0.0,Mostly Cloudy,False,False,False,False,False,False,False,False,False,False,False,False,False,Night,Night,Night,Night
C-715336,2,2018-06-28 08:30:00,2018-06-28 16:00:00,33.407291,-111.987823,,,1.39999997616,Intermittent lane closures due to construction work on Broadway Rd both ways between 40th St and 43rd Pl.,4301.0,E Broadway Rd,R,Phoenix,Maricopa,AZ,85040-8807,US,US/Mountain,KPHX,2018-06-28 08:51:00,93.0,,20.0,29.78,10.0,Calm,,,Partly Cloudy,False,False,True,False,False,False,False,False,False,False,False,True,False,Day,Day,Day,Day
C-715337,2,2021-02-26 06:35:00,2021-02-26 19:30:55,40.808088,-77.896401,40.80842,-77.895146,0.0695257745998,Stationary traffic on US-322 Bus W - US-322 Bus E from Patton to Waddle Rd due to roadwork.,1670.0,N Atherton St,R,State College,Centre,PA,16803-1416,US,US/Eastern,KUNV,2021-02-26 06:53:00,28.0,28.0,64.0,29.01,10.0,CALM,0.0,0.0,Fair,False,False,True,False,False,False,False,False,False,False,False,False,False,Night,Day,Day,Day
C-715338,2,2021-04-05 06:57:30,2021-04-05 17:52:37,42.069781,-88.043987,42.068424,-88.043983,0.0937599947931999,Slow traffic from Old Plum Grove Rd (S Meacham Rd) to IL-62/E Algonquin Rd (N Meacham Rd) due to roadwork.,2240.0,S Meacham Rd,R,Palatine,Cook,IL,60067-7462,US,US/Central,KPWK,2021-04-05 06:52:00,66.0,66.0,52.0,29.23,10.0,SSW,13.0,0.0,Fair,False,False,True,False,False,False,False,False,False,False,False,True,False,Day,Day,Day,Day
C-715339,2,2021-03-29 06:47:00,2021-03-29 21:08:27,33.506856,-112.117003,33.509453,-112.117517,0.181862584798,Slow traffic from W Highland Ave to N 28th Ave due to roadwork.,4751.0,N 27th Ave,R,Phoenix,Maricopa,AZ,85017,US,US/Mountain,KPHX,2021-03-29 06:51:00,60.0,60.0,26.0,28.72,10.0,E,8.0,0.0,Partly Cloudy,True,False,False,False,False,False,False,False,True,False,False,False,False,Day,Day,Day,Day
C-715340,3,2018-10-16 21:00:00,2018-10-17 05:00:00,26.308271,-80.11865999999998,,,0.7699999809270001,Exit ramp from I-95 Southbound at Exit 41 to FL-869 closed due to construction.,,I-95 S,R,Deerfield Beach,Broward,FL,33441,US,US/Eastern,KPMP,2018-10-16 20:53:00,84.0,,74.0,30.08,10.0,East,11.5,,Scattered Clouds,False,False,False,False,True,False,False,False,False,False,False,False,False,Night,Night,Night,Night
C-715341,2,2019-06-25 04:22:09,2019-06-26 10:00:00,44.053242,-123.094269,,,0.0,Intermittent lane closures due to maintenance work on Olive St both ways between 5th Ave and OR-126-BR 6th Ave.,57.0,W 6th Ave,R,Eugene,Lane,OR,97401-2605,US,US/Pacific,KEUG,2019-06-25 03:54:00,52.0,52.0,74.0,29.52,10.0,S,8.0,0.0,Mostly Cloudy,False,False,True,False,False,False,False,False,False,False,False,True,False,Night,Night,Day,Day
C-715342,2,2021-02-20 05:59:00,2021-02-20 16:21:12,39.741498,-105.109633,39.740125,-105.10878,0.105134358357,Slow traffic on US-40 E - CO-391 - I-70 Bus E from W 17th Ave to Iris St due to roadwork.,1567.0,Kipling St,L,Lakewood,Jefferson,CO,80215-2838,US,US/Mountain,KBJC,2021-02-20 05:45:00,28.0,28.0,55.0,24.25,10.0,CALM,0.0,0.0,Partly Cloudy,False,False,False,False,False,False,False,False,True,False,False,False,False,Night,Night,Day,Day
C-715343,2,2021-02-02 00:05:32,2021-02-03 00:50:32,35.085064,-89.87660699999998,35.083864,-89.891367,0.8386321497229999,Construction on I-240 WB near MM 17 Construction. Right lane closed.,,I-240 W,R,Memphis,Shelby,TN,38119,US,US/Central,KOLV,2021-02-02 00:15:00,34.0,27.0,81.0,29.83,10.0,N,8.0,0.0,Cloudy,False,False,False,False,True,False,False,False,False,False,False,False,False,Night,Night,Night,Night
C-715344,2,2021-03-03 19:00:00,2021-12-29 19:10:30,40.725457,-111.89354,40.725483,-111.899708,0.322974180416,Slow traffic from US-89/S State St (E 2100 S) to S 300 W (W 2100 S) due to roadwork.,80.0,W 2100 S,R,Salt Lake City,Salt Lake,UT,84115-2330,US,US/Mountain,KSLC,2021-10-13 16:54:00,48.0,44.0,28.0,25.67,10.0,WNW,8.0,0.0,Mostly Cloudy,False,False,True,False,False,False,False,False,False,False,False,True,False,Night,Night,Day,Day
C-715345,2,2021-04-07 06:37:00,2021-04-07 15:21:00,40.223066,-77.019188,40.227916,-77.02928,0.629071285342,Stationary traffic on PA-114 from PA-641/York St/W Main St (PA-114) to US-11/Carlisle Pike (Hogestown Rd/PA-114) due to roadwork.,117.0,Hogestown Rd,R,Mechanicsburg,Cumberland,PA,17050-3117,US,US/Eastern,KCXY,2021-04-07 06:56:00,52.0,52.0,61.0,29.6,10.0,CALM,0.0,0.0,Fair,False,False,False,False,False,False,False,False,False,False,False,False,False,Night,Day,Day,Day
C-715346,2,2021-07-09 12:23:22,2021-11-11 13:41:14,33.521901,-112.065001,33.523747,-112.065909,0.137853363315,Stationary traffic from E Palo Verde Dr to N 4th Pl due to roadwork.,600.0,E Palo Verde Dr,L,Phoenix,Maricopa,AZ,85014,US,US/Mountain,KPHX,2021-11-11 10:51:00,77.0,77.0,19.0,28.9,10.0,VAR,6.0,0.0,Fair,True,False,False,False,False,True,False,False,True,False,False,False,False,Day,Day,Day,Day
C-715347,2,2021-12-17 18:06:30,2021-12-17 18:31:00,40.395306,-86.889938,40.395691,-86.895935,0.316686150858,Stationary traffic on US-52 W - US-52 E from S 18th St (Teal Rd/IN-25) to S 4th St (Teal Rd/IN-25) due to roadwork.,623.0,Teal Rd,R,Lafayette,Tippecanoe,IN,47909,US,US/Eastern,KLAF,2021-12-17 17:54:00,37.0,31.0,82.0,29.5,10.0,E,8.0,0.0,Cloudy,False,False,False,False,False,False,False,False,False,False,False,True,False,Night,Night,Day,Day
C-715348,4,2020-05-31 16:31:39,2020-07-29 21:51:58,41.98447,-87.8233,41.98352,-87.81685,0.337708038421,Closed at N Oriole Ave - Closed due to roadwork.,,N Canfield Ave,R,Chicago,Cook,IL,60631,US,US/Central,KORD,2020-06-03 07:51:00,67.0,67.0,90.0,29.07,6.0,WSW,17.0,0.0,Light Rain,False,False,True,False,False,False,False,False,True,True,False,True,False,Day,Day,Day,Day
C-715349,2,2021-09-28 10:49:00,2021-09-28 13:10:10,33.53862,-112.107082,33.539336,-112.099495,0.4397275200850001,Slow traffic from I-17 N to W Myrtle Ave due to roadwork.,2250.0,W Glendale Ave,R,Phoenix,Maricopa,AZ,85021-7746,US,US/Mountain,KDVT,2021-09-28 10:53:00,78.0,78.0,58.0,28.28,10.0,SE,9.0,0.0,Partly Cloudy,True,False,False,False,False,True,False,False,True,False,False,False,False,Day,Day,Day,Day
C-715350,4,2021-10-23 10:37:00,2021-10-24 02:00:38,31.56002100000001,-97.130124,31.562545,-97.126856,0.259671545576,Bridge closure from N 4th St to S Martin Luther King Jr Blvd / N Martin Luther King Jr Blvd.,157.0,Washington Ave,R,Waco,McLennan,TX,76701-1435,US,US/Central,KACT,2021-10-23 10:51:00,77.0,77.0,76.0,29.4,10.0,S,17.0,0.0,Cloudy,False,False,False,False,False,False,False,False,False,False,False,True,False,Day,Day,Day,Day
C-715351,1,2020-05-22 04:15:56,2020-05-22 23:59:00,36.391998,-97.853188,,,0.0,Road closed due to paving repairs on 17th St between US-412 Owen K Garriott Rd and Park St.,1703.0,E Park St,R,Enid,Garfield,OK,73701-6381,US,US/Central,KWDG,2020-05-22 04:15:00,59.0,59.0,94.0,28.54,1.0,NNW,32.0,0.0,Heavy Rain / Windy,False,False,False,False,False,False,False,False,False,False,False,False,False,Night,Night,Night,Night
C-715352,2,2021-10-12 12:15:00,2021-10-12 12:44:30,42.038012,-87.747176,42.040786,-87.748048,0.1968191132599999,Slow traffic on US-41 S - IL-58 - US-41 N from Conrad St to Niles Center Rd due to roadwork.,4801.0,Conrad St,L,Skokie,Cook,IL,60077,US,US/Central,KORD,2021-10-12 11:51:00,62.0,62.0,93.0,29.15,8.0,WSW,10.0,0.0,Light Drizzle,False,False,False,False,False,False,False,False,True,True,False,True,False,Day,Day,Day,Day
C-715353,2,2021-02-13 06:31:30,2021-02-13 18:59:17,26.437829,-80.071766,26.439809000000004,-80.0722,0.1394149794859999,Slow traffic on US-1 N - FL-5 from Eve St to Old Dixie Hwy / Linton Blvd due to roadwork.,1905.0,S Federal Hwy,R,Delray Beach,Palm Beach,FL,33483-3312,US,US/Eastern,KBCT,2021-02-13 06:53:00,76.0,76.0,91.0,29.94,9.0,S,20.0,0.0,Partly Cloudy,False,False,True,False,False,False,False,False,False,False,False,False,False,Night,Night,Day,Day
C-715354,2,2020-09-06 04:28:35,2020-09-06 09:36:51,40.790745,-73.792687,40.817945,-73.804137,1.97244146439,Construction construction on Throgs Neck Bridge northbound (Bronx/Queens) 2 Right Lanes closed,,Throgs Neck Brg N,R,Whitestone,Queens,NY,11357,US,US/Eastern,KLGA,2020-09-06 04:51:00,72.0,72.0,51.0,30.14,10.0,SSW,8.0,0.0,Fair,False,False,False,False,False,False,False,False,False,False,False,False,False,Night,Night,Night,Night
C-715356,2,2020-10-11 19:40:00,2020-10-11 20:48:00,45.203183,-93.571707,45.194827,-93.552654,1.09261644216,Slow traffic on I-94 from MN-241/CR-36/Exit 205 (I-94) to MN-101/Exit 207 (I-94) due to roadwork.,,I-94 E,R,Rogers,Hennepin,MN,55374,US,US/Central,KMIC,2020-10-11 19:53:00,64.0,64.0,65.0,28.66,10.0,ESE,16.0,0.0,Fair,False,False,False,False,False,False,False,False,False,False,False,False,False,Night,Night,Night,Day
C-715357,3,2019-04-23 23:53:33,2019-04-24 04:01:00,34.317348,-118.48954,,,2.67000007629,Three lanes closed due to paving repairs on I-5 Southbound between Exits 161B 162 I-5-TRUCK and I-5-TRUCK.,,Foothill Fwy W,R,Sylmar,Los Angeles,CA,91342,US,US/Pacific,KWHP,2019-04-23 19:50:00,73.0,73.0,44.0,28.87,10.0,S,8.0,,Fair,False,False,False,False,False,False,False,False,False,False,False,False,False,Night,Night,Night,Night
C-715358,2,2020-04-20 12:29:10,2020-04-21 12:29:10,42.31935,-88.44303000000002,42.35685,-88.31603,6.984591339139999,Between IL-47/N Seminary Rd/N Eastwood Dr and N Ringwood Rd/N Draper Rd - Resurfacing work.,303.0,McHenry Ave,L,Woodstock,McHenry,IL,60098-2917,US,US/Central,KBUU,2020-04-20 12:35:00,57.0,57.0,26.0,28.84,10.0,WSW,12.0,0.0,Fair,False,False,False,False,False,False,False,False,False,True,False,True,False,Day,Day,Day,Day
C-715359,2,2018-11-29 21:03:06,2018-12-25 21:02:30,25.73501,-80.25638199999999,25.73515,-80.251369,0.312159709604,At US-1/S Dixie Hwy - Construction work.,3819.0,Bird Rd,R,Miami,Miami-Dade,FL,33146-1510,US,US/Eastern,KMIA,2018-12-13 20:53:00,72.0,,78.0,30.1,10.0,SE,4.6,,Mostly Cloudy,False,False,True,False,False,False,False,False,False,False,False,True,False,Night,Night,Night,Night
C-715360,2,2020-12-11 12:51:30,2020-12-11 22:59:43,28.251736,-81.487225,28.256064,-81.48734,0.299118216805,Slow traffic on US-92 W - US-17 S from Robert McLane Blvd / Industrial Ln to Kissimmee due to roadwork.,1795.0,S Poinciana Blvd,L,Kissimmee,Osceola,FL,34758-2005,US,US/Eastern,KISM,2020-12-11 12:56:00,71.0,71.0,45.0,30.08,10.0,VAR,3.0,0.0,Mostly Cloudy,False,False,False,False,False,False,False,False,False,False,False,False,False,Day,Day,Day,Day
C-715361,2,2019-05-29 05:35:52,2019-06-03 20:00:00,35.000999,-85.11020699999997,,,3.05999994278,Intermittent lane closures due to paving repairs and construction work on TN-320 Brainerd Rd both ways from TN-321 Ooltewah-Ringgold Rd to Raintree Ln.,9426.0,E Brainerd Rd,R,Chattanooga,Hamilton,TN,37421-3404,US,US/Eastern,KCHA,2019-05-29 05:53:00,71.0,71.0,84.0,29.2,10.0,CALM,0.0,0.0,Mostly Cloudy,False,False,False,False,False,False,False,False,False,False,False,False,False,Night,Night,Day,Day
C-715362,2,2021-06-22 17:35:30,2021-06-22 19:38:00,45.519209,-122.475109,45.518642,-122.477091,0.103641840012,Stationary traffic from E Burnside St to SE 180th Ave due to roadwork.,18277.0,SE Stark St,L,Portland,Multnomah,OR,97233-4862,US,US/Pacific,KTTD,2021-06-22 17:53:00,83.0,83.0,44.0,29.75,10.0,CALM,0.0,0.0,Fair,False,False,False,False,False,False,False,False,True,False,False,False,False,Day,Day,Day,Day
C-715363,2,2018-06-18 13:00:00,2021-10-16 06:59:59,44.934131,-93.274513,44.96186,-93.26923,1.93323068975,Lane closed on I-35W N from 46th St/Exit 13 (I-35W) to 5th Ave (I-35W) due to roadwork.,,E 38th St,R,Minneapolis,Hennepin,MN,55409,US,US/Central,KMSP,2018-06-18 12:53:00,71.1,,90.0,30.01,10.0,NNE,10.4,0.05,Overcast,False,False,False,False,True,False,False,False,False,False,False,False,False,Day,Day,Day,Day
C-715364,2,2021-09-21 15:22:59,2021-09-21 15:42:59,40.71988,-73.99526999999998,40.721064,-73.998196,0.173693914419,Slow traffic from Bowery (Broome St) to Lafayette St (Broome St) due to roadwork.,356.0,Broome St,R,New York,New York,NY,10012,US,US/Eastern,KJRB,2021-09-21 15:51:00,74.0,,68.0,30.2,10.0,,,0.0,Mostly Cloudy,True,False,True,False,False,False,False,False,False,False,False,True,False,Day,Day,Day,Day
C-715365,2,2021-03-03 04:08:30,2021-03-03 17:58:43,33.464685,-112.151837,33.465949,-112.15239,0.0929689228731,Slow traffic from I-10 W to N 45th Ave due to roadwork.,1511.0,N 43rd Ave,R,Phoenix,Maricopa,AZ,85009-3101,US,US/Mountain,KPHX,2021-03-03 03:51:00,54.0,54.0,25.0,28.67,10.0,E,7.0,0.0,Fair,False,False,False,False,False,False,False,False,True,False,False,False,False,Night,Night,Night,Night
C-715366,2,2020-09-15 12:29:45,2020-09-17 08:56:04,41.105769,-87.835008,41.145429,-87.83715,2.7425118243,Roadwork on I-57 from US-45/US-52 (I-57) to IL-50 (I-57).,,I-57 N,R,Kankakee,Kankakee,IL,60901,US,US/Central,KIKK,2020-09-15 12:37:00,73.0,73.0,50.0,29.58,10.0,S,5.0,0.0,Fair,False,False,False,False,False,False,False,False,False,False,False,False,False,Day,Day,Day,Day
C-715367,2,2017-05-03 15:54:40,2017-05-04 01:54:46,42.247617,-84.400527,42.252343,-84.379506,1.12359736264,Between US-127-BR/M-50/West Ave and US-127 - Roadwork.,375.0,Hupp St,R,Jackson,Jackson,MI,49201,US,US/Eastern,KJXN,2017-05-03 15:56:00,59.0,,41.0,30.14,10.0,Variable,5.8,,Clear,False,False,False,False,False,False,False,False,False,False,False,False,False,Day,Day,Day,Day
C-715368,2,2020-11-24 13:00:51,2020-11-25 09:57:31,31.380669,-102.348407,31.364629,-102.348663,1.10836133972,Roadwork on TX-329/6th St (S Main St/S Gaston St/US-385) from S Cowden Rd (US-385) to US-385 N - US-385 S.,101.0,E 22nd St,R,Crane,Crane,TX,79731,US,US/Central,KODO,2020-11-24 12:53:00,75.0,75.0,18.0,26.73,10.0,W,25.0,0.0,Fair / Windy,False,False,False,False,False,False,False,False,False,False,False,False,False,Day,Day,Day,Day
C-715369,2,2021-06-10 10:22:00,2021-06-10 12:27:41,26.033517,-80.144244,26.032946,-80.14329599999998,0.0708546458655,Slow traffic on US-1 N - FL-822 - US-1 S - FL-5 from N 19th Ave to Sherman St due to roadwork.,1844.0,Sheridan St,L,Hollywood,Broward,FL,33020-2117,US,US/Eastern,KFLL,2021-06-10 09:53:00,84.0,84.0,72.0,30.07,10.0,SE,13.0,0.0,Partly Cloudy,False,False,False,False,False,False,False,False,False,False,False,False,False,Day,Day,Day,Day
C-715370,4,2020-08-29 04:45:13,2020-08-30 05:31:20,39.255336,-77.45375200000002,39.256106,-77.455393,0.102656966607,Construction on MD-28 WB near MP 7 Expect delays.,6126.0,Dickerson Rd,R,Dickerson,Frederick,MD,20842,US,US/Eastern,KJYO,2020-08-29 04:52:00,72.0,72.0,97.0,29.39,10.0,CALM,0.0,0.0,Cloudy,False,False,False,False,False,False,False,False,False,False,False,False,False,Night,Night,Night,Night
C-715371,2,2021-11-10 11:03:00,2021-12-10 12:59:59,28.875326,-81.686976,28.873924,-81.688064,0.1171192371289999,Stationary traffic on FL-19 from North St to N County Road 452 / N Bay St due to roadwork.,,E County Road 44,R,Eustis,Lake,FL,32726,US,US/Eastern,KLEE,2021-12-10 10:53:00,76.0,76.0,74.0,30.09,10.0,E,5.0,0.0,Fair,False,False,False,False,False,False,False,False,False,False,False,False,False,Day,Day,Day,Day
C-715372,3,2019-04-17 08:30:32,2019-08-29 00:30:14,36.07978,-79.95746,36.065239,-79.915306,2.55956968752,Between NC-68/Regional Rd/Exit 210 and I-73/US-421 - Maintenance work. Two lanes blocked. Lane blocked.,,US-421 S,R,Greensboro,Guilford,NC,27409,US,US/Eastern,KGSO,2019-04-17 08:54:00,60.0,60.0,60.0,29.14,10.0,W,5.0,0.0,Mostly Cloudy,False,False,False,False,False,False,False,False,False,False,False,False,False,Day,Day,Day,Day
C-715373,2,2020-09-06 13:53:00,2020-09-07 02:42:00,26.100559,-80.125675,26.100433,-80.13069899999998,0.311848347148,Stationary traffic on FL-A1A from Seabreeze Blvd/S Atlantic Blvd (FL-A1A) to US-1/17th St (FL-A1A) due to roadwork.,1599.0,SE 17th St,R,Fort Lauderdale,Broward,FL,33316-1701,US,US/Eastern,KFLL,2020-09-06 13:53:00,88.0,88.0,70.0,29.96,10.0,ESE,13.0,0.0,Mostly Cloudy,False,False,True,False,False,False,False,False,False,False,False,True,False,Day,Day,Day,Day
C-715374,2,2019-02-11 09:02:58,2019-02-16 09:02:11,37.33247,-121.884941,37.33247,-121.88494,5.49382463719e-05,At 3rd St - Construction work.,102.0,E San Carlos St,R,San Jose,Santa Clara,CA,95112-3670,US,US/Pacific,KSJC,2019-02-12 08:53:00,45.0,41.8,76.0,30.08,10.0,South,5.8,,Overcast,False,False,True,False,False,False,False,False,False,False,False,True,False,Day,Day,Day,Day
C-715375,2,2021-04-14 13:51:30,2021-04-16 16:29:43,25.882859,-80.122325,25.887747,-80.123114,0.341271249769,Slow traffic on FL-A1A from FL-934/71st St (FL-A1A) to FL-826/Ocean Blvd/163rd St (FL-A1A) due to roadwork.,9367.0,Collins Ave,R,Surfside,Miami-Dade,FL,33154-2608,US,US/Eastern,KOPF,2021-04-14 13:53:00,82.0,82.0,49.0,30.08,10.0,E,16.0,0.0,Fair,False,False,True,False,False,False,False,False,False,False,False,True,False,Day,Day,Day,Day
C-715376,2,2019-07-29 23:00:00,2019-07-30 06:00:00,33.69461,-112.11345,33.71716,-112.11825,1.58229572305,Between Deer Valley Rd/Exit 217B and Happy Valley Rd/Exit 218 - Roadwork. Carpool lane blocked.,,Black Canyon Fwy N,R,Phoenix,Maricopa,AZ,85027,US,US/Mountain,KDVT,,,,,,,,,,,False,False,False,False,False,False,False,False,False,False,False,False,False,Night,Night,Night,Night
C-715377,2,2019-05-06 18:03:01,2019-05-10 18:02:34,41.684367,-73.06826600000002,41.65232,-73.07936,2.28707486544,Between CT-222/Main St/Exit 40 and US-6/CT-254/Exit 38 - Bridge maintenance work.,,CT-8 S,R,Thomaston,Litchfield,CT,06787,US,US/Eastern,KOXC,2019-05-06 17:51:00,62.0,62.0,65.0,29.26,10.0,SSW,7.0,0.0,Cloudy,False,False,False,False,False,False,False,False,False,False,False,False,False,Day,Day,Day,Day
C-715378,2,2020-05-29 07:07:43,2020-05-29 09:07:43,41.70708,-91.66453,41.68853,-91.60897,3.13982058315,Between IA-109/Cr-w38 and Coral Ridge Ave - Roadwork. Lane closed.,122.0,W Marengo Rd,L,Tiffin,Johnson,IA,52340-9401,US,US/Central,KIOW,2020-05-29 06:52:00,57.0,57.0,74.0,29.33,10.0,NW,8.0,0.0,Fair,False,False,False,False,False,False,False,False,False,False,False,True,False,Day,Day,Day,Day
C-715379,3,2021-09-21 22:00:00,2021-09-22 05:00:00,34.153568,-118.278038,,,1.08000004292,Exit ramp from CA-134 Westbound to I-5 Northbound closed due to construction work.,,CA-134 W,R,Glendale,Los Angeles,CA,91201,US,US/Pacific,KBUR,2021-09-21 21:53:00,83.0,83.0,28.0,29.24,10.0,WNW,3.0,0.0,Fair,False,False,False,False,False,False,False,False,False,False,False,False,False,Night,Night,Night,Night
C-715380,2,2021-12-19 17:06:30,2021-12-19 20:55:25,38.13834,-85.682376,38.138195,-85.688703,0.343977538763,Slow traffic on KY-1065 from Shepherdsville Rd (Outer Loop/KY-1065) to I-65/Minor Ln (Outer Loop/KY-1065) due to roadwork.,4237.0,Outer Loop,L,Louisville,Jefferson,KY,40219-3850,US,US/Eastern,KSDF,2021-12-19 16:56:00,37.0,32.0,67.0,29.8,10.0,NNE,6.0,0.0,Cloudy,False,False,False,False,False,False,False,False,False,False,False,False,False,Day,Day,Day,Day
C-715381,2,2020-10-09 05:11:00,2020-10-09 06:11:00,42.06449,-122.60176,42.073566,-122.60560900000002,0.6574329014399999,Slow traffic on I-5 from OR-99/Exit 1 (I-5) to Old Siskiyou Hwy/Exit 6 (I-5) due to roadwork.,,I-5 N,R,Ashland,Jackson,OR,97520,US,US/Pacific,KMFR,2020-10-09 04:53:00,47.0,47.0,68.0,28.54,4.0,CALM,0.0,0.0,Haze,False,False,False,False,True,False,False,False,False,False,False,False,False,Night,Night,Night,Night
C-715382,2,2021-06-11 11:30:56,2021-06-11 11:50:56,33.612531,-92.77541,33.590361,-92.7984,2.02406622901,Slow traffic on US-79 S - US-278 W - AR-4 from US-79/AR-4 (US-278/AR-4) to AR-376/Bradley Ferry Rd (US-278/AR-4) due to roadwork.,,Highway 79 N,R,Camden,Ouachita,AR,71701,US,US/Central,KCDH,2021-06-11 11:35:00,84.0,84.0,84.0,29.77,6.0,WSW,6.0,0.0,Haze,False,False,False,False,False,False,False,False,False,False,False,False,False,Day,Day,Day,Day
C-715383,2,2020-02-26 03:12:33,2020-02-26 15:00:00,43.04319,-78.82483,43.04319,-78.82483,0.0,At CR-2/Tonawanda Creek Rd - Roadwork.,,Niagara Falls Blvd,R,Buffalo,Erie,NY,14228,US,US/Eastern,KBUF,2020-02-26 03:09:00,35.0,27.0,72.0,29.14,8.0,NE,12.0,0.0,Light Snow,False,False,False,False,False,False,False,False,False,False,False,False,False,Night,Night,Night,Night
C-715384,2,2018-06-18 07:00:00,2018-07-30 17:00:00,40.25157700000001,-84.69487099999998,40.264982,-84.700415,0.971233441985,At Rossburg Lightsville Road - Roadwork.,,State Route 49,R,Rossburg,Darke,OH,45362,US,US/Eastern,KVES,2018-06-18 06:50:00,,,,,,North,,,,False,False,False,False,False,False,False,False,False,False,False,False,False,Day,Day,Day,Day
C-715385,2,2021-02-19 05:32:30,2021-02-19 17:53:55,33.596328,-112.119291,33.596309000000005,-112.116282,0.173178442572,Stationary traffic from N 35th Ave (W Cactus Rd) to I-17/N Black Canyon Hwy (W Cactus Rd) due to roadwork.,2759.0,W Cactus Rd,R,Phoenix,Maricopa,AZ,85029,US,US/Mountain,KDVT,2021-02-19 05:53:00,44.0,41.0,31.0,28.63,10.0,NE,6.0,0.0,Fair,True,False,True,False,False,False,False,False,False,False,False,True,False,Night,Night,Night,Night
C-715386,2,2020-10-12 19:33:07,2020-10-12 20:40:00,38.349484,-88.950816,38.405444,-88.949896,3.86678886486,Slow traffic on I-57 from I-64 (I-57) to CR-39/Exit 103 (I-57) due to roadwork.,,I-57 N,R,Mount Vernon,Jefferson,IL,62864,US,US/Central,KMVN,2020-10-12 19:56:00,53.0,53.0,74.0,29.46,10.0,CALM,0.0,0.0,Fair,False,False,False,False,False,False,False,False,False,False,False,False,False,Night,Night,Night,Day
C-715387,2,2021-02-17 04:52:30,2021-02-17 10:27:30,32.005421000000005,-89.921026,31.985065,-89.877601,2.90742749977,Slow traffic on US-49 S from French Rd (US-49) to MS-13 (US-49) due to roadwork.,4381.0,Simpson Highway 49,R,Braxton,Simpson,MS,39044-9562,US,US/Central,KJAN,2021-02-17 04:54:00,21.0,13.0,78.0,29.89,10.0,SE,6.0,0.0,Mostly Cloudy,False,False,False,False,False,False,False,False,False,False,False,False,False,Night,Night,Night,Night
C-715389,2,2021-12-23 13:46:57,2021-12-23 15:37:39,36.060817,-95.872478,36.060782,-95.858412,0.785654856209,Stationary traffic from S Memorial Dr (71st St) to US-169 (71st St) due to roadwork.,9312.0,E 71st St,R,Tulsa,Tulsa,OK,74133-5220,US,US/Central,KRVS,2021-12-23 13:53:00,62.0,62.0,62.0,29.12,10.0,S,12.0,0.0,Fair,False,False,True,False,False,False,False,False,False,False,False,True,False,Day,Day,Day,Day
C-715390,4,2018-01-17 21:00:00,2018-01-18 05:30:00,39.97879,-104.98907,39.97488,-104.98815,0.274511598254,Ramp closed to E-470/Northwest Pky - Closed. Construction work.,,US-87 S,R,Broomfield,Broomfield,CO,80023,US,US/Mountain,KEIK,2018-01-17 20:54:00,23.7,,67.0,30.29,10.0,Calm,,,Clear,False,False,False,False,False,False,False,False,False,False,False,False,False,Night,Night,Night,Night
C-715391,2,2017-04-11 09:45:00,2017-04-11 15:46:14,40.4424,-78.889703,40.45017,-78.84222,2.55377469656,At PA-271/William Penn Ave - Roadwork. Lane blocked.,,Admiral Peary Hwy,R,Vintondale,Cambria,PA,15961,US,US/Eastern,KJST,2017-04-11 09:54:00,68.0,,36.0,30.14,10.0,WSW,11.5,,Clear,False,False,False,False,True,False,False,False,False,False,False,False,False,Day,Day,Day,Day
C-715392,3,2020-06-19 20:00:00,2020-06-20 07:00:00,41.351128,-81.51123,,,4.63999986649,Right two lane blocked due to paving repairs on I-271 Northbound between OH-8 and I-480.,,I-271 N,R,Bedford,Cuyahoga,OH,44146,US,US/Eastern,KBKL,2020-06-19 19:53:00,75.0,75.0,64.0,29.39,10.0,NE,8.0,0.0,Fair,False,False,False,False,False,False,False,False,False,False,False,False,False,Day,Day,Day,Day
C-715393,2,2019-09-02 09:03:13,2019-09-06 09:02:34,37.57296,-77.519823,37.573059,-77.516874,0.1616375057479999,Between York Rd and Granite Ave - Construction work. Lane blocked.,5901.0,Grove Ave,L,Richmond,Richmond City,VA,23226-2657,US,US/Eastern,KOFP,2019-09-02 09:12:00,74.0,74.0,91.0,29.91,5.0,SSE,3.0,0.0,Cloudy,False,False,True,False,False,False,False,False,False,False,False,False,False,Day,Day,Day,Day
C-715394,3,2020-05-05 21:00:00,2020-05-06 05:00:00,37.117222,-76.503174,,,0.0,Intermittent lane closures due to maintenance work on I-64 Westbound at Exits 255A-B 255B-A VA-143 Jefferson Ave.,,Jefferson Ave,R,Newport News,Newport News,VA,23602,US,US/Eastern,,,,,,,,,,,,False,False,False,False,False,False,False,False,False,False,False,False,False,Night,Night,Day,Day
C-715395,2,2021-09-20 09:30:00,2021-09-24 05:00:00,33.377746,-112.07509,33.377029,-112.075089,0.0495400154161999,JESSE OWENS PKWY - 1ST DR - Construction - Fire Line WorkLanesRestricted: WB &amp;#61;1JESSE OWENS PKWY - 1ST DR Comments: -1ST AVE-,44.0,W Baseline Rd,R,Phoenix,Maricopa,AZ,85041-7132,US,US/Mountain,KPHX,2021-09-20 09:51:00,83.0,83.0,36.0,28.74,10.0,SE,8.0,0.0,Fair,False,False,False,False,False,False,False,False,False,True,False,False,False,Day,Day,Day,Day
C-715396,2,2021-10-07 15:50:55,2021-10-07 16:03:55,40.742786,-73.96079499999998,40.741394,-73.952898,0.4244404516219999,Slow traffic on I-495 E - I-495 W from 1st Ave to 21 St exit [14] due to roadwork.,,Queens Midtown Tunl,R,Long Island City,Queens,NY,11101,US,US/Eastern,KNYC,2021-10-07 15:51:00,72.0,72.0,61.0,30.12,10.0,CALM,0.0,0.0,Fair,False,False,False,False,True,False,False,False,False,False,False,False,False,Day,Day,Day,Day
C-715397,2,2018-02-20 13:18:07,2018-02-20 19:21:30,40.10991,-75.19941999999998,40.12867,-75.20223,1.30466787348,Between Paper Mill Rd and E Pennsylvania Ave - Roadwork. Hard shoulder closed.,,PA-309 S,R,Flourtown,Montgomery,PA,19031,US,US/Eastern,KLOM,2018-02-20 13:15:00,64.4,,73.0,30.31,10.0,WSW,8.1,,Clear,False,False,False,False,True,False,False,False,False,False,False,False,False,Day,Day,Day,Day
C-715398,4,2019-11-11 08:00:00,2020-09-01 07:44:59,35.138064,-81.070332,35.130984000000005,-81.07979399999998,0.724670619473,Construction on POLE BRANCH RD SB near FEWELL RD Road closed. Take alternate route.,800.0,Pole Branch Rd,R,Clover,York,SC,29710-7099,US,US/Eastern,KAKH,2019-11-11 07:54:00,43.0,43.0,89.0,29.28,9.0,CALM,0.0,0.0,Fair,False,False,False,False,False,False,False,False,False,False,False,False,False,Day,Day,Day,Day
C-715399,2,2021-04-02 05:25:30,2021-06-15 12:18:00,39.775036,-105.109638,39.77812,-105.1089,0.2166577980909999,Stationary traffic on County Hwy-58 - CO-391 from Miller St to Jellison St due to roadwork.,4201.0,Kipling St,L,Wheat Ridge,Jefferson,CO,80033-2890,US,US/Mountain,KBJC,2021-04-02 05:15:00,54.0,54.0,14.0,24.4,10.0,W,13.0,0.0,Fair,False,False,False,False,False,False,False,False,True,False,False,False,False,Night,Night,Night,Day
C-715400,2,2021-10-17 10:26:30,2021-10-17 14:46:30,34.779637,-97.293071,34.731147,-97.257359,3.91593254737,Stationary traffic on I-35 S from OK-145/Exit 79 (I-35) to Airport Rd/Exit 70 (I-35) due to roadwork.,,I-35 S,R,Pauls Valley,Garvin,OK,73075,US,US/Central,KPVJ,2021-10-17 10:35:00,62.0,62.0,50.0,29.28,10.0,SSW,6.0,0.0,Fair,False,False,False,False,False,False,False,False,False,False,False,False,False,Day,Day,Day,Day
C-715401,4,2021-09-21 16:39:30,2021-09-28 01:59:22,44.071959,-92.593424,44.072411,-92.622343,1.43591172965,County Hwy-4 is closed from 75th Ave NW to Roselee Cir NW due to roadwork.,7710.0,Valleyhigh Rd NW,R,Byron,Olmsted,MN,55920-4112,US,US/Central,K9MN,2021-09-21 16:35:00,65.0,65.0,39.0,28.96,10.0,NW,14.0,0.0,Partly Cloudy,False,False,False,False,False,False,False,False,False,True,False,False,False,Day,Day,Day,Day
C-715402,2,2018-07-10 10:11:00,2020-08-19 06:11:00,43.69491,-124.04433600000002,43.693983,-124.048362,0.211078682588,Road construction is occurring. Use caution.,48835.0,State Highway 38,L,Reedsport,Douglas,OR,97467,US,US/Pacific,KOTH,2018-07-10 09:56:00,66.0,,65.0,30.26,10.0,NNW,4.6,,Clear,False,False,False,False,False,False,False,False,False,False,False,False,False,Day,Day,Day,Day
C-715403,2,2021-09-02 13:44:36,2021-09-02 16:06:51,40.723901,-73.84929699999998,40.723518,-73.845206,0.215847157952,Slow traffic on NY-25 from 67th Rd to 108th St due to roadwork.,,Queens Blvd,R,Forest Hills,Queens,NY,11375,US,US/Eastern,KLGA,2021-09-02 13:51:00,76.0,76.0,42.0,29.82,10.0,WNW,13.0,0.0,Fair,False,False,False,False,False,False,False,False,False,True,False,True,False,Day,Day,Day,Day
C-715404,2,2020-09-01 15:52:00,2020-09-02 16:43:10,40.994331,-75.269867,40.957486,-75.286236,2.68513328552,Construction on PA-33 SB near I-80 Allow extra time.,,PA-33 S,R,Stroudsburg,Monroe,PA,18360,US,US/Eastern,KMPO,2020-09-01 15:53:00,65.0,65.0,90.0,28.1,10.0,SE,7.0,0.0,Cloudy,False,False,False,False,False,False,False,False,False,False,False,False,False,Day,Day,Day,Day
C-715405,2,2021-10-12 08:00:00,2021-10-12 18:00:00,34.653866,-84.984055,,,4.19999980927,Right hand shoulder closed due to construction work on I-75 Southbound between Dug Gap Rd and Carbondale Rd.,,GA-401 S,R,Dalton,Whitfield,GA,30721,US,US/Eastern,KDNN,2021-10-12 07:55:00,68.0,68.0,88.0,29.35,10.0,CALM,0.0,0.0,Cloudy,False,False,False,False,False,False,False,False,False,False,False,False,False,Day,Day,Day,Day
C-715406,3,2017-06-09 18:33:23,2017-06-10 00:33:23,41.75697,-87.88101999999998,41.74643,-87.854153,1.56469553104,Between 5th Ave and IL-171/Archer Ave - Roadwork.,,Tri State Tollway S,R,La Grange,Cook,IL,60525,US,US/Central,KMDW,2017-06-09 18:53:00,72.0,,55.0,29.77,10.0,East,8.1,,Mostly Cloudy,False,False,False,False,True,False,False,False,False,False,False,False,False,Day,Day,Day,Day
C-715407,2,2021-08-06 08:56:20,2021-08-06 09:19:32,40.755209,-73.994987,40.750877,-73.998139,0.341768105159,Slow traffic from NY-495/Lincoln Tunnel (9th Ave) to Lincoln Tunnel (9th Ave) due to roadwork.,478.0,9th Ave,R,New York,New York,NY,10018-5603,US,US/Eastern,KNYC,2021-08-06 08:51:00,77.0,77.0,56.0,30.07,10.0,CALM,0.0,0.0,Fair,True,False,True,False,False,False,False,False,False,False,False,True,False,Day,Day,Day,Day
C-715408,4,2021-09-29 23:01:00,2021-09-30 05:46:00,34.072562,-118.05244,34.071942,-118.10711,3.129181576,Construction on I-10 WB near WALNUT GROVE AVE Road closed. Take alternate route.,,I-10 W,R,El Monte,Los Angeles,CA,91731,US,US/Pacific,KEMT,2021-09-29 22:53:00,66.0,66.0,73.0,29.82,10.0,CALM,0.0,0.0,Fair,False,False,False,False,True,False,False,False,False,False,False,False,False,Night,Night,Night,Night
C-715409,2,2020-10-14 07:52:00,2020-10-14 11:39:00,39.125773,-77.89468000000002,39.120653,-77.874092,1.15887316555,Slow traffic on VA-7 from Shepherds Mill Rd (VA-7) to Snickersville Tpke (Harry Byrd Hwy/VA-7) due to roadwork.,3131.0,Harry Byrd Hwy,R,Berryville,Clarke,VA,22611,US,US/Eastern,KOKV,2020-10-14 07:55:00,45.0,41.0,87.0,29.27,10.0,WSW,6.0,0.0,Fair,False,False,False,False,False,False,False,False,False,False,False,False,False,Day,Day,Day,Day
C-715410,2,2021-06-03 06:00:00,2021-06-19 18:45:00,44.690947,-93.605401,44.697833,-93.598383,0.587521054708,Construction on US-169 NB near SYNDICATE ST Expect long delays.,17655.0,Johnson Memorial Dr,R,Jordan,Scott,MN,55352-9456,US,US/Central,KFCM,2021-06-03 05:53:00,66.0,66.0,48.0,28.84,10.0,SW,8.0,0.0,Cloudy,False,False,False,False,False,False,False,False,False,False,False,False,False,Day,Day,Day,Day
C-715411,3,2019-07-09 02:27:59,2019-07-15 06:00:00,35.109959,-111.033348,,,1.04999995232,Exit ramp from I-40 Eastbound at Exit 233 to Meteor Crater Rd closed due to construction work.,,I-40 E,R,Flagstaff,Coconino,AZ,86004,US,US/Mountain,KFLG,,,,,,,,,,,False,False,False,False,False,False,False,False,False,False,False,False,False,Night,Night,Night,Night
C-715412,2,2020-11-13 10:00:00,2020-11-13 15:00:00,40.978512,-72.545822,,,0.0,One lane closed due to construction work on NY-25 both ways at Old Main Rd.,7199.0,Main Rd,L,Mattituck,Suffolk,NY,11952-1599,US,US/Eastern,KFOK,2020-11-13 09:53:00,52.0,52.0,97.0,29.93,9.0,ENE,5.0,0.0,Light Rain,False,False,True,False,False,False,False,False,False,True,False,False,False,Day,Day,Day,Day
C-715413,2,2021-11-05 15:12:00,2021-11-05 15:33:30,42.344939,-83.037509,42.348672,-83.034717,0.294708991458,Stationary traffic on M-3 from Chrysler Dr (Gratiot Ave/MI-3) to Chene St (Gratiot Ave/MI-3) due to roadwork.,1500.0,Gratiot Ave,L,Detroit,Wayne,MI,48207-2713,US,US/Eastern,KDET,2021-11-05 14:53:00,51.0,51.0,43.0,29.69,10.0,SW,8.0,0.0,Fair,False,False,False,False,False,False,False,False,True,False,False,True,False,Day,Day,Day,Day
C-715414,2,2021-08-04 16:45:30,2021-08-06 01:04:31,39.754681,-104.71587,39.754659,-104.728755,0.684431112181,Roadwork from N Gun Club Rd to Picadilly Rd.,23002.0,E 26th Ave,R,Aurora,Adams,CO,80019,US,US/Mountain,KDEN,2021-08-04 16:53:00,84.0,84.0,27.0,24.73,8.0,NNE,18.0,0.0,Fair,False,False,False,False,False,False,False,False,False,False,False,False,False,Day,Day,Day,Day
C-715415,4,2020-12-08 15:00:00,2020-12-31 00:00:00,36.128316,-86.77903,36.128579,-86.777928,0.0641273152283,Closed road from Glen Ave to 8th Ave S due to roadwork.,800.0,Glen Ave,R,Nashville,Davidson,TN,37204-2122,US,US/Central,KBNA,2020-12-08 14:53:00,43.0,43.0,56.0,29.48,10.0,SE,3.0,0.0,Mostly Cloudy,False,False,True,False,False,False,False,False,False,False,False,True,False,Day,Day,Day,Day
C-715416,3,2020-12-18 19:55:37,2020-12-18 22:14:47,42.997337,-78.807114,,,0.0,Left lane closed due to utility work on I-290 Westbound at Exit 4 I-990.,,I-290 W,R,Buffalo,Erie,NY,14228,US,US/Eastern,KBUF,2020-12-18 19:54:00,23.0,23.0,72.0,29.59,10.0,S,3.0,0.0,Fair,False,False,False,False,False,False,False,False,False,False,False,False,False,Night,Night,Night,Night
C-715417,2,2021-07-02 06:30:00,2021-07-02 17:15:00,40.004383,-85.634217,40.004351,-85.637112,0.153234535766,Construction on US-36 WB near MARKELVILLE RD Drive with caution.,2015.0,E US Highway 36,R,Markleville,Madison,IN,46056-9774,US,US/Eastern,KAID,2021-07-02 06:35:00,57.0,57.0,76.0,29.0,10.0,CALM,0.0,0.0,Mostly Cloudy,False,False,True,False,False,False,True,False,False,False,False,False,False,Day,Day,Day,Day
C-715418,2,2021-03-14 04:50:00,2021-03-14 05:33:30,32.790468,-117.14933,32.785371999999995,-117.145456,0.4178635282230001,Stationary traffic on I-805 S from Kearny Villa Rd/Mesa College Dr (I-805) to Murray Ridge Rd/Phyllis Pl (I-805) due to roadwork.,,I-805 S,R,San Diego,San Diego,CA,92123,US,US/Pacific,KMYF,2021-03-14 04:53:00,50.0,50.0,80.0,29.81,10.0,ESE,3.0,0.0,Mostly Cloudy,False,False,False,False,False,False,False,False,False,False,False,False,False,Night,Night,Night,Night
C-715419,2,2020-09-15 13:30:30,2020-09-15 22:21:30,40.720235,-73.99398199999997,40.719915,-73.993002,0.0558791994845999,Stationary traffic from Bowery (Delancey St) to Allen St (Delancey St) due to roadwork.,,Kenmare St,R,New York,New York,NY,10012,US,US/Eastern,KJRB,2020-09-15 13:51:00,64.0,64.0,43.0,30.22,10.0,CALM,0.0,0.0,Fair,True,False,True,False,False,False,True,False,True,False,False,True,False,Day,Day,Day,Day
C-715420,2,2021-05-22 07:04:00,2021-05-22 08:45:30,45.022908,-87.146697,45.019829,-87.146941,0.2130721284189999,Stationary traffic on WI-57 from CR-E (WI-57) to CR-V (WI-57) due to roadwork.,7267.0,State Highway 57,L,Baileys Harbor,Door,WI,54202-9147,US,US/Central,KSUE,2021-05-22 06:56:00,68.0,68.0,93.0,29.48,10.0,WSW,10.0,0.0,Cloudy,False,False,False,False,False,False,False,False,False,False,False,False,False,Day,Day,Day,Day
C-715421,2,2021-08-04 13:23:55,2021-08-04 15:52:25,45.66349,-107.657351,45.646991,-107.657167,1.14000696296,Slow traffic on MT-313 - County Hwy-313 from CR-216C (MT-313) to Crow Street X Cutoff (MT-313) due to roadwork.,,State Highway 313,R,Crow Agency,Big Horn,MT,59022,US,US/Mountain,KM46,2021-08-04 12:53:00,91.0,,24.0,27.27,6.0,,,0.0,Haze,False,False,False,False,False,False,False,False,False,False,False,False,False,Day,Day,Day,Day
C-715422,2,2019-01-24 19:21:47,2019-01-25 07:00:00,40.787507,-75.65833,40.787507,-75.65833,0.0,At Lehigh Tunnel - Construction work. Left lane blocked.,,I-476 S,R,Lehighton,Carbon,PA,18235,US,US/Eastern,KABE,2019-01-24 19:23:00,39.0,32.3,70.0,29.66,10.0,West,10.4,,Overcast,False,False,False,False,False,False,False,False,False,False,False,False,False,Night,Night,Night,Night
C-715423,2,2020-08-24 17:25:13,2020-08-25 18:10:21,41.051035,-102.063923,41.050259,-102.066497,0.144439255053,Construction on I-80 WB near NE-51A Allow extra time.,,I-80 W,R,Big Springs,Deuel,NE,69122,US,US/Mountain,KOGA,2020-08-24 17:15:00,96.0,96.0,24.0,26.58,10.0,SSE,13.0,0.0,Fair,False,False,False,False,False,False,False,False,False,False,False,False,False,Day,Day,Day,Day
C-715424,3,2020-06-19 10:42:32,2020-06-19 12:40:50,39.82601,-85.61296999999998,39.8283,-85.59814,0.8026642579950001,At Hancock/Henry County Line - Roadwork. Left lane closed.,,I-70 E,R,Charlottesville,Hancock,IN,46117,US,US/Eastern,KMQJ,2020-06-19 10:35:00,82.0,82.0,54.0,29.13,10.0,CALM,0.0,,Fair,False,False,False,False,False,False,False,False,False,False,False,False,False,Day,Day,Day,Day
C-715425,2,2021-09-14 15:43:00,2021-09-14 16:04:00,40.49826,-80.11079699999998,40.501929,-80.11965,0.52972425171,Stationary traffic on PA-51 from Coraopolis Rd (Robinson Blvd/PA-51) to I-79 (Coraopolis Rd/PA-51) due to roadwork.,196.0,Coraopolis Rd,L,Coraopolis,Allegheny,PA,15108-3740,US,US/Eastern,KPIT,2021-09-14 15:51:00,84.0,84.0,53.0,28.69,10.0,S,12.0,0.0,Mostly Cloudy,False,False,False,False,False,False,False,False,False,False,False,False,False,Day,Day,Day,Day
C-715426,2,2021-10-18 21:04:09,2021-10-19 21:51:44,38.884316,-76.814635,38.877266,-76.808135,0.5995843191179999,Construction on MD-202 EB near KETTERING DR Expect delays.,599.0,Largo Rd,R,Upper Marlboro,Prince George's,MD,20774-2121,US,US/Eastern,KADW,2021-10-18 20:56:00,49.0,49.0,75.0,29.72,10.0,CALM,0.0,0.0,Fair,False,False,False,False,False,False,False,False,False,False,False,False,False,Night,Night,Night,Night
C-715427,2,2021-10-27 20:49:00,2021-10-27 21:43:30,33.509224,-112.051808,33.509221999999994,-112.047531,0.2463975105599999,Stationary traffic from 7th St (E Camelback Rd) to 16th St (E Camelback Rd) due to roadwork.,,E Camelback Rd,R,Phoenix,Maricopa,AZ,85014,US,US/Mountain,KPHX,2021-10-27 20:51:00,72.0,72.0,20.0,28.84,10.0,CALM,0.0,0.0,Fair,False,False,True,False,False,False,False,False,False,False,False,True,False,Night,Night,Night,Night
C-715428,2,2021-10-06 10:16:30,2021-10-06 12:31:07,40.706451,-73.832852,40.705497,-73.831826,0.0850453162533999,Slow traffic from 118th St / 83rd Ave to 84th Ave due to roadwork.,11865.0,Metropolitan Ave,L,Kew Gardens,Queens,NY,11415-2020,US,US/Eastern,KLGA,2021-10-06 09:51:00,64.0,64.0,75.0,30.37,10.0,NNE,5.0,0.0,Cloudy,False,False,False,False,False,False,False,False,False,False,False,False,False,Day,Day,Day,Day
C-715429,2,2021-04-26 08:58:47,2021-04-26 19:55:53,25.930202,-80.188344,25.926966,-80.188204,0.223755481196,Slow traffic on FL-915 from FL-860/NE 181st St/Miami Gardens Dr (NE 6th Ave/FL-915) to NE 159th St (NE 6th Ave/FL-915) due to roadwork.,16829.0,NE 6th Ave,R,North Miami Beach,Miami-Dade,FL,33162-2409,US,US/Eastern,KHWO,2021-04-26 08:53:00,78.0,78.0,66.0,29.99,10.0,N,6.0,0.0,Fair,False,False,False,False,False,False,False,False,True,False,False,False,False,Day,Day,Day,Day
C-715430,2,2020-10-20 12:36:30,2020-10-20 21:52:00,30.533298,-87.273785,30.533376,-87.276515,0.162558461026,Stationary traffic on FL-10 from FL-291/N Davis Hwy (US-90 Alt/FL-10) to US-29/FL-95/Pensacola Blvd (US-90 Alt/FL-10) due to construction work.,2.0,N Palafox St,R,Pensacola,Escambia,FL,32534,US,US/Central,KPNS,2020-10-20 12:53:00,84.0,84.0,65.0,29.93,10.0,ESE,9.0,0.0,Fair,False,False,True,False,False,False,False,False,False,False,False,True,False,Day,Day,Day,Day
C-715431,2,2021-06-11 06:40:00,2021-06-11 07:17:00,39.726562,-105.01378,39.749538,-105.017338,1.5987063893,Slow traffic on US-85 N - US-87 N - I-25 N - US-6 E from CO-26/Alameda Ave/Exit 208 (I-25) to W 23rd Ave/Exit 211 (I-25) due to roadwork.,,I-25 N,R,Denver,Denver,CO,80204,US,US/Mountain,KBJC,2021-06-11 06:35:00,55.0,55.0,38.0,24.45,10.0,SE,6.0,0.0,Fair,False,False,False,False,True,False,False,False,False,False,False,False,False,Day,Day,Day,Day
C-715432,4,2020-10-04 07:00:00,2020-10-10 06:59:59,38.332895,-76.46612900000002,38.334784,-76.46643,0.131533034737,Traffic Signal Work. CALVERT COUNTY: MD-4 NORTH/SOUTH NORTH OF (MD-2) NO NAME,14324.0,Patuxent Beach Rd,R,Solomons,Calvert,MD,20688,US,US/Eastern,KNHK,2020-10-04 07:07:00,48.0,48.0,93.0,30.19,10.0,W,3.0,0.0,Fair,False,False,False,False,False,False,False,False,False,False,False,False,False,Night,Day,Day,Day
C-715433,2,2021-12-08 18:46:53,2021-12-08 20:57:13,25.925515,-80.171996,25.924812,-80.17002099999998,0.131989490621,Slow traffic on FL-826 from NE 14th Ave to NE 162nd St due to roadwork.,1400.0,NE 163rd St,R,North Miami Beach,Miami-Dade,FL,33162-4625,US,US/Eastern,KHWO,2021-12-08 18:53:00,77.0,77.0,76.0,30.03,10.0,S,3.0,0.0,Fair,False,False,True,False,False,False,False,False,True,False,False,False,False,Night,Night,Night,Day
C-715434,2,2021-04-24 07:55:00,2021-04-24 12:43:00,44.948358,-93.28332,44.948369,-93.279892,0.167632418844,Slow traffic on County Hwy-3 from Lyndale Ave (CR-3) to I-35W (CR-3) due to roadwork.,325.0,W Lake St,L,Minneapolis,Hennepin,MN,55408-3026,US,US/Central,KMSP,2021-04-24 07:53:00,37.0,28.0,86.0,29.08,10.0,N,14.0,0.0,Light Rain,False,False,False,False,False,False,False,False,True,False,False,True,False,Day,Day,Day,Day
C-715435,2,2021-07-07 00:26:00,2021-07-07 01:03:00,42.077313,-122.60138,42.095052,-122.60549,1.243635009,Slow traffic on Pacific Highway 1 N - I-5 N - OR-99 N from Old Siskiyou Hwy/Exit 6 (I-5) to OR-99/Exit 11 (I-5) due to roadwork.,,I-5 N,R,Ashland,Jackson,OR,97520,US,US/Pacific,KMFR,2021-07-07 00:53:00,74.0,74.0,34.0,28.58,10.0,NNW,5.0,0.0,Fair,False,False,False,False,False,False,False,False,False,False,False,False,False,Night,Night,Night,Night
C-715436,2,2019-07-11 12:08:44,2019-07-16 08:00:29,41.773891,-71.261142,41.730318,-71.191515,4.68450755102,Between RT-136/James Reynolds Rd/Exit 2 and RT-103 - Roadwork.,,I-195 E,R,Swansea,Bristol,MA,02777,US,US/Eastern,KTAN,2019-07-12 08:04:00,74.0,74.0,87.0,29.64,6.0,CALM,0.0,0.0,Light Rain,False,False,False,False,True,False,False,False,False,False,False,False,False,Day,Day,Day,Day
C-715437,2,2021-04-06 20:00:00,2021-04-07 06:00:00,32.955017,-97.040329,,,0.0,Two lane closed due to construction work on TX-121 Southbound at Bass Pro.,,TX-121 S,R,Grapevine,Tarrant,TX,76051,US,US/Central,KDFW,2021-04-06 19:53:00,79.0,79.0,52.0,29.04,10.0,S,23.0,0.0,Mostly Cloudy / Windy,False,False,False,False,False,False,False,False,False,False,False,False,False,Night,Day,Day,Day
C-715438,2,2020-11-02 14:00:00,2020-11-08 03:45:00,43.50453,-112.055095,43.504361,-112.05593799999998,0.0438308681279,Construction on US-20 WB near I-15 Drive with caution.,,US-20 W,R,Idaho Falls,Bonneville,ID,83402,US,US/Mountain,KIDA,2020-11-02 13:53:00,62.0,62.0,21.0,25.49,10.0,SW,3.0,0.0,Fair,False,False,True,False,False,False,False,False,False,False,False,True,False,Day,Day,Day,Day
C-715439,4,2021-08-20 21:00:00,2021-08-23 05:00:00,39.27062700000001,-76.636043,39.268269,-76.635273,0.1680479150959999,Closed road from S Monroe St to Baltimore due to roadwork.,1698.0,S Monroe St,R,Baltimore,Baltimore City,MD,21230-1716,US,US/Eastern,KDMH,,,,,,,,,,,False,False,False,False,False,False,False,False,False,False,False,False,False,Night,Night,Night,Day
C-715440,2,2020-09-18 12:50:00,2020-09-18 18:54:27,40.783936,-73.954291,40.787192,-73.951964,0.25579373777,Slow traffic from E 79th St (Park Ave) to E 97th St (Park Ave) due to roadwork.,,E 92nd St,R,New York,New York,NY,10128,US,US/Eastern,KNYC,2020-09-18 12:51:00,66.0,66.0,60.0,29.88,10.0,N,9.0,0.0,Mostly Cloudy,True,False,True,False,False,False,False,False,False,False,False,True,False,Day,Day,Day,Day
C-715441,2,2020-04-16 07:30:00,2020-04-16 17:30:00,38.65958,-120.97034,38.65958,-120.97034,0.0,At Route 50 - Maintenance work. Lane closed.,,El Dorado Fwy W,R,Shingle Springs,El Dorado,CA,95682,US,US/Pacific,KPVF,2020-04-16 07:35:00,57.0,57.0,38.0,27.25,10.0,E,7.0,0.0,Fair,False,False,False,False,False,False,False,False,False,False,False,False,False,Day,Day,Day,Day
C-715442,3,2019-08-23 04:04:25,2019-08-23 05:33:54,40.71611400000001,-73.82592,,,0.949999988079,Two lanes closed due to construction work on I-678 Southbound from 69th Rd to Jackie Robinson Pkwy.,,Grand Central Pkwy E,R,Flushing,Queens,NY,11367,US,US/Eastern,KLGA,2019-08-23 03:51:00,74.0,74.0,76.0,29.87,10.0,NW,13.0,0.0,Partly Cloudy,False,False,False,False,False,False,False,False,False,False,False,False,False,Night,Night,Night,Night
C-715443,2,2021-08-08 14:24:00,2021-08-08 16:32:13,33.633514,-111.903583,33.629889,-111.892542,0.6827676656739999,Stationary traffic from Greenway Hayden Loop (E Frank Lloyd Wright Blvd) to AZ-101/Pima Rd (E Frank Lloyd Wright Blvd) due to roadwork.,,N 82nd St,R,Scottsdale,Maricopa,AZ,85260,US,US/Mountain,KSDL,2021-08-08 14:53:00,101.0,101.0,26.0,28.2,10.0,VAR,3.0,0.0,Fair,False,False,True,False,False,False,False,False,False,False,False,False,False,Day,Day,Day,Day
C-715444,2,2020-04-17 15:08:16,2020-04-17 15:23:16,32.7698,-117.13657,32.7698,-117.13657,0.0,Ramp to I-8 Eastbound - Roadwork. Right lane closed.,2636.0,Camino del Rio S,L,San Diego,San Diego,CA,92108,US,US/Pacific,KMYF,2020-04-17 14:53:00,64.0,64.0,50.0,29.55,10.0,SSW,8.0,0.0,Partly Cloudy,False,False,False,False,False,False,False,False,False,False,False,False,False,Day,Day,Day,Day
