ID,Severity,Start_Time,End_Time,Start_Lat,Start_Lng,End_Lat,End_Lng,Distance(mi),Description,Number,Street,Side,City,County,State,Zipcode,Country,Timezone,Airport_Code,Weather_Timestamp,Temperature(F),Wind_Chill(F),Humidity(%),Pressure(in),Visibility(mi),Wind_Direction,Wind_Speed(mph),Precipitation(in),Weather_Condition,Amenity,Bump,Crossing,Give_Way,Junction,No_Exit,Railway,Roundabout,Station,Stop,Traffic_Calming,Traffic_Signal,Turning_Loop,Sunrise_Sunset,Civil_Twilight,Nautical_Twilight,Astronomical_Twilight
C-412311,4,2020-10-05 07:00:00,2021-01-15 08:45:00,40.449176,-93.774096,40.45155,-93.774117,0.164031494156,Construction on MO-V NB near MO-WW Road closed. Take alternate route.,135.0,Washington St,L,Cainsville,Harrison,MO,64632,US,US/Central,KLWD,2020-10-05 06:53:00,42.0,36.0,73.0,28.93,10.0,S,12.0,0.0,Fair,False,False,False,False,False,False,False,False,False,False,False,False,False,Night,Day,Day,Day
C-412312,2,2020-07-14 18:42:00,2020-07-14 23:45:00,34.084945000000005,-80.96150300000002,34.087763,-80.959467,0.226900132338,Construction on SC 277 NB near PARK LANE RD Construction. Left lane closed.,,SC-277 N,R,Columbia,Richland,SC,29223,US,US/Eastern,KCUB,2020-07-14 18:53:00,87.0,87.0,67.0,29.8,10.0,VAR,3.0,0.0,Cloudy,False,False,False,False,False,False,False,False,False,False,False,False,False,Day,Day,Day,Day
C-412313,2,2021-04-15 05:07:30,2021-04-15 19:53:57,40.06185900000001,-85.651597,40.061198,-85.65298100000003,0.0862680700306,Slow traffic on IN-9 - IN-236 from York St to I-69 S due to roadwork.,2019.0,E 53rd St,R,Anderson,Madison,IN,46013-3101,US,US/Eastern,KAID,2021-04-15 05:15:00,38.0,34.0,77.0,28.98,10.0,NW,6.0,0.0,Cloudy,False,False,False,False,False,False,False,False,False,False,False,False,False,Night,Night,Night,Night
C-412314,2,2021-04-11 16:31:01,2021-12-10 15:18:30,39.763711,-86.342199,39.765466,-86.336732,0.3146590666759999,Slow traffic on US-36 E - US-36 W from Shiloh Park Dr to Shiloh Xing / N County Road 1050 E due to roadwork.,10177.0,E US Highway 36,R,Avon,Hendricks,IN,46123-7429,US,US/Eastern,KIND,2021-08-07 10:54:00,80.0,80.0,62.0,29.2,10.0,WSW,10.0,0.0,Mostly Cloudy,False,False,False,False,False,False,False,False,False,False,False,False,False,Day,Day,Day,Day
C-412315,2,2020-12-30 13:29:30,2020-12-31 01:26:58,33.537751,-112.134331,33.538514,-112.13488,0.0614724964031999,Stationary traffic from W Ocotillo Rd to N 36th Dr due to roadwork.,6861.0,N 35th Ave,R,Phoenix,Maricopa,AZ,85017,US,US/Mountain,KPHX,2020-12-30 13:51:00,63.0,63.0,11.0,28.88,10.0,NNW,10.0,0.0,Fair,False,False,False,False,False,False,False,False,False,False,False,False,False,Day,Day,Day,Day
C-412316,4,2019-07-01 17:59:36,2019-07-01 22:48:53,43.608672,-116.598348,43.60544,-116.60302,0.323266153663,Closed between I-84/US-30 and I-84-bl - Closed due to roadwork.,,ID-55,R,Nampa,Canyon,ID,83687,US,US/Mountain,KMAN,2019-07-01 17:55:00,90.0,90.0,16.0,27.2,10.0,NNW,10.0,0.0,Fair,False,False,False,False,False,False,False,False,False,False,False,True,False,Day,Day,Day,Day
C-412317,2,2021-07-19 07:00:00,2021-12-17 17:00:00,40.836793,-100.885766,40.830553,-100.867616,1.04218628697,Lane closed on NE-23 from Adrian Ave (NE-23) to Somerset Rd/Wagon Trail Rd (NE-23) due to roadwork.,10322.0,W Highway 23,R,Wellfleet,Lincoln,NE,69170,US,US/Central,KLBF,2021-07-19 06:53:00,66.0,66.0,87.0,27.32,10.0,SE,5.0,0.0,Fair,False,False,False,False,False,False,False,False,False,False,False,False,False,Day,Day,Day,Day
C-412318,2,2019-07-01 00:00:00,2019-12-01 00:00:00,47.223099,-122.434036,,,1.57000005245,Construction work on WA-509 Pacific Ave both ways from 34th St to WA-7 38th St. Observe signals.,201.0,S 38th St,R,Tacoma,Pierce,WA,98418-7808,US,US/Pacific,KTCM,2019-07-01 00:58:00,60.0,60.0,75.0,29.72,10.0,CALM,0.0,0.0,Fair,False,False,True,False,False,False,False,False,False,False,False,True,False,Night,Night,Night,Day
C-412319,2,2021-11-10 10:17:30,2021-11-10 11:00:30,38.496048,-106.326101,38.539901,-106.317246,3.06753498962,Slow traffic on US-50 W - US-50 E from CO-114 (US-50) to US-285/Kimberlin Ln (US-50) due to roadwork.,24500.0,W US Highway 50,R,Gunnison,Gunnison,CO,81230,US,US/Mountain,KGUC,2021-11-10 09:56:00,42.0,34.0,62.0,22.68,10.0,SW,17.0,0.0,Cloudy,False,False,False,False,False,False,False,False,False,False,False,False,False,Day,Day,Day,Day
C-412320,2,2020-06-02 07:24:31,2020-06-02 15:00:00,40.79898,-73.91903,40.77054,-73.91756,1.96652113999,Between I-87 and 31st St/Hoyt Ave/Exit 3 - Roadwork. Right lane closed.,,Bruckner Expy W,R,Bronx,Bronx,NY,10454,US,US/Eastern,KLGA,2020-06-02 07:51:00,66.0,66.0,40.0,30.03,10.0,WNW,3.0,0.0,Mostly Cloudy,False,False,False,False,False,False,True,False,True,False,False,True,False,Day,Day,Day,Day
C-412321,2,2021-02-04 12:13:30,2021-02-04 14:12:00,39.23664,-104.877233,39.260333,-104.892413,1.82745345023,Slow traffic on US-85 N - US-87 N - I-25 N from Greenland Rd/Exit 167 (I-25) to Tomah Road/Exit 174 (I-25) due to roadwork.,,I-25 N,R,Larkspur,Douglas,CO,80118,US,US/Mountain,KMNH,2021-02-04 12:15:00,30.0,30.0,40.0,23.02,10.0,CALM,0.0,0.0,Fair,False,False,False,False,False,False,False,False,False,False,False,False,False,Day,Day,Day,Day
C-412322,1,2020-04-06 13:05:09,2020-04-06 15:05:09,28.078840000000003,-80.71547,28.078840000000003,-80.71547,0.0,At Ocean Prairie Ln - Roadwork. Right lane closed.,4872.0,US Highway 192,L,Melbourne,Brevard,FL,32904-9732,US,US/Eastern,KMLB,2020-04-06 12:53:00,76.0,76.0,64.0,30.05,10.0,E,15.0,0.0,Mostly Cloudy,False,False,False,False,False,False,False,False,False,False,False,True,False,Day,Day,Day,Day
C-412323,2,2021-02-12 23:04:00,2021-02-15 11:15:26,44.181569,-111.4317,44.153723,-111.423945,1.96198946776,Roadwork on ID-47 (US-20) from ID-47/ID-32/E 1300 N/Main St (US-20) to US-20 W - US-20 E.,,Anderson Mill Canyon Rd,R,Saint Anthony,Fremont,ID,83445,US,US/Mountain,KRXE,2021-02-12 22:53:00,8.0,-8.0,70.0,24.96,10.0,NE,13.0,0.0,Cloudy,False,False,False,False,False,False,False,False,False,False,False,False,False,Night,Night,Night,Night
C-412324,2,2020-12-03 13:29:30,2020-12-03 16:13:30,41.55155900000001,-73.053332,41.54815,-73.045552,0.466170587197,Slow traffic on CT-8 S - James H Darcey Memorial Hwy S from Main St/Exit 34 (CT-8) to Washington Ave/Exit 30 (CT-8) due to roadwork.,,I-84 W,R,Waterbury,New Haven,CT,06708,US,US/Eastern,KOXC,2020-12-03 13:51:00,46.0,42.0,44.0,29.32,10.0,SW,8.0,0.0,Fair,False,False,False,False,False,False,False,False,False,False,False,False,False,Day,Day,Day,Day
C-412325,3,2020-06-24 05:44:52,2020-06-30 21:00:00,42.7994,-84.350311,,,11.6400003433,One lane closed due to construction work on I-69 Westbound between Exit 105 M-52 and Exit 98 Woodbury Rd.,,I-69 E,R,Haslett,Shiawassee,MI,48840,US,US/Eastern,KLAN,2020-06-24 05:53:00,57.0,57.0,77.0,28.9,10.0,W,8.0,0.0,Partly Cloudy,False,False,False,False,False,False,False,False,False,False,False,False,False,Night,Day,Day,Day
C-412326,2,2021-03-03 15:55:47,2021-12-30 11:19:30,36.291202,-119.78633,36.291566,-119.782142,0.2345838548319999,Construction on CA-198 EB near 18TH AVE Expect delays.,,CA-198 E,R,Lemoore,Kings,CA,93245,US,US/Pacific,KNLC,2021-04-01 07:00:00,43.0,39.0,60.0,29.75,10.0,WSW,6.0,0.0,Fair,False,False,False,False,True,False,False,False,False,False,False,False,False,Day,Day,Day,Day
C-412327,2,2020-10-06 00:25:00,2020-10-06 06:58:52,44.145952,-122.366849,44.123372,-122.386429,1.8375912136,Roadwork on OR-126 from Blue River Dr (OR-126) to NFD-2611 (OR-126).,50961.0,McKenzie Hwy,L,Vida,Lane,OR,97488-9605,US,US/Pacific,KEUG,2020-10-06 00:54:00,51.0,51.0,92.0,29.69,8.0,CALM,0.0,0.0,Fair,False,False,False,False,False,False,False,False,False,False,False,False,False,Night,Night,Night,Night
C-412328,2,2019-06-04 12:16:54,2019-06-08 12:16:21,42.08945,-72.62716999999998,42.091,-72.62601,0.122502439273,Between North St and River St - Construction work. Turning lane blocked.,1.0,Springfield St,L,Agawam,Hampden,MA,01001-1521,US,US/Eastern,KBAF,2019-06-04 11:53:00,67.0,67.0,28.0,29.77,10.0,NNW,8.0,0.0,Fair,False,False,False,False,False,False,False,False,False,False,False,False,False,Day,Day,Day,Day
C-412329,2,2021-04-22 08:55:11,2021-04-22 14:45:00,40.720106,-73.826273,40.694374,-73.812087,1.9269241932900003,NYSDOT - Region 11: Construction construction on I-678 southbound between Hillside Avenue (New York) and Atlantic Avenue (New York) 1 Left lane of 4 lanes closed from 12:00 P.M. until 2:00 P.M.,,Van Wyck Expy S,R,Flushing,Queens,NY,11367,US,US/Eastern,KLGA,2021-04-22 08:51:00,40.0,30.0,38.0,29.82,10.0,NW,22.0,0.0,Fair / Windy,False,False,False,False,True,False,False,False,False,False,False,False,False,Day,Day,Day,Day
C-412330,2,2019-04-08 09:00:00,2019-04-12 17:00:00,38.942719,-95.223366,38.942719,-95.223366,0.0,At E 23rd St - Construction work.,998.0,E 23rd St,L,Lawrence,Douglas,KS,66046-4912,US,US/Central,KLWC,2019-04-08 08:52:00,54.0,54.0,86.0,29.11,10.0,W,3.0,0.0,Fair,False,False,True,False,False,False,False,False,False,False,False,True,False,Day,Day,Day,Day
C-412331,2,2019-10-09 19:00:00,2019-10-10 05:00:00,39.939156,-83.010216,,,0.0,Intermittent lane closures due to bridge maintenance work on Greenlawn Ave both ways at I-71 Exit 105.,501.0,American Blvd,L,Columbus,Franklin,OH,43223-2601,US,US/Eastern,KTZR,2019-10-09 18:50:00,70.0,70.0,60.0,29.12,10.0,E,5.0,0.0,Mostly Cloudy,False,False,False,False,False,False,False,False,False,False,False,False,False,Day,Day,Day,Day
C-412332,2,2021-04-30 06:17:00,2021-04-30 16:00:30,41.413874,-87.35031,41.414847,-87.354694,0.236901739092,Stationary traffic on US-231 N - US-231 S from E Greenwood Ave (US-231) to IN-55/S Indiana Ave (E Joliet St/US-231) due to roadwork.,984.0,E Joliet St,R,Crown Point,Lake,IN,46307-4600,US,US/Central,KIGQ,2021-04-30 06:15:00,45.0,41.0,84.0,29.32,10.0,WSW,7.0,0.0,Fair,False,False,False,False,False,False,False,False,False,False,False,True,False,Day,Day,Day,Day
C-412333,4,2020-05-19 00:35:43,2020-05-19 05:33:56,40.26239,-74.84203000000002,40.26508,-74.84017,0.210146035146,At RT-29/Exit 1 - Entry ramp closed. Construction work.,,I-295 S,R,Trenton,Mercer,NJ,08628,US,US/Eastern,KTTN,2020-05-19 00:53:00,53.0,53.0,71.0,29.85,10.0,NNW,5.0,0.0,Fair,False,False,False,False,False,False,False,False,False,False,False,False,False,Night,Night,Night,Night
C-412334,3,2019-11-07 10:10:23,2019-11-11 10:09:52,42.15126,-88.25769,42.11434000000001,-88.18319,4.59120102966,Between IL-25/Elgin Rd/Haegers Bend Rd and IL-68/Dundee Rd - Roadwork.,,Algonquin Rd,R,Algonquin,Kane,IL,60102,US,US/Central,KDPA,2019-11-07 09:52:00,25.0,13.0,58.0,29.64,10.0,NW,15.0,0.0,Fair,False,False,False,False,False,False,False,False,False,False,False,True,False,Day,Day,Day,Day
C-412335,2,2017-08-16 07:02:21,2017-08-16 13:02:21,40.92213,-82.28158,40.99229,-82.22299,5.7311036714400005,At OH-89/CR-500 - Construction work.,949.0,Columbus St,R,Ashland,Ashland,OH,44805-8829,US,US/Eastern,KMFD,2017-08-16 06:52:00,64.0,,93.0,30.05,7.0,East,5.8,,Clear,True,False,False,False,False,False,False,False,False,False,False,False,False,Day,Day,Day,Day
C-412336,2,2019-11-19 09:47:11,2019-11-23 09:48:19,40.10648,-75.47761,40.11225,-75.48161,0.451238743891,At Country Club Rd/Ferry Ln - Roadwork. Open.,1549.0,Valley Forge Rd,L,Phoenixville,Chester,PA,19460-2632,US,US/Eastern,KPTW,2019-11-19 09:54:00,39.0,35.0,89.0,29.51,6.0,NW,6.0,0.0,Cloudy,False,False,False,False,False,False,False,False,False,True,False,True,False,Day,Day,Day,Day
C-412337,2,2017-09-25 21:00:00,2017-09-26 17:31:00,39.59296,-104.888275,,,0.449999988079,Road closed due to construction during the night on Yosemite St both ways between Arapahoe Rd and Xanthia St.,,S Xanthia St,R,Englewood,Arapahoe,CO,80112,US,US/Mountain,KAPA,2017-09-25 20:53:00,46.0,43.9,93.0,30.1,10.0,WSW,4.6,0.0,Mostly Cloudy,False,False,True,False,False,False,False,False,False,False,False,False,False,Night,Night,Night,Night
C-412338,2,2021-08-03 13:06:06,2021-08-03 15:30:37,25.937175,-80.27730799999998,25.939753,-80.278228,0.187070323909,Slow traffic on FL-847 - FL-860 from NW 180th St to NW 48th Pl due to roadwork.,,NW 47th Ave,R,Opa Locka,Miami-Dade,FL,33055,US,US/Eastern,KOPF,2021-08-03 12:53:00,82.0,82.0,79.0,30.04,10.0,SE,12.0,0.01,Light Rain,False,False,False,False,False,False,False,False,False,False,False,False,False,Day,Day,Day,Day
C-412339,2,2020-10-21 20:17:00,2020-10-21 20:40:00,40.85567,-73.872348,40.843693,-73.871945,0.827799885339,Stationary traffic from Allerton Ave/Exit 8 (Bronx River Pkwy) to 177th St/Exit 5 (Bronx River Pkwy) due to roadwork.,,Bronx River Pkwy S,R,Bronx,Bronx,NY,10460,US,US/Eastern,KLGA,2020-10-21 20:42:00,65.0,65.0,90.0,30.2,0.5,SSE,5.0,0.0,Fog,False,False,False,False,False,False,True,False,False,False,False,False,False,Night,Night,Night,Night
C-412340,2,2021-09-15 15:18:30,2021-09-15 15:47:00,25.945626,-80.1769,25.94166400000001,-80.18600500000002,0.628452584912,Stationary traffic on FL-860 from 15th Ave (FL-860) to I-95/FL-915/6th Ave (FL-860) due to roadwork.,,NE 12th Ave,R,Miami,Miami-Dade,FL,33179,US,US/Eastern,KHWO,2021-09-15 15:15:00,87.0,87.0,61.0,29.91,10.0,SE,9.0,0.0,Fair,False,False,True,False,False,False,False,False,False,False,False,True,False,Day,Day,Day,Day
C-412341,2,2020-04-03 17:00:18,2020-08-06 05:22:08,41.42928,-73.80525,41.42879,-73.80458,0.0484864193229,At CR-21/Peekskill Hollow Rd - Roadwork. Ramp restrictions.,,Taconic State Pkwy,R,Putnam Valley,Putnam,NY,10579,US,US/Eastern,KSWF,2020-04-03 16:45:00,52.0,52.0,71.0,29.22,8.0,NNE,13.0,0.0,Cloudy,False,False,False,False,False,False,False,False,False,False,False,False,False,Day,Day,Day,Day
C-412342,2,2021-03-20 04:52:00,2021-06-08 11:38:03,35.112694,-92.427877,35.112866,-92.437925,0.5680362694960001,Stationary traffic on US-65 S - AR-287 - US-65 N from Lower Ridge Rd to I-40 W due to roadwork.,1.0,Lower Ridge Rd,R,Conway,Faulkner,AR,72032-8523,US,US/Central,KLRF,2021-06-08 10:56:00,71.0,71.0,99.0,29.62,10.0,E,5.0,0.24,Light Rain,False,False,False,False,False,False,False,False,False,False,False,False,False,Night,Night,Night,Night
C-412343,2,2018-12-27 21:04:00,2019-01-01 21:01:54,25.843873,-80.12071,25.84468,-80.12059,0.0562554759878,At SR-907/63rd St - Construction work. Lane blocked.,6074.0,Collins Ave,L,Miami Beach,Miami-Dade,FL,33140,US,US/Eastern,KMIA,2018-12-27 20:53:00,75.9,,91.0,30.14,10.0,ESE,19.6,,Overcast,True,False,False,False,False,False,False,False,False,False,False,True,False,Night,Night,Night,Night
C-412344,2,2021-09-14 14:53:00,2021-09-14 15:33:00,42.095085,-122.605938,42.060434,-122.607421,2.39536374923,Slow traffic on OR-99 S - Pacific Highway 1 S - I-5 S from OR-99/Exit 11 (I-5) to OR-99/Exit 1 (I-5) due to roadwork.,,I-5 S,R,Ashland,Jackson,OR,97520,US,US/Pacific,KMFR,2021-09-14 14:53:00,87.0,87.0,18.0,28.54,10.0,CALM,0.0,0.0,Smoke,False,False,False,False,False,False,False,False,False,False,False,False,False,Day,Day,Day,Day
C-412345,2,2016-08-10 09:02:04,2016-08-10 15:02:04,39.28647,-76.49462,39.295147,-76.52296,1.62973966231,Between MD-151/North Point Blvd/Exit 40 and Baltimore St - Construction work.,2336.0,N Point Blvd,L,Dundalk,Baltimore County,MD,21222,US,US/Eastern,KDMH,2016-08-10 08:54:00,81.0,,77.0,30.19,,North,,,,False,False,False,False,False,False,False,False,False,False,False,False,False,Day,Day,Day,Day
C-412346,2,2021-12-21 10:32:00,2021-12-21 12:34:14,26.275168,-80.11834499999998,26.274493,-80.119395,0.0800433339807,Stationary traffic on FL-834 from N Dixie Hwy to NE 35th Ct due to roadwork.,375.0,E Sample Rd,L,Pompano Beach,Broward,FL,33064-4422,US,US/Eastern,KPMP,2021-12-21 10:53:00,80.0,80.0,71.0,29.8,10.0,SSW,20.0,0.0,Mostly Cloudy,False,False,False,False,False,False,False,False,False,False,False,False,False,Day,Day,Day,Day
C-412347,2,2020-04-06 21:31:37,2020-04-07 06:00:00,39.3546,-84.37388,39.3546,-84.37388,0.0,At Tylersville Rd/Exit 22 - Roadwork during the night.,,I-75 S,R,West Chester,Butler,OH,45069,US,US/Eastern,KHAO,2020-04-06 21:53:00,57.0,57.0,81.0,29.36,10.0,CALM,0.0,0.0,Mostly Cloudy,False,False,False,False,False,False,False,False,False,False,False,False,False,Night,Night,Night,Day
C-412348,2,2019-03-28 00:51:01,2019-12-01 23:59:00,38.59156,-90.33541,38.596935,-90.320204,0.901233470205,Between Elm Ave/Exit 280 and Jamieson Ave/Exit 284 - Construction work. Lane blocked.,,I-44 E,R,Saint Louis,St. Louis County,MO,63119,US,US/Central,KCPS,2019-03-28 01:53:00,53.1,,52.0,30.11,10.0,SSE,4.6,,Overcast,False,False,False,False,True,False,False,False,False,False,False,False,False,Night,Night,Night,Night
C-412349,2,2020-04-02 00:01:00,2020-04-02 05:00:00,40.33635,-74.63219000000002,40.33635,-74.63219000000002,0.0,At CR-526/CR-571/Washington Rd - Construction work. Right lane blocked.,3771.0,US Highway 1,L,Princeton,Mercer,NJ,08540,US,US/Eastern,KTTN,2020-04-02 00:53:00,41.0,35.0,53.0,29.57,10.0,NNW,10.0,0.0,Fair,False,False,False,False,False,False,False,False,False,False,False,False,False,Night,Night,Night,Night
C-412350,2,2019-10-29 09:00:00,2019-10-29 15:00:00,37.330635,-121.892403,,,0.0,Intermittent lane closures due to construction on Almaden Blvd both ways at Park Ave.,,Park Ave,R,San Jose,Santa Clara,CA,95110,US,US/Pacific,KSJC,2019-10-29 08:53:00,49.0,49.0,39.0,29.92,10.0,CALM,0.0,0.0,Mostly Cloudy,False,False,True,False,False,False,False,False,False,False,False,True,False,Day,Day,Day,Day
C-412351,2,2020-06-22 08:09:36,2020-06-24 11:38:09,39.90936,-75.15472,39.90359,-75.12014,1.8756349717900005,Between I-95/Front St/Exit 351 and Walt Whitman Brg East - Roadwork. Right lane closed.,,Walt Whitman Brg,R,Philadelphia,Philadelphia,PA,19148,US,US/Eastern,KPHL,2020-06-22 08:09:00,72.0,72.0,91.0,29.99,4.0,WSW,6.0,0.0,Cloudy,False,False,False,False,False,False,False,False,False,False,False,False,False,Day,Day,Day,Day
C-412352,2,2021-07-30 16:43:36,2021-07-30 19:03:39,41.72068,-87.70549100000002,41.721715,-87.70181600000002,0.202565395632,Stationary traffic on US-12 E - US-20 W - US-12 W - US-20 E from S Turner Ave to W 94th St due to roadwork.,3329.0,W 95th St,L,Evergreen Park,Cook,IL,60805-2234,US,US/Central,KMDW,2021-07-30 16:53:00,71.0,71.0,53.0,29.46,10.0,NE,8.0,0.0,Mostly Cloudy,False,False,False,False,False,False,False,False,False,False,False,False,False,Day,Day,Day,Day
C-412353,4,2020-05-16 10:43:24,2020-05-17 10:43:24,41.4882,-81.62876,41.48606,-81.62446,0.267199576949,Closed at E. 89th St. - Closed due to roadwork.,8347.0,Woodland Ave,L,Cleveland,Cuyahoga,OH,44104-2249,US,US/Eastern,KBKL,2020-05-16 10:53:00,56.0,56.0,84.0,29.51,6.0,N,8.0,0.0,Haze,False,False,True,False,False,False,False,False,False,False,False,True,False,Day,Day,Day,Day
C-412354,2,2020-05-20 08:59:11,2020-05-20 16:59:11,42.17501,-119.95783,42.17736,-119.90283,2.82089729587,At County Road 3-10/County Road 3-14 - Maintenance work.,20806.0,Highway 140,L,Adel,Lake,OR,97620,US,US/Pacific,KLKV,2020-05-20 08:53:00,43.0,35.0,74.0,25.26,10.0,WSW,16.0,0.0,Cloudy,False,False,False,False,False,False,False,False,False,False,False,False,False,Day,Day,Day,Day
C-412355,3,2020-05-12 10:54:09,2020-05-16 15:10:23,32.67901,-97.04426,32.69146,-97.044,0.8603459392839999,At Mayfield Rd - Construction work. Two lanes closed.,,Sara Jane Pkwy,R,Grand Prairie,Tarrant,TX,75052,US,US/Central,KGPM,2020-05-12 14:50:00,73.0,73.0,73.0,29.35,7.0,SSE,10.0,0.0,Rain,False,False,False,False,False,False,False,False,False,False,False,True,False,Day,Day,Day,Day
C-412356,2,2021-09-20 12:01:00,2021-09-24 06:46:00,38.737014,-120.71092,38.738503,-120.737891,1.4572146577200005,Lane closure due to Highway Construction between Camino Heights Dr and Newtown Rd,,Camino Heights Dr,R,Placerville,El Dorado,CA,95667,US,US/Pacific,KPVF,2021-09-20 11:55:00,73.0,73.0,29.0,27.35,10.0,SSW,6.0,0.0,Fair,False,False,False,False,False,False,False,False,False,False,False,False,False,Day,Day,Day,Day
C-412357,2,2019-06-11 09:10:56,2019-06-15 09:11:48,40.062561,-75.13628,40.065263,-75.134976,0.199017604248,At PA-73/Township Line Rd - Roadwork. Open.,7312.0,Old York Rd,R,Elkins Park,Montgomery,PA,19027-3007,US,US/Eastern,KPNE,2019-06-11 08:54:00,68.0,68.0,63.0,29.83,10.0,NNW,16.0,0.0,Fair,False,False,True,False,False,False,False,False,False,False,False,False,False,Day,Day,Day,Day
C-412358,4,2021-05-24 09:00:00,2021-05-24 15:00:00,40.112229,-75.481638,40.109518,-75.479124,0.229638876351,PA-23 is closed from Country Club Rd/Ferry Ln (Valley Forge Rd/PA-23) to PA-252/Valley Creek Rd (Valley Forge Rd/PA-23) due to roadwork.,2.0,Ferry Ln,L,Phoenixville,Chester,PA,19460-2602,US,US/Eastern,KPTW,2021-05-24 08:54:00,60.0,60.0,78.0,29.95,10.0,VAR,5.0,0.0,Cloudy,False,False,False,False,False,False,False,False,False,False,False,True,False,Day,Day,Day,Day
C-412359,2,2021-03-04 06:04:00,2021-03-04 13:45:37,43.63381500000001,-116.35703,43.634826,-116.354189,0.158314005615,Slow traffic on ID-55 from N Centrepoint Way to W Baldcypress St due to roadwork.,3080.0,E Ustick Rd,L,Meridian,Ada,ID,83646,US,US/Mountain,KMAN,2021-03-04 05:55:00,28.0,28.0,100.0,27.37,10.0,CALM,0.0,0.0,Fair,False,False,True,False,False,False,False,False,False,False,False,False,False,Night,Night,Night,Day
C-412360,2,2021-05-25 17:01:00,2021-05-25 17:22:00,43.632756,-116.253555,43.630662,-116.250602,0.206739591162,Stationary traffic on US-20 W - US-20 E - US-26 E - US-26 W from ID-44/N Glenwood St (US-26/US-20) to Veterans Memorial Pkwy/N Curtis Rd (US-26/US-20) due to roadwork.,4333.0,W Chinden Blvd,L,Garden City,Ada,ID,83714-4867,US,US/Mountain,KBOI,2021-05-25 16:53:00,53.0,53.0,89.0,27.07,5.0,W,12.0,0.08,Light Rain,False,False,True,False,False,False,False,False,False,False,False,True,False,Day,Day,Day,Day
C-412361,2,2021-11-22 17:26:38,2021-11-22 18:16:12,28.593091,-81.36017,28.593162,-81.365072,0.297429177545,Slow traffic on FL-424A - FL-426 from FL-527/Orange Ave (FL-426) to US-92/S Orlando Ave (FL-426) due to roadwork.,858.0,W Fairbanks Ave,L,Winter Park,Orange,FL,32789-4715,US,US/Eastern,KORL,2021-11-22 17:53:00,71.0,71.0,68.0,29.76,10.0,WNW,5.0,0.0,Fair,False,False,True,False,False,False,False,False,False,False,False,True,False,Day,Day,Day,Day
C-412362,2,2020-09-21 14:01:00,2020-09-22 01:44:00,37.821089,-120.029894,37.819599,-120.050984,1.1556756218700002,Construction on CA-120 WB near YOSEMITE PARK BOUNDRY Expect long delays.,26869.0,State Highway 120,L,Groveland,Tuolumne,CA,95321-9704,US,US/Pacific,KO22,,,,,,,,,,,False,False,False,False,False,False,False,False,False,True,False,False,False,Day,Day,Day,Day
C-412363,2,2020-07-02 03:00:00,2020-07-02 14:45:00,41.257406,-81.544507,41.292946,-81.676337,7.272655520010001,Construction on I-80 WB near MP 177 Construction. Expect long delays.,,I-80 W,R,Peninsula,Summit,OH,44264,US,US/Eastern,KAKR,2020-07-02 02:54:00,67.0,67.0,76.0,28.84,10.0,CALM,0.0,0.0,Fair,False,False,False,False,False,False,False,False,False,False,False,False,False,Night,Night,Night,Night
C-412364,2,2021-08-12 21:00:00,2021-08-13 05:45:00,38.885199,-77.22837,38.880941,-77.227643,0.296786814869,On Rt. 650 (Gallows Rd) in the County of Fairfax from Rt. 2946E (Fairfax County) to Rt. 1195N/S (Fairfax County) motorists can expect potential delays in this area from 08/12/21 at 9:00 PM until 08/13/21 at 5:00 AM due to construction activities. The north left lane is an alternating closure. The south right lane is an alternating closure.,2616.0,Gallows Rd,R,Vienna,Fairfax County,VA,22180-7131,US,US/Eastern,KIAD,2021-08-12 20:52:00,88.0,88.0,61.0,29.66,10.0,S,8.0,0.0,Fair,False,False,True,False,False,False,False,False,False,False,False,False,False,Night,Night,Day,Day
C-412365,2,2021-11-19 12:12:30,2021-11-19 12:43:30,28.593086,-81.361814,28.593162,-81.365072,0.197722224399,Slow traffic on FL-424A - FL-426 from FL-527/Orange Ave (FL-426) to US-92/S Orlando Ave (FL-426) due to roadwork.,970.0,W Fairbanks Ave,L,Winter Park,Orange,FL,32789-4717,US,US/Eastern,KORL,2021-11-19 11:53:00,80.0,80.0,64.0,30.05,10.0,NE,14.0,0.0,Partly Cloudy,True,False,True,False,False,False,False,False,False,False,False,True,False,Day,Day,Day,Day
C-412366,2,2021-08-23 09:01:00,2021-09-23 17:04:00,45.242538,-123.053046,45.237763,-123.063518,0.606970569163,Slow traffic on OR-99W - OR-18 from OR-240/Main St (1st St/Hancock St/OR-99W) to OR-18/SE Dayton Byp (OR-99W) due to roadwork.,18120.0,N Highway 99W,R,Dayton,Yamhill,OR,97114,US,US/Pacific,KMMV,2021-09-23 16:53:00,77.0,77.0,45.0,29.98,10.0,VAR,7.0,0.0,Fair,False,False,False,False,False,False,False,False,False,False,False,False,False,Day,Day,Day,Day
C-412367,2,2020-09-18 13:30:00,2020-09-19 01:46:00,38.754886,-122.62525,38.755178,-122.626314,0.0607759063691999,Construction on CA-175 WB near DRY CRK Expect long delays.,21051.0,State Highway 175,L,Middletown,Lake,CA,95461-9692,US,US/Pacific,KSTS,2020-09-18 13:53:00,78.0,78.0,48.0,29.8,9.0,SW,13.0,0.0,Fair,False,False,False,False,False,False,False,False,False,False,False,False,False,Day,Day,Day,Day
C-412368,2,2019-08-29 02:15:03,2019-08-29 19:01:00,39.77256,-104.90226,,,0.0,Intermittent lane closures due to construction on 40th Ave both ways from Quebec St to Frontage Rd.,3996.0,Quebec St,R,Denver,Denver,CO,80207-1632,US,US/Mountain,KBKF,2019-08-29 01:58:00,71.0,71.0,34.0,24.43,10.0,SSW,14.0,0.0,Fair,False,False,False,False,False,False,False,False,False,False,False,False,False,Night,Night,Night,Night
C-412369,2,2021-01-11 14:03:30,2021-01-11 21:51:00,30.532904,-87.283695,30.533227,-87.27787099999998,0.347319459753,Stationary traffic on US-90 Alt E - FL-10 from CR-297/Pine Forest Rd (US-90 Alt/FL-10) to US-29/FL-95/Pensacola Blvd (US-90 Alt/FL-10) due to roadwork.,9357.0,Fowler Ave,L,Pensacola,Escambia,FL,32534-1853,US,US/Central,KPNS,2021-01-11 13:53:00,45.0,39.0,93.0,29.94,9.0,N,14.0,0.01,Cloudy,False,False,False,False,False,False,False,False,False,False,False,True,False,Day,Day,Day,Day
C-412370,4,2020-05-18 23:28:14,2020-05-19 04:26:53,35.02768,-117.55142,34.99235,-117.54157,2.50390589862,Closed at Route 58/Kramer Junction - Closed due to roadwork.,5398.0,Farmington Rd,R,Ridgecrest,San Bernardino,CA,93555,US,US/Pacific,KNID,2020-05-18 23:56:00,60.0,60.0,42.0,27.45,10.0,WSW,14.0,0.0,Fair,False,False,False,False,False,False,False,False,False,False,False,True,False,Night,Night,Night,Night
C-412371,2,2020-06-17 21:48:43,2020-06-19 05:29:59,40.42784,-79.9257,40.42784,-79.9257,0.0,At Squirrel Hill Tunl - Roadwork. Roadway reduced to 1 lane.,2794.0,Murray Ave,R,Pittsburgh,Allegheny,PA,15217-2739,US,US/Eastern,KAGC,2020-06-17 21:53:00,69.0,69.0,58.0,28.79,10.0,E,7.0,0.0,Fair,False,False,False,False,False,False,False,False,False,False,False,False,False,Night,Night,Day,Day
C-412372,2,2021-10-19 18:31:54,2021-11-08 18:29:39,25.945149,-80.26160899999998,25.940338,-80.262775,0.3402111280229999,Slow traffic on FL-860 from NW 189th St to NW 38th Ave due to roadwork.,18811.0,NW 37th Ave,R,Miami Gardens,Miami-Dade,FL,33056-2910,US,US/Eastern,KOPF,2021-11-08 14:53:00,76.0,76.0,48.0,30.07,10.0,NNW,13.0,0.0,Partly Cloudy,False,False,True,False,False,False,False,False,True,False,False,True,False,Day,Day,Day,Day
C-412373,2,2021-06-14 10:59:30,2021-06-14 11:05:30,46.004465,-112.573546,45.992385,-112.543366,1.67182349785,Stationary traffic on I-15 N - I-90 E from Exit 122 (I-90/I-15) to I-115/Exit 124 (I-15) due to roadwork.,,I-15 N,R,Butte,Silver Bow,MT,59701,US,US/Mountain,KBTM,2021-06-14 10:53:00,82.0,82.0,19.0,24.5,10.0,CALM,0.0,0.0,Fair,False,False,False,False,True,False,False,False,False,False,False,False,False,Day,Day,Day,Day
C-412374,2,2020-09-30 01:45:00,2020-09-30 02:22:00,48.05642,-123.789685,48.06872,-123.920455,6.0979998935,Stationary traffic on US-101 from East Beach Rd (US-101) to Camp David Junior Rd (US-101) due to roadwork.,115.0,Lake Cresent Rd,L,Port Angeles,Clallam,WA,98363-9701,US,US/Pacific,KCLM,2020-09-30 01:53:00,54.0,54.0,93.0,29.8,10.0,CALM,0.0,0.0,Fair,False,False,False,False,False,False,False,False,False,False,False,False,False,Night,Night,Night,Night
C-412375,2,2016-11-30 10:00:00,2016-11-30 19:00:00,32.856243,-116.85733,,,0.0,Intermittent lane closures due to construction work on Flinn Springs Rd both ways near Shanteau Dr.,14800.0,Shanteau Dr,L,El Cajon,San Diego,CA,92021-2335,US,US/Pacific,KSEE,2016-11-30 09:47:00,57.2,,41.0,30.1,10.0,Calm,,,Clear,False,False,False,False,False,False,False,False,False,False,False,False,False,Day,Day,Day,Day
C-412376,2,2021-11-05 09:36:30,2021-11-05 09:57:30,46.477603,-114.089256,46.46345,-114.090726,0.980377977365,Stationary traffic on MT-269 from Pine Hollow Rd (MT-269) to Winters Ln (MT-269) due to roadwork.,3420.0,Eastside Hwy,R,Stevensville,Ravalli,MT,59870-6671,US,US/Mountain,KHMM,2021-11-05 09:53:00,41.0,41.0,73.0,26.74,10.0,CALM,0.0,0.0,Fair,False,False,False,False,False,False,False,False,False,False,False,False,False,Day,Day,Day,Day
C-412377,2,2020-09-10 07:00:00,2020-09-10 18:00:00,39.50013,-117.08123799999998,,,2.11999988556,Single alternate line traffic and temporary width limit of 14' due to construction work on US-50 Westbound in Austin.,,US-50 E,R,Austin,Lander,NV,89310,US,US/Pacific,KU31,2020-09-10 06:53:00,32.0,26.0,38.0,24.33,,S,6.0,0.0,,False,False,False,False,False,False,False,False,False,False,False,False,False,Day,Day,Day,Day
C-412378,2,2016-08-02 09:30:00,2016-08-02 15:30:00,41.12402700000001,-73.783913,,,0.0,Right lane closed due to construction work on Saw Mill River Pkwy Southbound between Exit 32 Hunts Ln and Exit 27 Marble Avenue.,,Saw Mill River Pkwy,R,Pleasantville,Westchester,NY,10570,US,US/Eastern,KHPN,2016-08-02 09:56:00,69.1,,70.0,30.11,10.0,ENE,11.5,,Mostly Cloudy,False,False,False,True,False,False,False,False,False,False,False,True,False,Day,Day,Day,Day
C-412379,3,2019-08-16 21:56:12,2019-08-20 21:56:08,33.75456,-118.01645,33.76115,-118.02435,0.642854142886,At Westminster Ave/Springdale St/Exit 19 - Roadwork.,,I-405 N,R,Westminster,Orange,CA,92683,US,US/Pacific,KSLI,2019-08-16 21:58:00,64.0,64.0,71.0,29.89,10.0,SSW,6.0,0.0,Mostly Cloudy,False,False,False,False,True,False,False,False,False,False,False,False,False,Night,Night,Night,Night
C-412380,2,2021-10-06 11:45:00,2021-10-06 13:48:35,39.928434,-104.939416,39.928432,-104.941116,0.0900730138159,Slow traffic from Holly St (128th Ave) to Washington St (E 128th Ave) due to roadwork.,4073.0,E 128th Ave,L,Thornton,Adams,CO,80241-2201,US,US/Mountain,KEIK,2021-10-06 11:35:00,68.0,68.0,28.0,24.87,10.0,N,3.0,0.0,Fair,False,False,False,False,False,False,False,False,False,False,False,False,False,Day,Day,Day,Day
C-412381,2,2021-09-07 15:37:40,2021-09-07 16:09:25,40.756279,-73.877914,40.756887,-73.872209,0.301526535242,Slow traffic on NY-25A from 82nd St (Northern Blvd/NY-25A) to 108th St (Northern Blvd/NY-25A) due to roadwork.,8922.0,Northern Blvd,R,Jackson Heights,Queens,NY,11372-1685,US,US/Eastern,KLGA,2021-09-07 15:51:00,83.0,83.0,37.0,29.9,10.0,W,10.0,0.0,Fair,True,False,False,False,False,False,False,False,True,False,False,True,False,Day,Day,Day,Day
C-412382,2,2020-11-09 11:03:30,2020-11-09 21:23:30,41.828905,-87.680109,41.830348,-87.677745,0.157331299272,Stationary traffic from Western Ave (S Archer Ave) to 35th St (S Archer Ave) due to roadwork.,3581.0,S Archer Ave,L,Chicago,Cook,IL,60609-1135,US,US/Central,KMDW,2020-11-09 10:53:00,74.0,74.0,55.0,29.4,10.0,S,16.0,0.0,Mostly Cloudy,False,False,False,False,False,False,False,False,True,False,False,True,False,Day,Day,Day,Day
C-412383,2,2021-08-25 14:10:30,2021-08-25 15:11:30,38.908799,-77.005066,38.906334,-77.012163,0.41786023723,Slow traffic on US-50 W from Florida Ave (New York Ave/US-50) to I-395 (New York Ave/US-50) due to roadwork.,212.0,New York Ave NE,L,Washington,District of Columbia,DC,20002,US,US/Eastern,KDCA,2021-08-25 13:52:00,92.0,92.0,52.0,30.1,10.0,S,8.0,0.0,Partly Cloudy,False,False,False,False,False,False,False,False,False,False,False,True,False,Day,Day,Day,Day
C-412384,3,2019-06-12 09:00:00,2019-06-12 14:00:00,38.854462,-77.389061,,,3.8900001049,Right lane blocked due to construction work on I-66 Westbound from Exits 57A 57B US-50 Lee Jackson Memorial Hwy to Exit 55 VA-286 Fairfax County Pkwy.,,I-66 W,R,Fairfax,Fairfax County,VA,22033,US,US/Eastern,KIAD,2019-06-12 08:52:00,66.0,66.0,59.0,29.85,10.0,E,6.0,0.0,Mostly Cloudy,False,False,False,False,False,False,False,False,False,False,False,False,False,Day,Day,Day,Day
C-412385,2,2020-06-24 06:30:04,2020-06-24 08:00:00,39.18839000000001,-74.81978000000002,39.18839000000001,-74.81978000000002,0.0,At RT-83 - Construction work. Hard shoulder blocked.,1055.0,State Highway 47,L,Woodbine,Cape May,NJ,08270,US,US/Eastern,KMIV,2020-06-24 06:54:00,76.0,76.0,76.0,29.63,10.0,W,9.0,0.0,Mostly Cloudy,False,False,False,False,False,False,False,False,False,False,False,False,False,Day,Day,Day,Day
C-412386,2,2021-06-22 20:01:00,2021-06-23 12:46:00,38.572438,-121.517336,38.560435,-121.481534,2.10444113851,Construction on US-50 EB near YOLO COUNTY LINE Drive with caution.,,Capital City Fwy E,R,West Sacramento,Yolo,CA,95691,US,US/Pacific,KSAC,2021-06-22 19:53:00,72.0,72.0,53.0,29.77,10.0,SW,10.0,0.0,Fair,False,False,False,False,False,False,False,False,False,False,False,False,False,Day,Day,Day,Day
C-412387,4,2021-07-23 06:01:00,2021-07-23 23:46:00,35.43335300000001,-117.671731,35.473376,-117.653962,2.94061230368,Construction on US-395 NB near GARLOCK RD Expect delays.,,Garlock Rd,R,Johannesburg,Kern,CA,93528,US,US/Pacific,KNID,2021-07-23 05:56:00,82.0,82.0,22.0,27.6,10.0,S,7.0,0.0,Fair,False,False,False,False,False,False,False,False,False,False,False,False,False,Day,Day,Day,Day
C-412388,2,2021-10-10 13:21:00,2021-10-10 14:03:00,39.7637,-86.330526,39.763716,-86.336709,0.328389272544,Slow traffic on US-36 E - US-36 W from Raceway Rd (Rockville Rd/US-36) to Ronald Reagan Pkwy (US-36) due to roadwork.,10835.0,E US Highway 36,R,Avon,Hendricks,IN,46123-7981,US,US/Eastern,KIND,2021-10-10 12:54:00,78.0,78.0,66.0,29.04,10.0,S,21.0,0.0,Partly Cloudy / Windy,False,False,True,False,False,False,False,False,False,False,False,True,False,Day,Day,Day,Day
C-412389,2,2021-07-26 17:22:00,2021-07-27 00:45:00,45.39539,-96.569266,45.392154,-96.561136,0.453422908661,Construction on MN-7 EB near MN-28 Allow extra time.,35869.0,State Highway 7,L,Ortonville,Big Stone,MN,56278,US,US/Central,KVVV,2021-07-26 17:15:00,90.0,90.0,52.0,28.71,10.0,SSW,7.0,0.0,Fair,False,False,False,False,False,False,False,False,False,False,False,False,False,Day,Day,Day,Day
C-412390,2,2021-03-03 06:00:00,2021-12-31 18:57:00,40.741988,-73.837601,40.755943,-73.83837199999998,0.965042876552,Roadwork on Exit 11 (I-678) from NY-25A/Exit 13 (I-678) to I-678 N.,,Van Wyck Expy N,R,Flushing,Queens,NY,11367,US,US/Eastern,KLGA,2021-10-08 13:51:00,74.0,74.0,64.0,30.11,10.0,NE,12.0,0.0,Mostly Cloudy,False,False,False,False,False,False,False,False,False,False,False,False,False,Night,Day,Day,Day
C-412391,4,2018-03-10 15:11:43,2018-03-10 21:11:43,29.510519,-98.397618,29.51366,-98.39697,0.220492358955,At FM-1976/Walzem Rd/Exit 165 - Construction work.,,I-410 N,R,San Antonio,Bexar,TX,78239,US,US/Central,KRND,2018-03-10 14:56:00,86.9,,43.0,29.69,10.0,SW,8.1,,Clear,False,False,False,False,False,False,False,False,False,False,False,False,False,Day,Day,Day,Day
C-412392,4,2018-12-17 21:04:00,2018-12-18 02:03:26,29.707709,-95.303619,29.707431,-95.303171,0.0330420089263,Closed at Broad St/Exit 41 - Closed due to roadwork.,6400.0,Kernel St,R,Houston,Harris,TX,77087-1514,US,US/Central,KHOU,2018-12-17 20:53:00,55.0,,89.0,30.19,9.0,SSE,5.8,,Partly Cloudy,False,False,False,False,False,False,False,False,False,False,False,False,False,Night,Night,Night,Night
C-412393,2,2021-05-27 07:37:30,2021-05-27 09:53:40,26.724831,-80.071372,26.724686,-80.065596,0.356593107418,Slow traffic from 7th St/N Mangonia Dr (Palm Beach Lakes Blvd) to US-1/FL-5/N Dixie Hwy (Palm Beach Lakes Blvd) due to roadwork.,,Palm Beach Lakes Blvd,R,West Palm Beach,Palm Beach,FL,33401,US,US/Eastern,KPBI,2021-05-27 07:53:00,79.0,79.0,69.0,30.11,10.0,SE,10.0,0.0,Mostly Cloudy,False,False,False,False,False,False,False,False,False,False,False,False,False,Day,Day,Day,Day
C-412394,2,2021-11-13 09:39:30,2021-11-13 10:12:00,40.18907100000001,-104.291292,40.213281,-104.222002,4.02104455491,Slow traffic on I-76 E - US-6 E from Painter Rd/Exit 49 (I-76) to CR-91/Exit 57 (I-76) due to roadwork.,,I-76 E,R,Roggen,Weld,CO,80652,US,US/Mountain,KGXY,2021-11-13 09:56:00,62.0,62.0,26.0,25.36,10.0,W,9.0,0.0,Fair,False,False,False,False,False,False,False,False,False,False,False,False,False,Day,Day,Day,Day
C-412395,4,2021-04-17 20:15:07,2021-04-24 23:59:00,40.758584,-73.985078,40.757696,-73.982966,0.126421029163,Closed road from 7th Ave to Avenue of the Americas due to roadwork.,1550.0,7th Ave,R,New York,New York,NY,10036,US,US/Eastern,KNYC,2021-04-17 19:51:00,53.0,53.0,47.0,29.7,10.0,VAR,5.0,0.0,Cloudy,True,False,True,False,False,False,False,False,False,False,False,True,False,Night,Night,Day,Day
C-412396,2,2021-12-15 16:47:30,2021-12-15 17:17:57,28.079392,-80.604952,28.08011500000001,-80.603029,0.127427260425,Slow traffic on US-192 E - US-192 W from FL-507/S Babcock St (US-192) to FL-A1A/S Miramar Ave (US-192) due to roadwork.,1900.0,Depot Dr,R,Melbourne,Brevard,FL,32901,US,US/Eastern,KMLB,2021-12-15 16:53:00,72.0,72.0,87.0,30.15,10.0,SSE,5.0,0.01,Cloudy,True,False,True,False,False,False,True,False,False,False,False,False,False,Day,Day,Day,Day
C-412397,2,2021-02-12 06:00:00,2021-02-12 10:02:52,25.732218,-80.369738,25.732279,-80.36662199999998,0.193990673152,Slow traffic on FL-976 from FL-821/117th Ave/Florida's Tpke (Bird Dr/SW 40th St/FL-976) to FL-985/SW 107th Ave (SW 40th St/Bird Rd/FL-976) due to roadwork.,,SW 40th St,R,Miami,Miami-Dade,FL,33165,US,US/Eastern,KMIA,2021-02-12 05:53:00,73.0,73.0,87.0,29.97,10.0,SE,6.0,0.0,Fair,True,False,False,False,False,False,False,False,True,False,False,False,False,Night,Night,Night,Day
C-412398,2,2021-12-12 13:25:30,2021-12-12 13:46:00,25.947339000000003,-80.150637,25.947388,-80.14688000000002,0.233441526826,Stationary traffic on FL-860 from 19th Ave (FL-860) to US-1/FL-5/Biscayne Blvd (FL-860) due to roadwork.,2484.0,NE Miami Gardens Dr,R,Miami,Miami-Dade,FL,33180-2705,US,US/Eastern,KHWO,2021-12-12 13:53:00,83.0,83.0,58.0,30.13,10.0,NE,7.0,0.0,Fair,False,False,True,False,False,False,False,False,False,False,False,True,False,Day,Day,Day,Day
C-412399,2,2021-01-21 13:26:30,2021-01-21 21:25:27,25.794315,-80.238714,25.793269,-80.239747,0.0967100838764,Slow traffic on FL-9 from NW 25th Ave to NW South River Dr due to roadwork.,2598.0,NW 20th St,L,Miami,Miami-Dade,FL,33142-7104,US,US/Eastern,KMIA,2021-01-21 13:53:00,74.0,74.0,57.0,30.06,10.0,VAR,3.0,0.0,Mostly Cloudy,False,False,False,False,False,False,False,False,False,False,False,True,False,Day,Day,Day,Day
C-412400,2,2021-12-09 06:30:30,2021-12-09 20:55:00,41.889428,-87.648699,41.885,-87.646163,0.332593838087,Slow traffic on I-94 E - I-90 E - Kennedy Expy E from Ohio St/Exit 50B (I-90/I-94) to Lake St/Exit 51A (I-90/I-94) due to roadwork.,,I-90 E,R,Chicago,Cook,IL,60642,US,US/Central,KMDW,2021-12-09 06:53:00,32.0,24.0,61.0,29.21,10.0,SE,10.0,0.0,Cloudy,False,False,True,False,False,False,False,False,False,False,False,False,False,Night,Night,Day,Day
C-412401,2,2021-10-13 02:29:30,2021-10-13 02:42:30,38.860198,-77.356163,38.861078000000006,-77.351413,0.262689563763,Stationary traffic on I-66 E from Monument Dr (I-66) to US-50/Exit 57 (I-66) due to roadwork.,,I-66 E,R,Fairfax,Fairfax County,VA,22033,US,US/Eastern,KIAD,2021-10-13 02:52:00,64.0,64.0,96.0,29.72,10.0,CALM,0.0,0.0,Cloudy,False,False,False,False,False,False,False,False,False,False,False,False,False,Night,Night,Night,Night
C-412402,4,2020-09-14 05:30:00,2020-09-14 12:45:00,44.862724,-93.120603,44.864518,-93.129714,0.463086664783,Construction on I-494 WB near MN-55 Use alternate exit ramp.,,I-494 W,R,Saint Paul,Dakota,MN,55120,US,US/Central,KMSP,2020-09-14 05:53:00,57.0,57.0,77.0,29.41,10.0,ENE,6.0,0.0,Fair,False,False,False,False,False,False,False,False,False,False,False,False,False,Night,Night,Night,Day
C-412403,2,2020-12-28 14:39:00,2020-12-29 01:56:14,25.948502,-80.148765,25.947445,-80.147976,0.0879574623753,Slow traffic on FL-860 from NE 188th St to Biscayne Blvd due to roadwork.,18676.0,W Dixie Hwy,L,Miami,Miami-Dade,FL,33180-2661,US,US/Eastern,KHWO,2020-12-28 14:53:00,76.0,76.0,52.0,30.16,10.0,ENE,18.0,0.0,Fair,False,False,False,False,False,False,False,False,False,False,False,True,False,Day,Day,Day,Day
C-412404,2,2017-03-06 07:00:00,2017-09-30 18:01:00,40.61882,-103.181114,,,5.05999994278,Traffic shift intermittent lane closures speed restriction of 35 mph and temporary width limit of 12' due to construction on US-6 both ways from US-138 4th St to County Hwy-370.,21801.0,US Highway 6,R,Sterling,Logan,CO,80751,US,US/Mountain,KSTK,2017-03-06 06:55:00,44.6,38.8,39.0,29.3,10.0,SW,11.5,,Clear,False,False,False,False,False,False,False,False,False,False,False,False,False,Day,Day,Day,Day
C-412405,2,2021-05-17 19:14:00,2021-05-18 06:45:00,41.106436,-73.422634,41.107914,-73.408614,0.7369986520909999,Construction on I-95 NB near EXIT 14 Construction. Right lane closed.,,Governor John Davis Lodge Tpke,R,Norwalk,Fairfield,CT,06854,US,US/Eastern,KHPN,2021-05-17 18:56:00,67.0,67.0,42.0,29.77,10.0,S,8.0,0.0,Partly Cloudy,False,False,False,False,False,False,False,False,False,False,False,False,False,Day,Day,Day,Day
C-412406,2,2021-02-21 08:00:00,2021-02-21 17:45:00,29.743826,-95.371489,29.74289000000001,-95.372228,0.0784080857348,Construction on CAROLINE ST SB near MCGOWEN Expect delays.,2566.0,Caroline St,R,Houston,Harris,TX,77004-1115,US,US/Central,KMCJ,2021-02-21 07:53:00,53.0,53.0,86.0,30.07,10.0,E,5.0,0.0,Mostly Cloudy,False,False,False,False,False,False,False,False,False,True,False,True,False,Day,Day,Day,Day
C-412407,4,2019-05-09 11:47:01,2019-05-09 16:46:52,32.289365999999994,-96.606219,32.292851,-96.578436,1.64051034653,Closed between Ensign Rd and I-45 - Closed due to roadwork.,,US-287 N,R,Ennis,Ellis,TX,75119,US,US/Central,KLNC,2019-05-09 11:55:00,75.0,75.0,78.0,29.35,10.0,CALM,0.0,0.0,Mostly Cloudy,False,False,False,False,False,False,False,False,False,False,False,False,False,Day,Day,Day,Day
C-412408,3,2020-03-06 15:33:05,2020-03-10 16:31:48,39.00082,-77.00426,39.00041,-77.00416,0.0288326975107,At MD-320/Piney Branch Rd - Roadwork.,8909.0,Arliss St,R,Silver Spring,Montgomery,MD,20901,US,US/Eastern,KCGS,2020-03-06 15:28:00,51.0,51.0,42.0,29.74,10.0,NNW,12.0,0.0,Mostly Cloudy,False,False,False,False,False,False,False,False,False,False,False,False,False,Day,Day,Day,Day
C-412409,2,2021-12-21 12:20:08,2021-12-21 14:40:15,34.792165000000004,-86.95601500000002,34.798221000000005,-86.95349300000002,0.442221751944,Slow traffic on US-31 N - AL-3 from US-72/AL-2 (US-31) to AL-251/Pryor St (US-31) due to roadwork.,587.0,US Highway 31 S,L,Athens,Limestone,AL,35611-2833,US,US/Central,KDCU,2021-12-21 11:53:00,48.0,45.0,58.0,29.38,10.0,SW,6.0,0.0,Partly Cloudy,False,False,False,False,False,False,False,False,False,True,False,False,False,Day,Day,Day,Day
C-412410,2,2021-03-24 05:48:30,2021-03-24 18:42:16,26.231675,-80.105357,26.231718,-80.10212800000002,0.200148251508,Slow traffic on FL-814 from Cypress Rd (FL-814) to FL-A1A/Ocean Blvd (E Atlantic Blvd/FL-814) due to roadwork.,1854.0,E Atlantic Blvd,L,Pompano Beach,Broward,FL,33060-6755,US,US/Eastern,KPMP,2021-03-24 05:53:00,60.0,60.0,93.0,29.96,9.0,CALM,0.0,0.0,Fair,False,False,False,False,False,False,False,False,False,False,False,False,False,Night,Night,Night,Night
C-412411,2,2021-12-21 17:01:30,2021-12-21 19:04:19,33.493669,-112.22056200000002,33.494649,-112.220566,0.0677119434161,Slow traffic from W Clarendon Ave to N 75th Dr due to roadwork.,4021.0,N 75th Ave,R,Phoenix,Maricopa,AZ,85033-3728,US,US/Mountain,KGEU,2021-12-21 16:58:00,63.0,63.0,32.0,28.89,10.0,CALM,0.0,0.0,Cloudy,False,False,True,False,False,False,False,False,False,False,False,True,False,Day,Day,Day,Day
C-412412,2,2021-06-09 10:00:00,2021-06-09 14:45:00,40.69413,-73.811945,40.671014,-73.801227,1.69301541616,Construction on I-678 SB near ROCKAWAY BLVD Construction. Right lane closed.,,Van Wyck Expy S,R,South Richmond Hill,Queens,NY,11419,US,US/Eastern,KJFK,2021-06-09 09:51:00,82.0,82.0,67.0,29.98,10.0,NW,5.0,0.0,Mostly Cloudy,False,False,False,False,True,False,False,False,False,False,False,False,False,Day,Day,Day,Day
C-412413,2,2021-07-30 10:18:30,2021-07-30 12:01:30,38.320886,-77.47041,38.313232,-77.475522,0.597050705954,Stationary traffic on US-1 N - US-17 N - US-1 S - US-17 S from US-17/VA-212/Warrenton Rd (Cambridge St/US-1) to VA-3/William St (Jefferson Davis Hwy/US-1) due to roadwork.,,Cambridge St,R,Fredericksburg,Stafford,VA,22405,US,US/Eastern,KEZF,2021-07-30 10:15:00,85.0,85.0,57.0,29.76,10.0,N,8.0,0.0,Fair,False,False,False,False,False,False,False,False,False,False,False,False,False,Day,Day,Day,Day
C-412414,2,2021-11-15 16:52:53,2021-11-15 17:06:53,32.725381,-96.826338,32.714008,-96.829651,0.809054809464,Slow traffic on US-67 S - US-77 S - R L Thornton Fwy S - I-35E S from Zang Blvd/Exit 425 (I-35E) to W Saner Ave/Exit 423B (I-35E) due to roadwork.,,I-35E S,R,Dallas,Dallas,TX,75224,US,US/Central,KRBD,2021-11-15 16:53:00,77.0,77.0,50.0,29.28,10.0,S,13.0,0.0,Fair,False,False,False,False,False,False,False,False,False,False,False,False,False,Day,Day,Day,Day
C-412415,2,2018-12-23 19:00:00,2019-01-07 06:00:00,31.365558,-89.354566,31.353335,-89.34266600000002,1.09826084659,Between MS-42/JD Broome Rd and Pritchard Rd - Construction work. Lane blocked.,,U S Highway 49,R,Hattiesburg,Forrest,MS,39402,US,US/Central,KHBG,2018-12-23 18:53:00,59.0,,62.0,30.25,10.0,NNW,8.1,,Clear,False,False,False,False,False,False,False,False,False,False,False,False,False,Night,Night,Night,Night
C-412416,2,2021-12-31 12:46:00,2021-12-31 14:50:47,29.531569,-95.810822,29.53173,-95.806587,0.254838603796,Slow traffic from Cottonwood School Rd (US-59 Frontage/Southwest Fwy Frontage) to B F Terry Blvd (US-59 Frontage/Southwest Fwy Frontage/Danzinger Rd) due to roadwork.,28111.0,Southwest Fwy,R,Rosenberg,Fort Bend,TX,77471-7103,US,US/Central,KSGR,2021-12-31 12:45:00,84.0,84.0,61.0,29.71,10.0,S,20.0,0.0,Mostly Cloudy,False,False,False,False,False,False,False,False,False,False,False,False,False,Day,Day,Day,Day
C-412417,2,2020-11-25 14:23:00,2020-11-26 00:51:53,25.945651,-80.148579,25.947442,-80.14805600000003,0.127941295918,Stationary traffic on FL-860 from NE 183rd St to Biscayne Blvd due to roadwork.,18337.0,W Dixie Hwy,R,North Miami Beach,Miami-Dade,FL,33160-2071,US,US/Eastern,KHWO,2020-11-25 14:53:00,80.0,80.0,58.0,30.14,10.0,E,16.0,0.0,Cloudy,False,False,True,False,False,False,False,False,False,False,False,False,False,Day,Day,Day,Day
C-412418,2,2017-08-14 22:17:56,2017-08-15 04:17:58,40.771038,-73.994608,40.76206,-74.00133000000002,0.71311513009,Between 57th St and 42nd St - Construction work.,,Joe DiMaggio Hwy,R,New York,New York,NY,10019,US,US/Eastern,KNYC,2017-08-14 21:51:00,75.0,,76.0,29.96,10.0,Variable,3.5,,Partly Cloudy,False,False,True,False,False,False,False,False,False,False,False,True,False,Night,Night,Night,Night
C-412419,2,2021-10-18 17:27:30,2021-10-18 17:51:00,39.74622700000001,-105.142435,39.750066,-105.142407,0.265253808249,Stationary traffic from US-40/W Colfax Ave (Youngfield St) to CR-34/W 27th Ave (Youngfield St) due to roadwork.,1939.0,Youngfield St,L,Golden,Jefferson,CO,80401-3571,US,US/Mountain,KBJC,2021-10-18 17:48:00,72.0,72.0,14.0,24.17,10.0,SSE,6.0,0.0,Partly Cloudy,False,False,False,False,False,False,False,False,False,False,False,False,False,Day,Day,Day,Day
C-412420,4,2020-04-30 04:17:38,2020-04-30 08:47:07,40.85005,-73.94481,40.84911,-73.94036,0.241474339535,Closed at RT-9A/Henry Hudson Pky - Closed due to roadwork.,,George Washington Brg,R,New York,New York,NY,10032,US,US/Eastern,KNYC,2020-04-30 04:09:00,50.0,50.0,93.0,30.03,5.0,E,8.0,0.03,Light Rain,False,False,False,False,False,False,False,False,False,False,False,False,False,Night,Night,Night,Day
C-412421,2,2020-06-02 00:00:01,2020-06-03 00:00:01,40.26557,-103.83378,40.26562,-103.84824,0.762370668012,At US-34/I-76-BL/Exit 75 - Construction work.,,CO-52 W,R,Fort Morgan,Morgan,CO,80701,US,US/Mountain,KFMM,2020-06-02 00:15:00,73.0,73.0,31.0,25.39,10.0,S,6.0,,Fair,False,False,False,False,False,False,False,False,False,False,False,False,False,Night,Night,Night,Night
C-412422,2,2018-09-20 13:30:12,2018-09-24 13:29:50,40.94831,-74.06727,40.94831,-74.06727,0.0,At From Rd - Construction work. Right lane blocked.,65.0,E Midland Ave,L,Paramus,Bergen,NJ,07652-2916,US,US/Eastern,KTEB,2018-09-20 13:51:00,71.1,,63.0,30.22,10.0,NNE,5.8,,Overcast,False,False,False,False,False,False,False,False,False,False,False,True,False,Day,Day,Day,Day
C-412423,2,2021-03-26 04:50:30,2021-03-26 17:29:48,42.566884,-87.909987,42.565789,-87.91415699999996,0.225282568596,Slow traffic on County Hwy-H - WI-50 from Frontage Rd to 76th St due to roadwork.,8380.0,75th St,L,Kenosha,Kenosha,WI,53142-7637,US,US/Central,KENW,2021-03-26 04:53:00,35.0,28.0,82.0,29.06,10.0,NNW,9.0,0.0,Cloudy,False,False,False,False,False,False,False,False,False,False,False,False,False,Night,Night,Night,Night
C-412424,2,2020-12-25 14:21:00,2020-12-28 02:11:49,40.719918,-73.993002,40.718459,-73.988256,0.268199843406,Slow traffic from Bowery (Delancey St) to Pitt St (Delancey St) due to roadwork.,,Chrystie St,R,New York,New York,NY,10002,US,US/Eastern,KJRB,2020-12-25 14:31:00,48.0,,71.0,29.38,10.0,,,0.0,Mostly Cloudy,True,False,True,False,False,False,True,False,True,False,False,True,False,Day,Day,Day,Day
C-412425,2,2021-05-24 08:07:00,2021-05-30 00:33:44,40.639642,-76.080662,40.645813,-76.138839,3.07970956193,Roadwork on PA 61 northbound between BRICK HILL RD RAMP B and JUGHANDLE RD MARKET ST. There is a lane restriction.,1251.0,Centre Tpke,R,Orwigsburg,Schuylkill,PA,17961-9059,US,US/Eastern,KRDG,2021-05-24 07:54:00,64.0,64.0,48.0,29.85,10.0,VAR,5.0,0.0,Cloudy,False,False,True,False,False,False,False,False,False,False,False,True,False,Day,Day,Day,Day
C-412426,2,2021-03-10 08:25:55,2021-12-23 13:15:35,42.073291,-122.605952,42.015351,-122.614132,4.025215302019999,Slow traffic on OR-99 S - Pacific Highway 1 S - I-5 S from Old Siskiyou Hwy/Exit 6 (I-5) to OR-99/Exit 1 (I-5) due to roadwork.,,I-5 S,R,Ashland,Jackson,OR,97520,US,US/Pacific,KMFR,2021-06-19 17:53:00,93.0,93.0,25.0,28.42,10.0,WNW,13.0,0.0,Fair,False,False,False,False,False,False,False,False,False,False,False,False,False,Day,Day,Day,Day
C-412427,2,2021-05-28 11:45:00,2021-05-28 13:51:22,40.331035,-76.852173,40.328734,-76.857275,0.312239022767,Stationary traffic on PA-39 from Sturbridge Dr to Bogar Ave due to roadwork.,2735.0,Linglestown Rd,R,Harrisburg,Dauphin,PA,17110,US,US/Eastern,KCXY,2021-05-28 11:56:00,67.0,67.0,49.0,29.59,10.0,ESE,10.0,0.0,Cloudy,False,False,False,False,False,False,False,False,False,False,False,False,False,Day,Day,Day,Day
C-412428,2,2018-06-27 08:32:28,2018-06-27 14:35:28,40.26485,-76.89038000000002,40.26018,-76.90575,0.872252420598,Between N Front St and N 2nd St - Roadwork. Lane blocked.,2.0,Forster St,L,Harrisburg,Dauphin,PA,17102-3414,US,US/Eastern,KCXY,2018-06-27 08:21:00,71.1,,73.0,30.04,10.0,ESE,8.1,,Overcast,False,False,True,True,True,False,False,False,False,True,False,True,False,Day,Day,Day,Day
C-412429,2,2021-10-14 14:37:00,2021-10-14 16:39:48,29.698827,-98.452083,29.695463,-98.452732,0.2356715563349999,Stationary traffic on US-281 S from E Borgfeld Dr to W.R. Larson Rd / Trinity Park due to roadwork.,26975.0,US Highway 281 N,L,San Antonio,Bexar,TX,78260-2136,US,US/Central,KSAT,2021-10-14 14:51:00,84.0,84.0,67.0,28.97,10.0,VAR,7.0,0.0,Partly Cloudy,False,False,False,False,False,False,False,False,False,False,False,False,False,Day,Day,Day,Day
C-412430,2,2020-03-13 14:50:07,2020-07-25 06:00:00,33.300940000000004,-111.89418,33.38063,-111.89234,5.50707884896,Between Price Rd/Exit 61 and US-60/Exit 55 - Roadwork. Roadway reduced to 2 lanes.,,Price Fwy N,R,Chandler,Maricopa,AZ,85226,US,US/Mountain,KCHD,2020-03-13 14:47:00,64.0,64.0,56.0,28.58,10.0,SW,12.0,,Mostly Cloudy,False,False,False,False,False,False,False,False,False,False,False,False,False,Day,Day,Day,Day
C-412431,2,2019-01-02 09:04:46,2019-01-06 09:04:27,25.88389,-80.207003,25.88264,-80.25128000000002,2.7537164367400004,Between 5th Ave and 32nd Ave - Construction work.,518.0,NW 119th St,L,Miami,Miami-Dade,FL,33168-3431,US,US/Eastern,KOPF,2019-01-02 08:53:00,78.1,,68.0,30.21,10.0,ESE,4.6,,Clear,False,False,False,False,False,False,False,False,False,False,False,True,False,Day,Day,Day,Day
C-412432,2,2021-11-10 11:28:30,2021-11-10 11:58:00,47.642488,-122.302163,47.646388,-122.304566,0.291759756725,Stationary traffic on WA-513 from E Louisa St/24th Ave E (E Montlake Pl E) to NE Pacific St (Montlake Blvd) due to roadwork.,2537.0,24th Ave E,L,Seattle,King,WA,98112-2255,US,US/Pacific,KBFI,2021-11-10 11:53:00,52.0,52.0,69.0,30.29,10.0,SSE,6.0,0.0,Mostly Cloudy,False,False,True,False,False,False,False,False,True,False,False,True,False,Day,Day,Day,Day
C-412433,2,2020-10-04 23:00:00,2020-10-05 04:00:00,33.911598,-117.88311000000002,,,0.949999988079,Entry ramp to CA-57 Northbound from E Imperial Hwy Westbound closed due to electricity work.,,CA-57 N,R,Brea,Orange,CA,92821,US,US/Pacific,KFUL,2020-10-04 22:53:00,76.0,76.0,40.0,29.86,6.0,E,3.0,0.0,Haze,False,False,False,False,False,False,False,False,False,False,False,False,False,Night,Night,Night,Night
C-412434,2,2017-10-02 00:01:00,2017-10-06 23:59:00,42.137447,-72.515846,,,1.4199999570800002,Intermittent lane closures due to paving repairs on Boston Rd both ways between Covington St and Methuen St.,2.0,Methuen St,R,Springfield,Hampden,MA,01119-1524,US,US/Eastern,KCEF,2017-10-02 00:00:00,41.0,,93.0,30.31,4.0,Calm,,,Clear,False,False,False,False,False,False,False,False,False,False,False,False,False,Night,Night,Night,Night
C-412435,3,2020-05-10 15:30:25,2020-05-19 12:48:07,30.17977,-97.88167,30.20902,-97.86006,2.3978818527200003,Between La Crosse Ave and Slaughter Ln W - Construction work.,11113.0,Mopac Expy N,L,Austin,Travis,TX,78739,US,US/Central,KATT,2020-05-13 10:51:00,71.0,71.0,84.0,29.26,9.0,VAR,3.0,0.0,Cloudy,False,False,False,False,False,False,False,False,False,False,False,False,False,Day,Day,Day,Day
C-412436,2,2021-10-28 16:29:15,2021-10-28 18:50:02,25.84540100000001,-80.263817,25.845779,-80.26614599999998,0.147158400945,Slow traffic on FL-934 - FL-953 from E 10th Ave to E 26th St due to roadwork.,913.0,E 25th St,L,Hialeah,Miami-Dade,FL,33013-3403,US,US/Eastern,KOPF,2021-10-28 16:30:00,80.0,80.0,85.0,29.78,2.0,WSW,13.0,0.22,Light Rain with Thunder,False,False,False,False,False,False,False,False,True,False,False,False,False,Day,Day,Day,Day
C-412437,2,2021-12-14 11:09:30,2021-12-14 13:50:03,29.656151,-82.39149499999998,29.656746,-82.38990600000002,0.103888140592,Stationary traffic on FL-26 from NW 45th St to NW 8th Ave due to roadwork.,,NW 45th St,R,Gainesville,Alachua,FL,32607,US,US/Eastern,KGNV,2021-12-14 11:53:00,68.0,68.0,68.0,30.21,10.0,N,8.0,0.0,Cloudy,False,False,True,False,False,False,False,False,False,False,False,False,False,Day,Day,Day,Day
C-412438,2,2020-05-31 07:25:50,2020-05-31 18:00:00,42.56816,-88.11646999999998,42.5682,-88.09555,1.06452678255,Between CR-B/288th Ave and US-45/200th Ave/Bristol Rd - Roadwork. Right lane closed.,,Antioch Rd,R,Salem,Kenosha,WI,53168,US,US/Central,KENW,2020-05-31 07:53:00,54.0,54.0,49.0,29.57,10.0,E,7.0,0.0,Fair,False,False,False,False,False,False,False,False,False,False,False,True,False,Day,Day,Day,Day
C-412439,2,2021-09-13 13:57:30,2021-09-13 14:18:30,36.40085,-105.575959,36.407211,-105.573382,0.462276943677,Slow traffic on NM-68 from Paseo Del Canon (Paseo Del Pueblo sur/NM-68) to NM-240/Placitas Rd (Paseo Del Pueblo sur/NM-68) due to roadwork.,321.0,Paseo del Pueblo Sur,R,Taos,Taos,NM,87571-5959,US,US/Mountain,KSKX,2021-09-13 13:56:00,85.0,85.0,15.0,23.42,10.0,WSW,10.0,0.0,Fair,True,False,False,False,False,False,False,False,False,False,False,False,False,Day,Day,Day,Day
C-412440,2,2021-08-25 07:30:00,2021-08-25 08:47:01,26.778437,-80.098609,26.783138,-80.098268,0.325488492193,Slow traffic from exit [76] to W Blue Heron Blvd due to roadwork.,,I-95 N,R,West Palm Beach,Palm Beach,FL,33404,US,US/Eastern,KPBI,2021-08-25 07:27:00,83.0,83.0,85.0,30.02,10.0,ESE,13.0,0.0,Thunder,False,False,False,False,False,False,False,False,False,False,False,True,False,Day,Day,Day,Day
C-412441,2,2021-04-12 05:11:26,2021-04-12 17:10:35,37.689242,-95.489018,37.689238,-95.486024,0.163700996049,Roadwork on US-75 (Buffalo) (East) (KS-39) from US-169/KS-57 (220th Rd/W Cherry St/KS-39) to KS-39.,,Highway 39,R,Chanute,Neosho,KS,66720,US,US/Central,KCNU,2021-04-12 04:52:00,52.0,52.0,45.0,28.82,10.0,N,14.0,0.0,Fair,False,False,False,False,False,False,False,False,False,True,False,False,False,Night,Night,Night,Night
C-412442,4,2019-10-26 15:02:33,2019-10-26 20:01:21,47.18804,-122.51507,47.18765,-122.51578,0.0428668625874,Closed at Steilacoom Blvd SW - Closed. Incident. Gas main work.,7603.0,59th Ave W,L,Lakewood,Pierce,WA,98499-8590,US,US/Pacific,KTCM,2019-10-26 14:58:00,53.0,53.0,76.0,30.0,7.0,NNE,20.0,0.0,Mostly Cloudy,False,False,False,False,False,False,False,False,False,False,False,False,False,Day,Day,Day,Day
C-412443,4,2020-05-12 16:44:09,2020-05-12 21:42:39,41.97522,-87.75771999999998,41.97529,-87.75232,0.277420611955,Closed at Elston Ave - Closed due to roadwork.,5194.0,W Foster Ave,R,Chicago,Cook,IL,60630-1632,US,US/Central,KORD,2020-05-12 16:51:00,57.0,57.0,34.0,29.43,10.0,ENE,17.0,0.0,Partly Cloudy,True,False,False,False,False,False,False,False,True,False,False,True,False,Day,Day,Day,Day
C-412444,2,2021-12-14 17:24:21,2021-12-14 17:44:21,28.416174,-80.706707,28.410693,-80.70622900000002,0.379813464728,Stationary traffic on FL-3 from N Tropical Trl (N Courtenay Pkwy/FL-3) to FL-528/FL-A1A (N Courtenay Pkwy/FL-3) due to roadwork.,3283.0,N Courtenay Pkwy,L,Merritt Island,Brevard,FL,32953,US,US/Eastern,KXMR,,,,,,,,,,,False,False,False,False,False,False,False,False,False,False,False,True,False,Day,Day,Day,Day
C-412445,2,2020-09-11 16:07:30,2020-09-11 17:09:00,40.743309,-73.86749300000002,40.738886,-73.866755,0.308032586859,Queuing traffic from Roosevelt Ave (Junction Blvd) to I-495/Horace Harding Expy (Junction Blvd) due to resurfacing work.,4698.0,Junction Blvd,R,Corona,Queens,NY,11368-2728,US,US/Eastern,KLGA,2020-09-11 15:51:00,78.0,78.0,50.0,30.14,10.0,N,9.0,0.0,Mostly Cloudy,False,False,True,False,False,False,False,False,False,True,False,True,False,Day,Day,Day,Day
C-412446,2,2020-09-23 10:50:30,2020-09-24 04:50:00,41.853099,-87.64496199999998,41.86455,-87.644185,0.792198459111,Stationary traffic on I-94 W - I-90 W - Dan Ryan Expy N from Canalport Ave exit [53A] to Roosevelt Rd exit [52B] due to roadwork.,,Dan Ryan Expy N,R,Chicago,Cook,IL,60616,US,US/Central,KMDW,2020-09-23 10:53:00,71.0,71.0,61.0,29.4,10.0,VAR,3.0,0.0,Mostly Cloudy,False,False,False,False,False,False,False,False,False,False,False,False,False,Day,Day,Day,Day
C-412447,2,2021-06-10 10:00:01,2021-06-10 16:16:00,41.78369,-72.660302,41.802377,-72.656644,1.3048267100700002,ConnDOT: Road Work on I-91 Northbound between Exits 33 and 34 (1.4 miles) in effect today until 3:31 pm. The right lane is closed. Reported Thursday June 10 at 10:01 am.,,I-91 N,R,Hartford,Hartford,CT,06120,US,US/Eastern,KHFD,2021-06-10 09:53:00,75.0,75.0,48.0,30.03,10.0,N,10.0,0.0,Fair,False,False,False,False,True,False,False,False,False,False,False,False,False,Day,Day,Day,Day
C-412448,2,2021-07-03 17:28:00,2021-12-03 16:39:15,39.28591,-84.398064,39.289313,-84.395083,0.28407144302,Slow traffic on US-42 S - US-42 N from E Kemper Rd (Lebanon Rd/US-42) to I-275 (Lebanon Rd/US-42) due to roadwork.,11738.0,Lebanon Rd,R,Cincinnati,Hamilton,OH,45241-2039,US,US/Eastern,KHAO,2021-12-03 14:53:00,58.0,58.0,37.0,29.31,10.0,E,9.0,0.0,Fair,False,False,False,False,False,False,False,False,False,False,False,False,False,Day,Day,Day,Day
C-412449,2,2020-05-14 03:50:01,2020-11-01 07:44:00,43.156732,-77.684701,43.156572,-77.67783100000003,0.346443006285,Construction on I-490 eastbound at I-390 (Gates) Overhead sign inspection Monday August 17th 2020 thru Monday August 17th 2020 12:00 PM thru 04:00 PM left lane closed,,I-490 E,R,Rochester,Monroe,NY,14606,US,US/Eastern,KROC,2020-05-14 03:54:00,38.0,38.0,68.0,29.68,10.0,CALM,0.0,0.0,Partly Cloudy,False,False,False,False,True,False,False,False,False,False,False,False,False,Night,Night,Night,Day
C-412450,3,2018-04-24 20:00:00,2018-04-25 06:00:00,42.954765,-76.98155200000002,,,20.920000076300003,Intermittent lane closures due to construction work on I-90 Eastbound between Exit 43 NY-21 and Exit 42 NY-14.,,I-90 E,R,Phelps,Ontario,NY,14532,US,US/Eastern,KPEO,2018-04-24 19:53:00,62.1,,38.0,30.09,10.0,South,11.5,,Overcast,False,False,False,False,False,False,False,False,False,False,False,False,False,Day,Day,Day,Day
C-412451,2,2021-07-23 15:18:20,2021-07-23 15:42:44,42.973312,-85.637043,42.976592,-85.610713,1.3501978092200002,Slow traffic on I-196 E - Gerald R Ford Fwy E from Fuller Ave/Exit 79 (I-196) to I-96/MI-37 (I-196) due to roadwork.,,Gerald R Ford Fwy E,R,Grand Rapids,Kent,MI,49503,US,US/Eastern,KGRR,2021-07-23 15:14:00,79.0,79.0,82.0,29.12,1.0,WSW,10.0,0.0,Light Rain,False,False,False,False,False,False,False,False,False,False,False,False,False,Day,Day,Day,Day
C-412452,2,2020-09-22 07:00:00,2020-11-01 07:44:59,40.748325,-73.980298,40.747678,-73.97878299999998,0.0910337885568,Construction on E 36TH ST near LEXINGTON AVE Allow extra time.,,E 36th St,R,New York,New York,NY,10016,US,US/Eastern,KNYC,2020-09-22 06:51:00,50.0,50.0,66.0,30.13,10.0,CALM,0.0,0.0,Fair,True,False,False,False,False,False,False,False,False,False,False,True,False,Day,Day,Day,Day
C-412453,2,2020-06-12 11:50:51,2020-06-16 11:49:22,40.79133,-74.05821,40.79344,-74.05827,0.145820895443,At RT-3 (North) - Roadwork.,,Paterson Plank Rd,R,Secaucus,Hudson,NJ,07094,US,US/Eastern,KTEB,2020-06-12 11:51:00,81.0,81.0,30.0,30.05,10.0,NW,7.0,0.0,Fair,False,False,False,False,False,False,False,False,False,False,False,True,False,Day,Day,Day,Day
C-412454,2,2020-09-09 12:44:00,2020-09-10 00:50:56,40.763055,-73.886738,40.759235,-73.886045,0.266416957681,Slow traffic from Grand Central Pkwy/23rd Ave (82nd St) to NY-25A/Northern Blvd (82nd St) due to resurfacing work.,8200.0,25th Ave,R,East Elmhurst,Queens,NY,11370,US,US/Eastern,KLGA,2020-09-09 12:51:00,78.0,78.0,64.0,30.27,10.0,NE,6.0,0.0,Mostly Cloudy,False,False,True,False,False,False,False,False,True,False,False,True,False,Day,Day,Day,Day
C-412455,2,2021-08-25 17:32:30,2021-08-25 17:55:30,33.771021000000005,-117.987698,33.772238,-117.992514,0.289103567412,Stationary traffic from exit [8] to Beach Blvd due to roadwork.,,Garden Grove Fwy,R,Garden Grove,Orange,CA,92844,US,US/Pacific,KSLI,2021-08-25 17:58:00,84.0,84.0,50.0,29.83,10.0,SSW,8.0,0.0,Partly Cloudy,False,False,True,False,False,False,False,False,False,False,False,True,False,Day,Day,Day,Day
C-412456,2,2021-12-03 15:45:16,2021-12-03 16:06:09,35.505185,-97.476677,35.507671,-97.476619,0.171797216972,Stationary traffic from NE 23rd St (N Martin Luther King Ave) to NE 36th St (N Martin Luther King Ave) due to roadwork.,3613.0,N Martin Luther King Ave,L,Oklahoma City,Oklahoma,OK,73111-4222,US,US/Central,KTIK,2021-12-03 15:56:00,74.0,74.0,43.0,28.52,10.0,SSW,8.0,0.0,Fair,False,False,True,False,False,False,False,False,False,False,False,True,False,Day,Day,Day,Day
C-412457,2,2020-07-07 14:00:00,2020-07-08 00:45:00,41.59343300000001,-91.694673,41.616733,-91.638273,3.32899006145,Construction on IA-1 NB near COUNTY HWY-F62 Drive with caution.,4661.0,Hazelwood Ave SW,L,Iowa City,Johnson,IA,52240-8550,US,US/Central,KIOW,2020-07-07 13:52:00,90.0,90.0,54.0,29.25,10.0,SSW,12.0,0.0,Mostly Cloudy,False,False,False,False,False,False,False,False,False,False,False,False,False,Day,Day,Day,Day
C-412458,2,2017-10-30 08:35:07,2017-10-30 15:30:00,39.833855,-75.22335799999998,,,0.0,Right hand shoulder closed due to construction work on NJ-44 Crown Point Rd both ways at County Hwy-656 Mantua Grove Rd.,1.0,Paradise Rd,R,Paulsboro,Gloucester,NJ,08066-1741,US,US/Eastern,KPHL,2017-10-30 08:54:00,50.0,,66.0,29.49,10.0,West,20.7,,Mostly Cloudy,False,False,False,False,False,False,False,False,False,False,False,True,False,Day,Day,Day,Day
C-412459,2,2021-12-15 16:48:00,2021-12-15 17:08:00,37.62262800000001,-118.839843,37.61941,-118.828125,0.678736570729,Stationary traffic on US-395 S from CA-203/Minaret Rd (US-395) to Benton Crossing Rd (US-395) due to roadwork.,,Convict Lake Rd,R,Mammoth Lakes,Mono,CA,93546,US,US/Pacific,KMMH,2021-12-15 16:37:00,10.0,10.0,79.0,23.07,10.0,CALM,0.0,0.0,Fair,False,False,False,False,False,False,False,False,False,True,False,False,False,Night,Day,Day,Day
C-412460,2,2021-05-18 09:23:30,2021-05-18 18:27:30,41.965819,-111.399393,41.962088,-111.400385,0.262777090425,Stationary traffic on US-89 N - US-89 S from UT--ID State Border (N Bear Lake Blvd/US-89) to UT-30/S Bear Lake Blvd (Center St/Logan Rd/US-89) due to roadwork.,1025.0,N Bear Lake Blvd,R,Garden City,Rich,UT,84028,US,US/Mountain,KLGU,2021-05-18 09:51:00,60.0,60.0,55.0,25.45,10.0,CALM,0.0,0.0,Fair,False,False,False,False,False,False,False,False,False,False,False,False,False,Day,Day,Day,Day
C-412461,2,2020-12-13 18:07:36,2020-12-14 01:53:35,29.406785,-96.067121,29.404709000000004,-96.070572,0.2524336413,Roadwork on US-59 (US-59 Bus) from TX-60/E Railroad St (US-59 Bus/Colorado St) to US-59R Bus N - US-59R Bus S.,,US-59R Bus S,R,East Bernard,Wharton,TX,77435,US,US/Central,KARM,2020-12-13 18:15:00,53.0,53.0,75.0,29.96,10.0,NNW,22.0,0.0,Mostly Cloudy / Windy,False,False,False,False,False,False,False,False,False,False,False,False,False,Night,Night,Day,Day
C-412462,2,2020-10-29 13:44:00,2020-10-30 03:17:44,26.305026,-80.094196,26.305876,-80.09266,0.1118045831589999,Slow traffic on US-1 N - FL-869 - FL-5 from SE 6th Ave to US-1 due to roadwork.,782.0,SE 10th St,R,Deerfield Beach,Broward,FL,33441,US,US/Eastern,KPMP,2020-10-29 13:53:00,86.0,86.0,72.0,29.91,9.0,S,16.0,0.0,Fair,False,False,False,False,False,False,False,False,False,False,False,False,False,Day,Day,Day,Day
C-412463,2,2021-02-04 14:05:30,2021-02-05 01:52:52,33.581734000000004,-112.200091,33.581169,-112.202913,0.167064247617,Stationary traffic from N 65th Ave to W Brown St / W Cheryl Dr due to roadwork.,6570.0,W Peoria Ave,R,Glendale,Maricopa,AZ,85304,US,US/Mountain,KGEU,2021-02-04 13:58:00,72.0,72.0,23.0,28.76,10.0,SSW,15.0,0.0,Fair,False,False,False,False,False,False,False,False,True,False,False,False,False,Day,Day,Day,Day
C-412464,2,2020-04-29 08:22:32,2020-04-30 08:22:32,40.77305,-86.08131999999998,40.77972000000001,-86.05911,1.25011799835,Between US-31 and IN-19 - Roadwork. Roadway reduced to 1 lane.,,W US Highway 24,R,Peru,Miami,IN,46970,US,US/Eastern,KGUS,2020-04-29 07:56:00,58.0,58.0,100.0,28.61,10.0,SSE,8.0,0.0,Cloudy,False,False,False,False,False,False,False,False,False,True,False,True,False,Day,Day,Day,Day
C-412465,2,2020-05-30 03:04:37,2020-05-30 05:04:37,34.18235,-118.3978,34.15765,-118.37962,1.99815245706,Between Victory Blvd and Riverside Dr - Roadwork. Two lanes closed. Lane closed.,,CA-170 S,R,North Hollywood,Los Angeles,CA,91606,US,US/Pacific,KBUR,2020-05-30 02:53:00,62.0,62.0,72.0,29.15,10.0,WSW,8.0,0.0,Cloudy,False,False,False,False,False,False,False,False,False,False,False,False,False,Night,Night,Night,Night
C-412466,2,2020-08-28 20:45:48,2020-09-05 06:59:59,40.711947,-74.32258,40.712507,-74.316673,0.311774468324,Construction barrier repairs on I-78 local lanes eastbound area of Exit 48 - NJ 24 West (Springfield Twp) right lane closed until 6:00 A.M.,,I-78 E,R,Springfield,Union,NJ,07081,US,US/Eastern,KLDJ,2020-08-28 20:35:00,75.0,75.0,83.0,29.79,10.0,W,5.0,0.0,Fair,False,False,False,False,False,False,False,False,False,False,False,False,False,Night,Night,Night,Day
C-412467,2,2019-05-01 06:30:00,2019-05-23 14:00:00,42.012689,-95.342613,42.01244000000001,-95.363063,1.04996783341,At US-59/IA-141/260th St - Roadwork.,2093.0,4th Ave S,R,Denison,Crawford,IA,51442,US,US/Central,KDNS,2019-05-01 06:35:00,41.0,34.0,100.0,28.6,7.0,NNE,13.0,0.0,Cloudy,False,False,False,False,False,False,False,False,False,False,False,False,False,Day,Day,Day,Day
C-412468,3,2018-01-24 16:26:57,2018-01-24 22:26:57,40.9148,-73.7829,40.9292,-73.76618,1.32358450579,Between Cedar St/North Ave/Exit 16 and Chatsworth Ave/Exit 17 - Construction work. Right lane blocked. Center lane blocked.,,New England Trwy S,R,New Rochelle,Westchester,NY,10801,US,US/Eastern,KLGA,2018-01-24 16:51:00,37.0,27.4,46.0,30.04,10.0,WNW,17.3,,Scattered Clouds,False,False,False,False,True,False,False,False,False,False,False,False,False,Day,Day,Day,Day
C-412469,2,2018-06-25 18:00:00,2018-06-25 21:00:00,38.31523,-85.58243,38.321675,-85.615753,1.8604874434,Between I-71/I-265 and US-42 - Construction work.,,KY-841 N,R,Prospect,Jefferson,KY,40059,US,US/Eastern,KLOU,2018-06-25 17:53:00,78.1,,87.0,30.03,10.0,North,6.9,,Overcast,False,False,False,False,True,False,False,False,False,False,False,False,False,Day,Day,Day,Day
C-412470,2,2021-10-22 13:31:00,2021-10-22 16:12:57,26.11687,-80.13710400000002,26.123252,-80.137229,0.441022385076,Slow traffic on US-1 N - FL-5 from FL-736/Davie Blvd (US-1) to 6th St (Fort Lauderdale) (US-1) due to roadwork.,,S Federal Hwy,R,Fort Lauderdale,Broward,FL,33301,US,US/Eastern,KFLL,2021-10-22 13:53:00,73.0,73.0,100.0,29.98,3.0,SSE,7.0,0.0,T-Storm,True,False,True,False,False,False,False,False,False,False,False,False,False,Day,Day,Day,Day
C-412471,4,2019-02-12 08:13:49,2019-02-12 13:09:41,38.91006,-86.5454,38.90094000000001,-86.5321,0.953122182226,Between Old IN-37 and Main St/Patton Hill Rd - Work on buried services.,,State Road 37,R,Bedford,Lawrence,IN,47421,US,US/Eastern,KBMG,2019-02-12 07:53:00,50.0,,,29.62,2.0,West,9.2,,Overcast,False,False,False,False,False,False,False,False,False,False,False,False,False,Day,Day,Day,Day
C-412472,2,2021-06-10 17:03:38,2021-11-19 16:56:44,29.63621,-82.389167,29.6399,-82.398227,0.600859405271,Slow traffic from SW 43rd St (SW 20th Ave) to SW 62nd Blvd (SW 20th Ave) due to roadwork.,2000.0,SW 43rd St,R,Gainesville,Alachua,FL,32607-3980,US,US/Eastern,KGNV,2021-06-10 17:11:00,79.0,79.0,77.0,29.85,10.0,CALM,0.0,0.0,Mostly Cloudy,False,False,True,False,False,False,False,False,False,False,False,True,False,Day,Day,Day,Day
C-412473,3,2016-04-11 10:47:29,2016-04-11 13:30:00,40.74489000000001,-73.97085,40.78413,-73.94241,3.09286129604,Between 42nd St/Exit 9 and 96th St/Exit 14 - Construction work.,,FDR Dr N,R,New York,New York,NY,10016,US,US/Eastern,KNYC,2016-04-11 10:51:00,52.0,,53.0,30.18,10.0,SW,9.2,,Overcast,True,False,False,False,False,False,False,False,False,False,False,True,False,Day,Day,Day,Day
C-412474,2,2017-05-22 09:50:17,2017-05-22 15:00:00,38.29138,-122.03451,38.389933,-121.931396,8.80869994677,Between N Texas St and Leisure Town Rd - Roadwork. Right lane blocked.,,I-80 E,R,Fairfield,Solano,CA,94533,US,US/Pacific,KSUU,2017-05-22 09:58:00,74.3,,48.0,29.95,10.0,WSW,11.5,,Clear,False,False,False,False,True,False,False,False,False,False,False,False,False,Day,Day,Day,Day
C-412475,2,2021-04-09 07:25:30,2021-10-05 19:53:26,38.361337,-98.770517,38.361421,-98.774269,0.203354858686,Stationary traffic on US-56 W - US-56 E - KS-96 - KS-156 from US-281/Main St (KS-156/KS-96/10th St/US-56) to KS-96 (KS-156/10th St/US-56) due to roadwork.,2400.0,10th St,R,Great Bend,Barton,KS,67530-4355,US,US/Central,KGBD,2021-04-09 06:56:00,43.0,38.0,86.0,27.58,10.0,NNW,8.0,0.0,Fair,False,False,True,False,False,False,False,False,False,False,False,False,False,Day,Day,Day,Day
C-412476,2,2020-10-12 13:43:30,2020-10-13 00:18:58,34.986838,-85.20186600000002,34.995424,-85.20739499999998,0.6707277768209999,Slow traffic on I-75 from TN--GA State Border (I-75) to I-24/TN-2/Exit 2 (I-75) due to roadwork.,,I-75 N,R,Chattanooga,Hamilton,TN,37412,US,US/Eastern,KCHA,2020-10-12 13:53:00,76.0,76.0,67.0,29.2,10.0,W,7.0,0.0,Mostly Cloudy,False,False,False,False,True,False,False,False,False,False,False,False,False,Day,Day,Day,Day
C-412477,2,2021-09-29 13:37:00,2021-09-29 14:00:00,34.061418,-117.624514,34.06017,-117.628243,0.23020734509,Slow traffic from S Vineyard Ave (E Airport Dr) to S Grove Ave (E Airport Dr) due to roadwork.,1445.0,E Airport Dr,L,Ontario,San Bernardino,CA,91761,US,US/Pacific,KONT,2021-09-29 13:53:00,80.0,80.0,38.0,28.86,10.0,W,13.0,0.0,Mostly Cloudy,False,False,False,False,False,False,False,False,False,False,False,True,False,Day,Day,Day,Day
C-412478,2,2021-09-10 14:30:06,2021-09-10 16:37:18,40.822426,-73.940939,40.821006,-73.939656,0.1188539391479999,Slow traffic from Frederick Douglass Blvd to W 144th St due to roadwork.,241.0,W 145th St,R,New York,New York,NY,10039-4001,US,US/Eastern,KNYC,2021-09-10 14:51:00,73.0,73.0,39.0,29.81,10.0,VAR,6.0,0.0,Fair,False,False,True,False,False,False,False,False,False,False,False,True,False,Day,Day,Day,Day
C-412479,2,2019-07-09 09:00:00,2019-07-09 15:00:00,40.26656,-76.979828,,,2.53999996185,Road closed due to construction work on Good Hope Rd Northbound between Shasta Way and Creekview Rd.,1010.0,Good Hope Rd,R,Mechanicsburg,Cumberland,PA,17050-2120,US,US/Eastern,KCXY,2019-07-09 08:56:00,76.0,76.0,71.0,29.72,7.0,WNW,3.0,0.0,Haze,False,False,False,False,False,False,False,False,False,False,False,False,False,Day,Day,Day,Day
C-412480,4,2019-04-15 07:00:00,2019-10-31 17:00:00,41.34337,-82.34499,41.33439600000001,-82.373166,1.58774574958,Closed at at the overheard bridges of the Ohio Turnpike - Closed due to roadwork.,,I-80 W,R,Wakeman,Erie,OH,44889,US,US/Eastern,KLPR,2019-04-15 07:03:00,36.0,25.0,76.0,28.86,9.0,NNW,21.0,0.0,N/A Precipitation,False,False,False,False,False,False,False,False,False,False,False,False,False,Day,Day,Day,Day
C-412481,2,2019-01-26 19:02:15,2019-01-31 19:01:02,28.665981,-81.39035,28.675439,-81.390311,0.653489838928,Between Westmonte Dr and Citrus St - Construction work. Right lane blocked.,324.0,Douglas Ave,L,Altamonte Springs,Seminole,FL,32714-3336,US,US/Eastern,KORL,2019-01-26 18:53:00,54.0,,57.0,30.17,10.0,NNE,13.8,,Partly Cloudy,False,False,False,False,False,False,False,False,False,False,False,False,False,Night,Night,Night,Day
C-412482,2,2021-12-07 14:09:00,2021-12-07 16:14:44,25.685061,-80.427529,25.68402,-80.43001,0.17040685962,Stationary traffic on FL-94 from N Kendall Dr to SW 90th Ter due to roadwork.,,SW 88th St,R,Miami,Miami-Dade,FL,33186,US,US/Eastern,KTMB,2021-12-07 13:53:00,86.0,86.0,41.0,30.04,10.0,NNW,5.0,0.0,Fair,False,False,False,False,False,False,False,False,False,False,False,False,False,Day,Day,Day,Day
C-412483,2,2021-12-31 08:33:30,2021-12-31 10:35:09,43.593917,-115.997567,43.617735,-115.992509,1.66500960261,Roadwork on NF-268/E Spring Shores Rd (ID-21) from Daggett Creek Rd (ID-21) to ID-21.,15230.0,E Highway 21,L,Boise,Ada,ID,83716,US,US/Mountain,KBOI,2021-12-31 08:53:00,25.0,16.0,85.0,26.72,10.0,W,8.0,0.0,Cloudy,False,False,False,False,False,False,False,False,False,False,False,False,False,Day,Day,Day,Day
C-412484,2,2021-03-02 03:41:00,2021-12-13 00:59:54,33.509221000000004,-112.050365,33.510042,-112.047524,0.173220425146,Stationary traffic from N 14th Pl to E Medlock Dr due to roadwork.,1501.0,E Camelback Rd,R,Phoenix,Maricopa,AZ,85014-3404,US,US/Mountain,KPHX,2021-11-03 14:51:00,83.0,83.0,19.0,28.77,10.0,CALM,0.0,0.0,Fair,True,False,False,False,False,False,False,False,True,False,False,False,False,Night,Night,Night,Night
C-412486,2,2021-09-16 21:24:00,2021-09-27 22:28:30,30.399143,-97.850608,30.392919,-97.841918,0.673160778221,Stationary traffic on RM-2222 from TX-620 (FM-2222) to City Park Rd (FM-2222) due to roadwork.,11186.0,Ranch Road 2222,R,Austin,Travis,TX,78730-1107,US,US/Central,KATT,2021-09-27 21:51:00,81.0,81.0,45.0,29.22,10.0,SSE,3.0,0.0,Fair,False,False,False,False,False,False,False,False,False,False,False,False,False,Night,Night,Night,Night
C-412487,2,2021-08-21 12:23:31,2021-08-21 14:51:45,41.720776,-87.697466,41.71986,-87.70188399999998,0.236469694233,Stationary traffic on US-12 E - US-20 W - US-12 W - US-20 E from S Sacramento Ave to W 96th St due to roadwork.,3017.0,W 95th St,L,Evergreen Park,Cook,IL,60805,US,US/Central,KMDW,2021-08-21 12:53:00,86.0,86.0,53.0,29.18,10.0,S,15.0,0.0,Mostly Cloudy,False,False,False,False,False,False,False,False,False,False,False,False,False,Day,Day,Day,Day
C-412488,2,2020-11-19 14:42:00,2020-11-19 23:48:19,28.357094,-80.69896,28.356102000000003,-80.700242,0.103797402259,Slow traffic on FL-520 - FL-3 from S Plumosa St / N Plumosa St to Magnolia Ave due to roadwork.,68.0,E Merritt Island Cswy,L,Merritt Island,Brevard,FL,32952-3633,US,US/Eastern,KCOF,2020-11-19 14:52:00,75.0,75.0,57.0,30.3,10.0,ENE,15.0,0.0,Fair,False,False,True,False,False,False,False,False,False,False,False,True,False,Day,Day,Day,Day
C-412489,2,2021-10-05 13:26:00,2021-10-05 13:46:00,36.944031,-85.88081899999997,36.930765,-85.87629799999998,0.949990231587,Slow traffic on KY-63 from Mill St (KY-63) to KY-1324 (KY-63) due to roadwork.,5416.0,Tompkinsville Rd,R,Glasgow,Barren,KY,42141-8808,US,US/Central,KGLW,2021-10-05 13:35:00,76.0,76.0,71.0,29.31,10.0,NE,8.0,0.0,Partly Cloudy,False,False,False,False,False,False,False,False,False,False,False,False,False,Day,Day,Day,Day
C-412490,2,2021-03-26 20:00:00,2021-03-29 05:00:17,30.416497,-91.143372,30.415028000000003,-91.139859,0.232630069772,Construction Work on LA-427 Westbound from Lee Dr to Glasgow Ave . Right Lane Closed. Starting 3/26/2021 8:00 PM and Ending 3/29/2021 5:00 AM,2299.0,Lee Dr,L,Baton Rouge,East Baton Rouge,LA,70808-3904,US,US/Central,KBTR,2021-03-26 19:53:00,75.0,75.0,84.0,29.89,10.0,E,5.0,0.0,Cloudy,False,False,False,False,False,False,False,False,False,False,False,True,False,Night,Night,Day,Day
C-412492,4,2021-09-27 23:01:00,2021-09-28 05:01:00,34.037383,-118.304291,34.037372,-118.304608,0.0181660020548,Full closure due to Striping Operation between Normandie Ave and Western Ave,,I-10 W,R,Los Angeles,Los Angeles,CA,90018,US,US/Pacific,KCQT,2021-09-27 22:52:00,64.0,64.0,80.0,29.8,10.0,CALM,0.0,0.0,Cloudy,False,False,False,False,True,False,False,False,False,False,False,False,False,Night,Night,Night,Night
C-412493,3,2020-03-20 21:00:00,2020-03-21 05:00:00,33.899502000000005,-117.559433,,,0.439999997616,Entry ramp to I-15 Northbound from Hidden Valley Pkwy closed due to construction.,,I-15 N,R,Norco,Riverside,CA,92860,US,US/Pacific,KAJO,2020-03-20 20:56:00,55.0,55.0,80.0,29.55,10.0,W,3.0,0.0,Fair,False,False,False,False,False,False,False,False,False,False,False,False,False,Night,Night,Night,Night
C-412494,2,2021-06-16 15:41:00,2021-06-16 16:18:09,40.814628000000006,-73.914024,40.81661,-73.919516,0.318162289027,Slow traffic from St Anns Ave (E 149th St) to Grand Concourse (E 149th St) due to roadwork.,537.0,E 149th St,L,Bronx,Bronx,NY,10455-2848,US,US/Eastern,KLGA,2021-06-16 15:51:00,76.0,76.0,27.0,29.82,10.0,NW,16.0,0.0,Fair,True,False,False,False,False,False,False,False,True,False,False,True,False,Day,Day,Day,Day
C-412495,2,2021-04-14 13:45:04,2021-04-19 10:30:45,37.476919,-77.69539300000002,37.47427800000001,-77.689128,0.3889873064810001,Roadwork from Beedon Dr to Creekglen Pl.,1672.0,Old Hundred Rd,R,Midlothian,Chesterfield,VA,23114-7420,US,US/Eastern,KFCI,2021-04-14 19:56:00,63.0,63.0,97.0,29.66,10.0,ESE,7.0,0.0,Light Rain,False,False,False,False,False,False,False,False,False,False,False,False,False,Day,Day,Day,Day
C-412496,2,2020-09-02 11:46:00,2020-09-03 03:14:15,33.466669,-112.151791,33.464872,-112.151828,0.124179189067,Queuing traffic from W Thomas Rd (N 43rd Ave) to I-10/Papago Fwy (N 43rd Ave) due to roadwork.,1679.0,N 43rd Ave,R,Phoenix,Maricopa,AZ,85009,US,US/Mountain,KPHX,2020-09-02 11:51:00,93.0,93.0,41.0,28.76,10.0,VAR,6.0,0.0,Partly Cloudy,False,False,False,False,False,False,False,False,True,False,False,False,False,Day,Day,Day,Day
C-412497,2,2018-09-19 08:22:14,2018-09-19 17:00:00,37.849609,-122.281998,,,0.0,Restrictions due to sewer works on 66th St both ways between Mabel St and Idaho St.,1316.0,66th St,R,Berkeley,Alameda,CA,94702-2632,US,US/Pacific,KOAK,2018-09-19 07:53:00,55.9,,90.0,29.92,7.0,South,5.8,,Overcast,False,False,True,False,False,False,False,False,False,False,False,False,False,Day,Day,Day,Day
C-412498,4,2017-08-07 16:59:06,2017-08-07 22:59:06,40.44285,-79.99094000000002,40.45905,-79.999131,1.19930483975,Between Bedford Ave/Mario Lemieux Pl and I-279 - Roadwork.,,Mario Lemieux Pl,R,Pittsburgh,Allegheny,PA,15219,US,US/Eastern,KAGC,2017-08-07 17:05:00,69.1,,75.0,29.95,10.0,NNW,4.6,,Overcast,False,False,False,False,True,False,False,False,False,False,False,True,False,Day,Day,Day,Day
C-412499,2,2020-12-30 16:22:00,2020-12-30 19:00:00,37.507937,-78.230806,37.550698,-77.94275400000002,16.0576492119,On VA-13 (Old Buckingham Rd) in the County of Powhatan from Emanuel Church Rd; Rt. 1002N/S (Powhatan County) to Old Plantation Rd; Rt. 644E/W (Powhatan County) motorists can expect potential delays in this area from 12/30/20 at 8:22 AM until 12/30/20 at 11:00 AM due to maintenance activities. All east lanes are alternating closures. All west lanes are alternating closures.,16.0,Old Buckingham Rd,L,Cumberland,Cumberland,VA,23040-2405,US,US/Eastern,KFVX,2020-12-30 16:15:00,44.0,39.0,45.0,29.84,10.0,SSW,9.0,0.0,Cloudy,False,False,False,False,False,False,False,False,False,False,False,False,False,Day,Day,Day,Day
C-412500,2,2020-05-08 00:00:01,2020-05-09 00:00:01,38.73815,-103.71907,38.73815,-103.71907,0.0,At CR-T (Lincoln) - Construction work.,15863.0,State Highway 71,R,Rush,Lincoln,CO,80833,US,US/Mountain,KABH,2020-05-08 00:54:00,41.0,31.0,57.0,24.15,10.0,NNW,25.0,0.0,Partly Cloudy / Windy,False,False,False,False,False,False,False,False,False,False,False,False,False,Night,Night,Night,Night
C-412501,2,2021-02-17 04:59:00,2021-02-17 19:53:00,33.538399,-112.085206,33.53835,-112.081752,0.198946287546,Stationary traffic from N 19th Ave (W Glendale Ave) to N Central Ave (Glendale Ave) due to roadwork.,900.0,W Glendale Ave,R,Phoenix,Maricopa,AZ,85021-8633,US,US/Mountain,KDVT,2021-02-17 04:53:00,42.0,42.0,40.0,28.22,10.0,CALM,0.0,0.0,Fair,True,False,False,False,False,False,False,False,True,False,False,False,False,Night,Night,Night,Night
C-412502,2,2021-10-13 08:30:00,2021-10-13 20:45:00,44.818134,-116.078139,44.822909,-116.078232,0.329952560241,Construction on ID-55 NB near STATE ST Construction. Drive with caution.,13747.0,Highway 55,R,Mccall,Valley,ID,83638-5224,US,US/Mountain,KMYL,2021-10-13 08:51:00,27.0,27.0,75.0,24.88,10.0,CALM,0.0,0.0,Cloudy,False,False,False,False,False,False,False,False,False,False,False,False,False,Day,Day,Day,Day
C-412503,2,2020-07-17 13:01:00,2020-07-18 01:46:00,38.276206,-119.289175,38.257746,-119.271235,1.60434728664,Construction on US-395 SB near BUCKEYE RD Expect delays.,,US Highway 395,R,Coleville,Mono,CA,96107,US,US/Pacific,KBAN,2020-07-17 12:55:00,93.0,93.0,11.0,25.3,10.0,S,7.0,0.0,Fair,False,False,False,False,False,False,False,False,False,False,False,False,False,Day,Day,Day,Day
C-412504,2,2021-05-29 23:32:00,2021-05-30 01:33:22,25.797246,-80.12845300000002,25.798577,-80.128679,0.0930317514569,Slow traffic on FL-A1A from 21st St to Pine Tree Dr / Dade Blvd due to roadwork.,2174.0,Collins Ave,L,Miami Beach,Miami-Dade,FL,33139,US,US/Eastern,KMIA,2021-05-29 23:53:00,79.0,79.0,77.0,29.98,10.0,S,6.0,0.0,Mostly Cloudy,False,False,False,False,False,False,False,False,True,False,False,False,False,Night,Night,Night,Night
C-412505,2,2021-05-08 06:04:00,2021-05-08 16:19:30,35.336476,-106.580395,35.330307,-106.571418,0.661601057918,Stationary traffic on NM-44 - US-550 S from Paseo Del Volcan (NM-44/US-550) to NM-528 (NM-44/US-550) due to roadwork.,1233.0,W Highway 550,R,Rio Rancho,Sandoval,NM,87144,US,US/Mountain,KAEG,2021-05-08 05:53:00,46.0,46.0,40.0,24.18,10.0,CALM,0.0,0.0,Partly Cloudy,False,False,False,False,False,False,False,False,False,False,False,True,False,Night,Day,Day,Day
C-412506,4,2019-03-10 12:40:35,2019-03-10 16:58:34,29.75927,-95.14603,29.769373,-95.151715,0.7768782581739999,Between Jacinto Port Blvd and I-10/Market St - Roadwork.,,E Sam Houston Tollway N,R,Houston,Harris,TX,77015,US,US/Central,KHOU,2019-03-10 12:53:00,73.9,,85.0,30.05,8.0,ESE,6.9,,Overcast,False,False,False,False,False,False,False,False,False,False,False,False,False,Day,Day,Day,Day
C-412507,2,2021-11-21 18:12:30,2021-11-21 18:36:00,45.648912,-120.9375,45.65074,-120.958194,1.00745188379,Stationary traffic on OR-206 from Old Moody Rd to I-84 E due to roadwork.,,Fulton Canyon Rd,R,The Dalles,Wasco,OR,97058,US,US/Pacific,KDLS,2021-11-21 17:53:00,40.0,40.0,77.0,30.18,10.0,ESE,3.0,0.0,Cloudy,False,False,False,False,False,False,False,False,False,False,False,False,False,Night,Night,Night,Night
C-412508,3,2019-07-20 09:03:59,2019-07-24 09:03:33,33.02142,-117.10128,33.020109999999995,-117.10986,0.505238592125,Between Rancho Bernardo Rd and Dove Canyon Rd - Construction work. look out for flagman.,,Camino San Bernardo,R,San Diego,San Diego,CA,92127,US,US/Pacific,KRNM,2019-07-20 08:53:00,66.0,66.0,68.0,28.5,10.0,VAR,3.0,0.0,Fair,False,False,True,False,False,False,False,False,False,False,False,True,False,Day,Day,Day,Day
C-412509,2,2021-08-27 13:09:30,2021-08-27 13:33:30,39.98059,-86.396121,39.972342,-86.398527,0.583947211198,Slow traffic on IN-267 from I-65/US-52 (S 400 E/IN-267) to E 750 S (IN-267) due to roadwork.,4001.0,S State Road 267,R,Lebanon,Boone,IN,46052-9671,US,US/Eastern,KTYQ,2021-08-27 13:15:00,88.0,88.0,61.0,29.13,10.0,SW,3.0,0.0,Fair,False,False,False,False,False,False,False,False,False,False,False,False,False,Day,Day,Day,Day
C-412510,2,2021-09-25 22:39:00,2021-09-25 22:59:00,40.761104,-73.98325799999998,40.75796500000001,-73.98553100000002,0.247365693251,Slow traffic from W 50th St (7th Ave) to Broadway/W 45th St (7th Ave) due to roadwork.,201.0,W 50th St,R,New York,New York,NY,10019-6811,US,US/Eastern,KNYC,2021-09-25 22:51:00,67.0,,66.0,29.8,10.0,,,0.0,Fair,True,False,True,False,False,False,False,False,True,False,False,True,False,Night,Night,Night,Night
C-412511,2,2021-06-29 17:16:30,2021-06-29 19:23:08,39.624012,-104.990163,39.624821,-104.987874,0.134029520017,Slow traffic on CO-88 - CO-75 from S Delaware St to E Chenango Ave due to roadwork.,236.0,W Belleview Ave,L,Englewood,Arapahoe,CO,80110-6610,US,US/Mountain,KAPA,2021-06-29 16:53:00,68.0,68.0,55.0,24.36,10.0,WSW,12.0,0.0,Cloudy,False,False,False,False,False,False,False,False,True,False,False,False,False,Day,Day,Day,Day
C-412513,2,2021-04-09 03:56:00,2021-04-09 11:16:00,39.77863,-104.89197,39.794148,-104.915409,1.64264784064,Slow traffic on I-270 W - US-36 W from I-70/US-36 (I-270) to US-85/CO-2/Vasquez Blvd/Exit 2 (I-270) due to roadwork.,,I-270 W,R,Denver,Denver,CO,80238,US,US/Mountain,KBKF,2021-04-09 03:58:00,44.0,39.0,36.0,24.2,10.0,ENE,8.0,0.0,Partly Cloudy,False,False,False,False,False,False,False,False,False,False,False,False,False,Night,Night,Night,Night
C-412514,2,2021-08-07 13:54:59,2021-08-08 02:05:06,31.426354,-86.06817,31.426065,-86.068624,0.0333945529311,Roadwork on AL-87/Troy Rd (AL-203) from AL-189 (AL-203) to AL-203.,847.0,Neil Grantham Dr,L,Elba,Coffee,AL,36323-8901,US,US/Central,KLOR,2021-08-07 13:53:00,88.0,88.0,55.0,29.79,10.0,CALM,0.0,0.0,Fair,False,False,False,False,False,False,False,False,False,False,False,False,False,Day,Day,Day,Day
C-412515,2,2020-10-19 07:28:30,2020-10-19 08:29:30,47.41540300000001,-121.43631,47.424519,-121.41122,1.33136946306,Stationary traffic on I-90 from Asahel Curtis Rd/Exit 47 (I-90) to Yellowstone Trail Rd (I-90) due to roadwork.,,I-90 E,R,North Bend,King,WA,98045,US,US/Pacific,KRNT,2020-10-19 07:53:00,54.0,54.0,90.0,30.1,4.0,SSE,5.0,0.0,Cloudy,False,False,False,False,False,False,False,False,False,False,False,False,False,Night,Day,Day,Day
C-412516,2,2021-03-05 04:51:30,2021-03-05 18:10:25,28.259001,-81.500958,28.255274,-81.483949,1.06671127613,Stationary traffic on US-92 E - US-17 N - US-92 W - US-17 S from CR-532/Osceola Polk Line Rd (US-92/US-17) to CR-535/Broad St/Ham Brown Rd (US-92/US-17) due to roadwork.,5428.0,S Orange Blossom Trl,R,Kissimmee,Osceola,FL,34758,US,US/Eastern,KISM,2021-03-05 04:56:00,53.0,53.0,93.0,29.91,,CALM,0.0,0.0,Fair,False,False,False,False,False,False,False,False,False,False,False,False,False,Night,Night,Night,Night
C-412517,2,2020-04-03 21:36:21,2020-04-05 06:00:00,33.74277,-118.00268,33.73072,-117.98667,1.2407263216600002,Between Goldenwest St/Exit 18 and CA-39/Beach Blvd/Exit 16 - Roadwork. Two lanes closed.,,I-405 S,R,Westminster,Orange,CA,92683,US,US/Pacific,KSLI,2020-04-03 21:58:00,57.0,57.0,72.0,29.89,10.0,SSE,3.0,0.0,Fair,False,False,False,False,False,False,False,False,False,False,False,False,False,Night,Night,Night,Night
C-412518,3,2019-02-26 20:02:18,2019-03-03 20:00:27,40.754998,-73.931111,40.75162,-73.93375999999998,0.271473732971,At RT-25A/Northern Blvd - Construction work.,3037.0,37th Ave,L,Long Island City,Queens,NY,11101-2109,US,US/Eastern,KNYC,2019-02-27 19:51:00,28.0,,58.0,30.11,10.0,North,,,Overcast,False,False,True,False,False,False,False,False,True,False,False,True,False,Night,Night,Night,Night
C-412519,2,2021-08-14 07:00:00,2021-08-14 19:45:00,39.82589,-75.41765699999998,39.826462,-75.41637,0.0789035749986999,Construction on RIDGE RD near YATES AVE Construction. Drive with caution.,1401.0,Yates Ave,R,Marcus Hook,Delaware,PA,19061-4353,US,US/Eastern,KPHL,2021-08-14 06:54:00,76.0,76.0,91.0,30.06,10.0,WSW,7.0,0.0,Mostly Cloudy,False,False,False,False,False,False,False,False,False,True,False,False,False,Day,Day,Day,Day
C-412520,2,2020-01-09 21:00:00,2020-01-10 05:00:00,40.33178,-104.98035,40.33178,-104.98035,0.0,At CO-56/Exit 250 - Construction work.,,I-25 S,R,Berthoud,Weld,CO,80513,US,US/Mountain,KFNL,2020-01-09 20:56:00,34.0,34.0,54.0,24.82,10.0,CALM,0.0,0.0,Cloudy,False,False,False,False,False,False,False,False,False,False,False,False,False,Night,Night,Night,Night
C-412521,2,2021-05-29 22:15:00,2021-11-23 20:28:51,39.636919,-75.65325,39.633916,-75.653712,0.208938764496,Stationary traffic on US-40 W from DE-1 N to DE-1 S due to roadwork.,,Pulaski Hwy,R,Bear,New Castle,DE,19701,US,US/Eastern,KILG,2021-11-23 18:51:00,35.0,29.0,52.0,30.09,10.0,WNW,8.0,0.0,Fair,False,False,False,False,True,False,False,False,False,False,False,False,False,Night,Night,Night,Day
C-412522,2,2021-04-12 06:23:00,2021-04-12 10:27:13,25.895209,-80.340846,25.895604,-80.339591,0.0826422306392,Slow traffic from W 80th St to W 84th St due to roadwork.,8034.0,W 28th Ave,R,Hialeah,Miami-Dade,FL,33018,US,US/Eastern,KOPF,2021-04-12 05:53:00,69.0,69.0,90.0,29.81,10.0,SSW,7.0,0.0,Mostly Cloudy,False,False,False,False,False,False,False,False,False,False,False,False,False,Night,Night,Day,Day
C-412523,2,2017-05-16 14:56:55,2017-05-16 21:15:29,42.214829,-79.838684,42.214422,-79.840034,0.0745875675781,At PA-89/Lake St - Roadwork. Lane blocked.,65.0,W Main St,R,North East,Erie,PA,16428-1133,US,US/Eastern,KERI,2017-05-16 14:51:00,73.9,,48.0,29.97,10.0,South,12.7,,Clear,False,False,True,False,False,False,False,False,False,False,False,False,False,Day,Day,Day,Day
C-412524,2,2020-08-03 07:01:54,2020-08-03 07:45:00,37.94603,-75.54032099999998,,,0.0,Lane closed due to maintenance work on US-13 Charles M Lankford Jr Memorial Hwy Northbound at VA-175 Chincoteague Rd.,,Chincoteague Rd,R,Oak Hall,Accomack,VA,23416,US,US/Eastern,KWAL,2020-08-03 06:54:00,78.0,78.0,93.0,30.01,10.0,SSW,9.0,0.0,Fair,False,False,False,False,False,False,False,False,False,False,False,True,False,Day,Day,Day,Day
C-412525,2,2021-06-22 17:50:00,2021-06-22 19:55:37,33.378714,-112.099119,33.37769,-112.094855,0.255991322661,Stationary traffic from W Park St to S 15th Ln / S 15th Ave due to roadwork.,7502.0,S 19th Ave,R,Phoenix,Maricopa,AZ,85041-6502,US,US/Mountain,KPHX,2021-06-22 17:51:00,104.0,104.0,14.0,28.58,10.0,WSW,16.0,0.0,Cloudy,False,False,False,False,False,False,False,False,False,True,False,False,False,Day,Day,Day,Day
C-412526,1,2021-07-25 20:00:00,2021-07-26 05:00:00,32.878826000000004,-96.683205,,,1.42999994755,Road closed due to construction work on Walnut Hill both ways from Wickersham Rd to Kingsley Rd. Detour in operation - EB turn right on I-635 svrd then left on Jupiter Rd / WB turn right on Jupiter Rd then left on Miller Rd then left on Plano Rd.,,Jupiter Rd,R,Garland,Dallas,TX,75041,US,US/Central,KHQZ,2021-07-25 19:50:00,88.0,88.0,62.0,29.42,10.0,SSE,8.0,0.0,Fair,False,False,False,False,False,False,False,False,False,False,False,True,False,Day,Day,Day,Day
C-412527,2,2020-03-09 10:53:16,2020-03-13 10:53:16,40.06104000000001,-86.49358000000002,40.06104000000001,-86.49358000000002,0.0,At US-42/Exit 141 - Maintenance work.,,I-65 N,R,Lebanon,Boone,IN,46052,US,US/Eastern,KTYQ,2020-03-09 10:55:00,56.0,56.0,49.0,29.26,10.0,SSW,16.0,0.0,Fair,False,False,False,False,False,False,False,False,False,False,False,False,False,Day,Day,Day,Day
C-412528,2,2021-10-26 04:39:35,2021-12-25 02:58:47,39.905226,-75.41541,39.905782,-75.415983,0.048970639754,Roadwork on Knowlton Rd (S New Middletown Rd/PA-352) from US-1/Baltimore Pike (N Middletown Rd/S New Middletown Rd/PA-352) to PA-352.,174.0,S New Middletown Rd,R,Media,Delaware,PA,19063-5202,US,US/Eastern,KPHL,2021-10-26 04:48:00,61.0,61.0,100.0,29.51,7.0,NE,5.0,0.08,Light Rain,False,False,False,False,False,False,False,False,False,False,False,True,False,Night,Night,Night,Night
C-412529,4,2021-11-25 10:17:18,2021-11-27 23:59:00,33.418643,-86.681625,33.418878,-86.681657,0.016341490604,Closed road from Highway 280 / Corporate Pkwy to Missionary Ridge Dr / Brook Highland Pkwy due to roadwork.,,Corporate Pkwy,R,Birmingham,Shelby,AL,35242,US,US/Central,KBHM,2021-11-25 09:53:00,60.0,60.0,53.0,29.56,10.0,S,9.0,0.0,Mostly Cloudy,False,False,False,False,False,False,False,False,False,False,False,True,False,Day,Day,Day,Day
C-412531,2,2020-09-03 13:17:00,2020-09-04 00:19:39,26.682565000000004,-80.247107,26.681544,-80.245138,0.140544684458,Slow traffic on FL-80 - FL-700 - US-98 E - FL-882 - US-441 S from Folsom Rd to Cypress Head Ave due to resurfacing work.,11.0,Crestwood Blvd N,L,Loxahatchee,Palm Beach,FL,33470,US,US/Eastern,KPBI,2020-09-03 12:53:00,91.0,91.0,63.0,29.99,10.0,ESE,12.0,0.0,Partly Cloudy,False,False,False,False,False,False,False,False,False,False,False,False,False,Day,Day,Day,Day
C-412532,2,2020-06-24 09:02:03,2020-06-24 15:00:00,38.84909,-77.1264,38.84924,-77.12673000000002,0.0205604945843,At VA-244/Columbia Pike - Roadwork. Left lane blocked.,5668.0,Leesburg Pike,R,Falls Church,Fairfax County,VA,22041-2911,US,US/Eastern,KDCA,2020-06-24 08:52:00,77.0,77.0,56.0,29.84,10.0,NW,15.0,0.0,Mostly Cloudy,False,False,False,False,False,True,False,False,False,False,False,False,False,Day,Day,Day,Day
C-412533,2,2020-05-11 09:00:00,2020-05-11 16:00:00,40.70221,-75.13695,40.70221,-75.13695,0.0,At US-22/Memorial Pky - Construction work.,,State Highway 57,R,Stewartsville,Warren,NJ,08886,US,US/Eastern,KABE,2020-05-11 08:51:00,48.0,48.0,77.0,29.44,10.0,CALM,0.0,0.0,Cloudy,False,False,False,False,False,False,False,False,False,False,False,True,False,Day,Day,Day,Day
C-412534,2,2019-03-21 10:11:28,2019-03-25 10:11:09,26.131536,-80.13748000000002,26.135488,-80.13756,0.273102282389,At 9th St - Construction work. Right lane blocked.,691.0,N Federal Hwy,L,Fort Lauderdale,Broward,FL,33304-4645,US,US/Eastern,KFXE,2019-03-21 09:53:00,71.1,,81.0,30.01,10.0,North,5.8,,Scattered Clouds,False,False,False,False,False,False,False,False,False,False,False,False,False,Day,Day,Day,Day
C-412535,2,2020-09-19 13:07:30,2020-09-20 06:00:30,42.08844600000001,-122.603379,42.060434,-122.607421,1.94651478722,Slow traffic on I-5 from OR-99/Exit 11 (I-5) to OR-99/Exit 1 (I-5) due to construction work.,,I-5 S,R,Ashland,Jackson,OR,97520,US,US/Pacific,KMFR,2020-09-19 12:53:00,72.0,72.0,44.0,28.67,8.0,NNE,5.0,0.0,Mostly Cloudy,False,False,False,False,False,False,False,False,False,False,False,False,False,Day,Day,Day,Day
C-412536,2,2017-04-14 09:01:16,2017-04-14 15:01:16,42.32702800000001,-83.27283,42.32613,-83.27278000000003,0.062098438008,At M-153/Ford Rd - Construction work.,,Ford Rd,R,Dearborn Heights,Wayne,MI,48127,US,US/Eastern,KDTW,2017-04-14 08:53:00,50.0,,50.0,30.38,10.0,ENE,11.5,,Mostly Cloudy,False,False,False,False,False,False,False,False,False,False,False,True,False,Day,Day,Day,Day
C-412537,2,2016-11-10 11:28:47,2016-11-10 13:00:00,33.77664,-117.90086,33.76652,-117.92457,1.53079935278,Between Fairview/Garden Grove/Haster St and Harbor Blvd - Construction work.,,CA-22 W,R,Garden Grove,Orange,CA,92840,US,US/Pacific,KFUL,2016-11-10 11:53:00,91.9,,8.0,29.98,10.0,Variable,3.5,,Clear,False,False,False,False,False,False,False,False,False,False,False,False,False,Day,Day,Day,Day
C-412538,2,2018-04-30 07:00:00,2018-05-03 15:30:00,41.017479,-92.451315,40.99809000000001,-92.23686,11.2614975021,Between CR-T61/IA-213/Monroe Wapello Rd and CR-V43/Competine Rd/Exit 199 - Roadwork.,15159.0,Highway 34,L,Ottumwa,Wapello,IA,52501,US,US/Central,KOTM,2018-04-30 06:53:00,53.1,,43.0,30.06,10.0,South,17.3,,Clear,False,False,False,False,False,False,False,False,False,False,False,False,False,Day,Day,Day,Day
C-412539,2,2021-05-18 19:00:00,2021-05-19 05:45:00,36.804208,-76.197086,36.81924,-76.194652,1.04730305824,Construction on I-64 WB near MM 286 Construction. Left lane closed.,,I-64 W,R,Virginia Beach,Virginia Beach,VA,23464,US,US/Eastern,KORF,2021-05-18 18:59:00,69.0,69.0,51.0,30.32,10.0,ENE,8.0,0.0,Partly Cloudy,False,False,False,False,True,False,False,False,False,False,False,False,False,Day,Day,Day,Day
C-412540,2,2021-03-12 04:48:30,2021-03-12 13:26:58,33.513444,-112.168732,33.508285,-112.168788,0.356467550097,Slow traffic from Bethany Home Rd (N 51st Ave) to Indian School Rd (N 51st Ave) due to roadwork.,5084.0,W Colter St,R,Glendale,Maricopa,AZ,85301-7013,US,US/Mountain,KGEU,2021-03-12 04:58:00,49.0,49.0,99.0,28.85,10.0,S,3.0,0.0,Light Drizzle,False,False,False,False,False,False,False,False,True,True,False,False,False,Night,Night,Night,Night
C-412541,2,2021-04-06 20:12:00,2021-04-07 06:45:00,37.996721,-78.300461,37.996951,-78.292245,0.447632745211,On I-64 in the County of Louisa at mile marker 132 motorists can expect potential delays in this area from 04/06/21 at 8:12 PM until 04/07/21 at 6:00 AM due to bridge work. The east right lane and right shoulder are closed.,1999.0,Beaverdam Rd,L,Keswick,Fluvanna,VA,22947-3032,US,US/Eastern,KCHO,2021-04-06 19:53:00,76.0,76.0,30.0,29.24,10.0,E,3.0,0.0,Fair,False,False,False,False,False,False,False,False,False,False,False,False,False,Night,Night,Day,Day
C-412542,2,2021-10-22 16:22:30,2021-10-22 18:53:48,33.46572800000001,-112.060762,33.46624,-112.065004,0.247049080771,Slow traffic from N 10th St to E Coronado Rd due to roadwork.,1000.0,E McDowell Rd,L,Phoenix,Maricopa,AZ,85006-2603,US,US/Mountain,KPHX,2021-10-22 16:51:00,88.0,88.0,14.0,28.64,10.0,NW,7.0,0.0,Mostly Cloudy,True,False,True,False,False,False,False,False,True,False,False,True,False,Day,Day,Day,Day
C-412543,4,2016-11-04 03:18:48,2016-11-04 09:18:48,28.472361,-81.238039,28.483054,-81.240749,0.756926646728,Closed at Leevista Blvd - Closed due to roadwork.,,FL-417 N,R,Orlando,Orange,FL,32829,US,US/Eastern,KMCO,2016-11-04 02:53:00,66.0,,90.0,30.09,10.0,Calm,,,Mostly Cloudy,False,False,False,False,True,False,False,False,False,False,False,False,False,Night,Night,Night,Night
C-412544,2,2021-12-29 13:10:07,2021-12-29 15:14:44,25.924072,-80.15433900000002,25.926216,-80.154653,0.149415798318,Slow traffic on US-1 N - FL-826 - FL-5 from US-1 to W Dixie Hwy due to roadwork.,16099.0,Biscayne Blvd,L,North Miami Beach,Miami-Dade,FL,33160,US,US/Eastern,KHWO,2021-12-29 12:53:00,81.0,81.0,56.0,30.06,10.0,ESE,9.0,0.0,Partly Cloudy,False,False,False,False,False,False,False,False,True,False,False,False,False,Day,Day,Day,Day
C-412545,2,2021-09-05 17:11:00,2021-09-05 17:31:30,41.92870900000001,-71.95683299999997,41.938992,-71.960581,0.736142155572,Slow traffic on CT-169 - CT-171 from US-44/Deerfield Rd/Putnam Rd (Pomfret St/CT-169) to CT-171/Stone Bridge Rd (CT-169) due to roadwork.,169.0,Route 169,R,Woodstock,Windham,CT,06281-3321,US,US/Eastern,KIJD,2021-09-05 16:52:00,68.0,68.0,84.0,29.57,10.0,SSE,7.0,0.0,Cloudy,False,False,False,False,False,False,False,False,False,False,False,True,False,Day,Day,Day,Day
