ID,Severity,Start_Time,End_Time,Start_Lat,Start_Lng,End_Lat,End_Lng,Distance(mi),Description,Number,Street,Side,City,County,State,Zipcode,Country,Timezone,Airport_Code,Weather_Timestamp,Temperature(F),Wind_Chill(F),Humidity(%),Pressure(in),Visibility(mi),Wind_Direction,Wind_Speed(mph),Precipitation(in),Weather_Condition,Amenity,Bump,Crossing,Give_Way,Junction,No_Exit,Railway,Roundabout,Station,Stop,Traffic_Calming,Traffic_Signal,Turning_Loop,Sunrise_Sunset,Civil_Twilight,Nautical_Twilight,Astronomical_Twilight
C-693761,2,2019-05-22 20:02:58,2019-05-26 20:02:19,41.749708,-72.714034,41.749534,-72.710321,0.191774779045,Between Prospect Ave/Exit 44 and Flatbush Ave/Exit 45 - Construction work.,,I-84 E,R,Hartford,Hartford,CT,06106,US,US/Eastern,KHFD,2019-05-22 19:53:00,69.0,69.0,32.0,30.18,10.0,NNW,7.0,0.0,Fair,False,False,False,False,False,False,False,False,False,False,False,False,False,Day,Day,Day,Day
C-693762,2,2021-01-10 15:49:30,2021-01-10 23:46:30,30.188463,-92.075069,30.177605,-92.073924,0.7533267892450001,Stationary traffic on LA-342 - LA-3073 from W Congress St (Ambassador Caffery Pkwy) to US-167/Johnston St (Ambassador Caffery Pkwy) due to roadwork.,3131.0,Ambassador Caffery Pkwy,R,Lafayette,Lafayette,LA,70506-7209,US,US/Central,KLFT,2021-01-10 15:53:00,46.0,42.0,54.0,30.18,10.0,NNE,8.0,0.0,Light Rain,False,False,False,False,False,False,False,False,False,False,False,True,False,Day,Day,Day,Day
C-693763,4,2021-04-05 02:18:19,2021-12-16 07:27:30,41.629612,-93.54189,41.630471,-93.541917,0.0593676248049,Closed road from E 38th St / E Douglas Ave to Hubbell Ave / E 38th St due to roadwork.,3798.0,E 38th St,L,Des Moines,Polk,IA,50317-5814,US,US/Central,KIKV,2021-04-05 02:15:00,68.0,68.0,52.0,28.93,10.0,SSW,17.0,0.0,Fair,False,False,False,False,False,False,False,False,False,True,False,False,False,Night,Night,Night,Night
C-693764,2,2021-06-24 09:47:30,2021-06-24 10:00:30,45.488837,-118.409563,45.497869,-118.41783999999998,0.741722006178,Slow traffic on I-84 W - Old Oregon Trail Hwy No 6 - US-30 W - Old Oregon Trl from Summit Rd/Exit 243 (I-84) to Emigrant Spring State Park/Exit 234 (I-84) due to roadwork.,,I-84 W,R,Pendleton,Umatilla,OR,97801,US,US/Pacific,KPDT,2021-06-24 09:53:00,82.0,82.0,25.0,28.39,10.0,W,14.0,0.0,Fair,False,False,False,False,False,False,False,False,False,False,False,False,False,Day,Day,Day,Day
C-693765,4,2021-06-09 07:20:45,2021-06-16 23:59:00,45.47275,-122.679146,45.47126,-122.678447,0.108377066099,Closed road from SW Barbur Blvd to I-5 S due to roadwork.,7100.0,SW Brier Pl,L,Portland,Multnomah,OR,97219-2266,US,US/Pacific,KPDX,2021-06-09 06:53:00,53.0,53.0,80.0,30.11,10.0,ESE,3.0,0.0,Fair,False,False,False,False,False,False,False,False,False,False,False,False,False,Day,Day,Day,Day
C-693766,2,2021-11-13 15:00:00,2021-11-13 15:20:00,40.084067,-75.391527,40.086449,-75.386122,0.329732702822,Stationary traffic on US-202 N from Swedesford Rd (Wayne) (US-202) to DeKalb St (E DeKalb Pike/US-202) due to roadwork.,,US-202 N,R,King of Prussia,Montgomery,PA,19406,US,US/Eastern,KLOM,2021-11-13 14:55:00,42.0,36.0,90.0,29.46,10.0,WNW,12.0,0.04,Cloudy,False,False,False,False,True,False,False,False,False,False,False,True,False,Day,Day,Day,Day
C-693767,2,2021-08-04 11:46:30,2021-08-04 12:12:31,44.068413,-89.30322,44.06913400000001,-89.2975,0.288300259807,Stationary traffic on WI-22 - WI-21 from CR-Y (WI-21) to WI-22/W Division St/S Cambridge St (WI-21) due to roadwork.,,W8417 State Road 21,R,Wautoma,Waushara,WI,54982-8255,US,US/Central,KY50,2021-08-04 11:56:00,80.0,80.0,52.0,29.21,10.0,WNW,7.0,0.0,Fair,False,False,False,False,False,False,False,False,False,False,False,False,False,Day,Day,Day,Day
C-693768,2,2020-10-17 04:01:00,2020-10-17 15:46:00,34.081632,-117.702817,34.067561,-117.517746,10.6362654282,Alternating Lanes closure due to K-rail Installation between Indian Hill Blvd and Route 15,,I-10 E,R,Montclair,San Bernardino,CA,91763,US,US/Pacific,KPOC,2020-10-17 06:47:00,64.0,64.0,45.0,28.87,10.0,CALM,0.0,,Fair,False,False,False,False,False,False,False,False,False,False,False,False,False,Night,Night,Night,Night
C-693769,2,2020-06-28 21:19:40,2020-06-29 06:59:59,28.44618,-81.47417,28.5096,-81.40058,6.25909154604,Between SR-528-TOLL/Exit 72 and US-17/US-441/US-92/S Orange Blossom Trl/Exit 80 - Roadwork. Two lanes closed.,,I-4 E,R,Orlando,Orange,FL,32819,US,US/Eastern,KMCO,2020-06-28 20:53:00,85.0,85.0,63.0,29.88,10.0,S,6.0,0.0,Mostly Cloudy,False,False,False,False,False,False,False,False,False,False,False,False,False,Night,Night,Day,Day
C-693770,2,2019-11-03 00:00:01,2019-11-03 23:00:01,39.74002,-104.99003,39.74005,-104.98984,0.0103052376617,At 15th St - Construction work.,228.0,W Colfax Ave,L,Denver,Denver,CO,80202,US,US/Mountain,KBJC,2019-11-03 00:11:00,37.0,37.0,38.0,24.43,10.0,CALM,0.0,0.0,Fair,True,False,True,False,False,False,False,False,False,False,False,True,False,Night,Night,Night,Night
C-693771,2,2021-04-30 13:20:00,2021-04-30 14:05:30,38.347104,-77.672569,38.335769,-77.65914000000002,1.0690983427,Slow traffic from Old Vancluse Rd to Golden Oaks Dr due to roadwork.,10191.0,Elys Ford Rd,R,Fredericksburg,Spotsylvania,VA,22407-9652,US,US/Eastern,KEZF,2021-04-30 13:15:00,73.0,73.0,21.0,29.62,10.0,WNW,23.0,0.0,Fair / Windy,False,False,False,False,False,False,False,False,False,False,False,False,False,Day,Day,Day,Day
C-693772,2,2021-06-02 17:41:34,2021-06-02 19:06:08,25.890179,-80.188488,25.890307,-80.185905,0.160799215864,Slow traffic on FL-922 from Griffing Blvd/NE North Miami Blvd (NE 125th St/North Miami Blvd/FL-922) to NE 10th Ave (NE 125th St/North Miami Blvd/FL-922) due to roadwork.,12400.0,NE 5th Ave,L,North Miami,Miami-Dade,FL,33161-4703,US,US/Eastern,KOPF,2021-06-02 17:53:00,84.0,84.0,65.0,29.98,10.0,SE,15.0,0.0,Fair,False,False,False,False,False,False,False,False,False,False,False,False,False,Day,Day,Day,Day
C-693773,4,2020-05-14 19:31:39,2020-05-15 00:30:23,40.76549,-74.02324,40.7546,-73.99794,1.52292894666,Closed between Lincoln Tunnel West and 33rd St/34th St - Closed due to roadwork.,,NJ-495 E,R,Weehawken,Hudson,NJ,07086,US,US/Eastern,KNYC,2020-05-14 19:51:00,63.0,63.0,54.0,29.98,10.0,VAR,3.0,0.0,Cloudy,False,False,False,False,True,False,False,False,False,False,False,False,False,Day,Day,Day,Day
C-693775,2,2021-10-04 05:12:30,2021-10-05 01:59:05,42.026241,-87.746791,42.026241,-87.746341,0.0230963569701,Roadwork from Lincoln Ave/Niles Center Rd (Oakton St) to US-41/Skokie Blvd (Oakton St).,,Oakton St,R,Skokie,Cook,IL,60076,US,US/Central,KORD,2021-10-04 05:02:00,64.0,64.0,93.0,29.14,9.0,NNW,5.0,0.0,Mostly Cloudy,False,False,False,False,False,False,False,False,True,False,False,True,False,Night,Night,Night,Night
C-693776,2,2021-08-16 10:43:30,2021-08-16 12:59:12,27.160766,-80.300651,27.161428000000004,-80.301383,0.0641642953449,Stationary traffic on FL-714 - County Hwy-714 from Stuart to Florida's Turnpike N due to roadwork.,,SW Martin Downs Blvd,R,Palm City,Martin,FL,34990,US,US/Eastern,KSUA,2021-08-16 10:50:00,86.0,86.0,74.0,29.97,10.0,VAR,3.0,0.0,Mostly Cloudy,False,False,False,False,False,False,False,False,False,False,False,False,False,Day,Day,Day,Day
C-693777,2,2021-03-25 05:38:30,2021-03-25 08:39:37,30.225272,-93.308396,30.218073,-93.320642,0.884275394648,Slow traffic on I-10 W from I-210/Exit 25 (I-10) to LA-108/Exit 23 (I-10) due to roadwork.,,I-10 W,R,Westlake,Calcasieu,LA,70669,US,US/Central,KCWF,2021-03-25 05:35:00,71.0,71.0,93.0,29.61,5.0,S,20.0,0.0,Cloudy,False,False,False,False,True,False,False,False,False,False,False,False,False,Night,Night,Night,Night
C-693778,2,2021-06-03 05:35:00,2021-12-17 12:50:53,33.394253000000006,-112.099181,33.391545,-112.099132,0.187126330788,Slow traffic from W Broadway Rd (S 19th Ave) to W Baseline Rd (S 19th Ave) due to roadwork.,5802.0,S 19th Ave,R,Phoenix,Maricopa,AZ,85041-4618,US,US/Mountain,KPHX,2021-12-17 10:51:00,53.0,53.0,48.0,28.87,10.0,S,3.0,0.0,Fair,True,False,False,False,False,False,False,False,True,False,False,False,False,Day,Day,Day,Day
C-693779,2,2021-11-15 08:00:00,2021-11-16 05:45:00,40.636849,-74.908937,40.636438,-74.909729,0.0503073059707,Construction on NJ-173 WB near COUNTY HWY-513 Drive with caution.,22.0,Old Highway 22,R,Clinton,Hunterdon,NJ,08809-1305,US,US/Eastern,KSMQ,2021-11-15 07:53:00,36.0,,100.0,29.66,5.0,,,0.0,Cloudy,False,False,False,False,False,False,False,False,False,False,False,True,False,Day,Day,Day,Day
C-693780,2,2020-12-19 23:33:36,2020-12-20 00:08:09,40.755348,-73.977416,40.758466,-73.975101,0.247166867864,Stationary traffic from E 42nd St (Madison Ave) to E 57th St (Madison Ave) due to roadwork.,373.0,Madison Ave,R,New York,New York,NY,10017-3108,US,US/Eastern,KNYC,2020-12-19 23:51:00,31.0,31.0,52.0,30.18,10.0,W,3.0,0.0,Fair,False,False,True,False,False,False,False,False,True,False,False,True,False,Night,Night,Night,Night
C-693781,2,2020-08-28 13:03:30,2020-08-28 18:19:05,26.681669,-80.24981899999999,26.681543,-80.245088,0.292202957612,Stationary traffic on US-98 from Big Blue Trl/F Rd (US-98) to Royal Palm Beach Blvd (US-98) due to resurfacing work.,12624.0,Southern Blvd,L,Wellington,Palm Beach,FL,33414,US,US/Eastern,KPBI,2020-08-28 12:53:00,92.0,92.0,64.0,30.06,10.0,S,10.0,0.0,Mostly Cloudy,False,False,False,False,False,False,False,False,False,False,False,False,False,Day,Day,Day,Day
C-693782,2,2020-12-14 08:00:00,2020-12-20 07:59:59,38.177645,-75.38797,38.17802,-75.389236,0.0734812129933999,drainage and paving. WORCESTER COUNTY: MD-365 SOUTH BETWEEN (MU-161) E FEDERAL ST AND (MU-360) TIMMONS ST,398.0,E Federal St,R,Snow Hill,Worcester,MD,21863-1352,US,US/Eastern,KSBY,2020-12-14 07:54:00,46.0,42.0,76.0,29.85,6.0,NNE,8.0,0.01,Rain,False,False,False,False,False,False,False,False,False,False,False,False,False,Day,Day,Day,Day
C-693783,2,2017-05-11 09:01:13,2017-05-11 15:01:13,34.260494,-116.866351,34.25674,-116.88301,0.986055204531,At Stanfield Cutoff - Construction work.,42995.0,Big Bear Blvd,R,Big Bear Lake,San Bernardino,CA,92315,US,US/Pacific,KL35,2017-05-11 08:55:00,59.0,,34.0,30.27,10.0,West,8.1,,Clear,False,False,True,False,False,False,False,False,True,False,False,True,False,Day,Day,Day,Day
C-693784,2,2020-08-01 02:36:36,2020-10-07 07:44:00,42.753343,-78.595341,42.734918,-78.599652,1.29170319401,Construction on NY-400 WB near E MAIN ST Drive with caution.,2099.0,Lapham Rd,R,East Aurora,Erie,NY,14052-2704,US,US/Eastern,KBUF,2020-08-01 02:54:00,66.0,66.0,78.0,29.16,10.0,SE,3.0,0.0,Partly Cloudy,False,False,False,False,False,False,False,False,False,False,False,False,False,Night,Night,Night,Night
C-693785,2,2021-09-23 16:58:00,2021-09-23 19:02:34,39.740297,-104.824713,39.738129,-104.825664,0.158086573,Slow traffic on US-40 W - I-70 Bus W - US-287 N from Billings St to I-225 S due to roadwork.,,E Colfax Ave,R,Aurora,Adams,CO,80011,US,US/Mountain,KBKF,2021-09-23 16:58:00,81.0,81.0,10.0,24.42,10.0,NE,9.0,0.0,Mostly Cloudy,False,False,True,False,False,False,False,False,False,False,False,True,False,Day,Day,Day,Day
C-693786,2,2021-10-16 16:46:00,2021-10-16 18:51:36,26.100396,-80.13268599999998,26.101189,-80.136712,0.2557410187009999,Slow traffic on US-1 N - FL-A1A - FL-5 from SE 10th Ave to SE 16th Ct due to roadwork.,1001.0,SE 17th St,R,Fort Lauderdale,Broward,FL,33316-2128,US,US/Eastern,KFLL,2021-10-16 16:53:00,84.0,84.0,74.0,29.87,10.0,E,12.0,0.0,Mostly Cloudy,False,False,False,False,False,False,False,False,False,False,False,True,False,Day,Day,Day,Day
C-693787,2,2021-04-28 05:15:00,2021-12-14 17:55:30,39.71154,-104.938185,39.71040900000001,-104.940825,0.160613333664,Stationary traffic on CO-2 from Leetsdale Dr to E Dakota Ave due to roadwork.,4253.0,E Alameda Ave,L,Denver,Denver,CO,80246,US,US/Mountain,KBKF,2021-06-29 12:58:00,73.0,73.0,44.0,24.57,10.0,SE,15.0,0.0,Mostly Cloudy,False,False,True,False,False,False,False,False,False,False,False,True,False,Night,Night,Day,Day
C-693788,2,2021-09-08 06:55:00,2021-09-08 09:06:47,42.596541,-82.952336,42.605746,-82.95264399999998,0.6361978005300001,Stationary traffic from 17 Mile Rd (Garfield Rd) to 19 Mile Rd (Garfield Rd) due to roadwork.,40763.0,Garfield Rd,L,Clinton Township,Macomb,MI,48038-2956,US,US/Eastern,KMTC,2021-09-08 06:56:00,63.0,63.0,100.0,29.06,10.0,WSW,7.0,0.0,Fair,False,False,True,False,False,False,False,False,False,False,False,False,False,Night,Day,Day,Day
C-693789,4,2020-05-30 18:38:40,2020-08-05 12:52:02,35.77993,-78.6491,35.78080999999999,-78.64909,0.0608047928869,Closed at Hillsborough St - Closed due to roadwork.,699.0,W Morgan St,L,Raleigh,Wake,NC,27603-1829,US,US/Eastern,KRDU,2020-05-31 03:51:00,66.0,66.0,81.0,29.57,10.0,N,5.0,0.0,Fair,True,False,True,False,False,False,False,False,True,False,False,True,False,Day,Day,Day,Day
C-693790,2,2021-12-19 11:26:00,2021-12-19 13:18:30,28.304111,-81.45281899999998,28.304358,-81.444953,0.478814803746,Slow traffic on US-192 E from CR-535/Vineland Rd (US-192) to N Airport Rd/N Hoagland Blvd (US-192) due to roadwork.,4290.0,W Vine St,L,Kissimmee,Osceola,FL,34746,US,US/Eastern,KISM,2021-12-19 11:56:00,79.0,79.0,74.0,29.94,10.0,WSW,14.0,0.0,Mostly Cloudy,False,False,True,False,False,False,False,False,False,False,False,True,False,Day,Day,Day,Day
C-693791,2,2019-05-07 08:00:00,2019-05-07 17:00:00,32.5891,-96.322334,,,0.0,Intermittent lane closures due to construction work on US-175 Westbound at TX-243.,,US-175 W,R,Kaufman,Kaufman,TX,75142,US,US/Central,KTRL,2019-05-07 07:53:00,70.0,70.0,87.0,29.51,10.0,ESE,6.0,0.0,Cloudy,False,False,False,False,False,False,False,False,False,False,False,False,False,Day,Day,Day,Day
C-693792,2,2021-12-09 00:28:00,2021-12-12 00:00:14,41.275402,-114.170806,41.220703,-114.232845,4.9669064975,Roadwork - on SR-233 in both directions between Mile Post 20 and Mile Post 24 in Montello Elko County Nevada. Intermittent single lane traffic with flaggers and pilot car width limit of 16 feet and speed will be reduced to 55 miles per hour. Motorists can expect up to 30 minute delays Decrease speed and move over for highway workers.,,Phenomenon Rd,R,Montello,Elko,NV,89830,US,US/Pacific,,,,,,,,,,,,False,False,False,False,False,False,False,False,False,False,False,False,False,Night,Night,Night,Night
C-693793,3,2018-11-14 22:00:00,2018-11-15 06:00:00,47.223091,-122.434029,,,0.0,Entry ramp closed due to construction during the night on WA-7 Pacific Ave Northbound at 38th St .,180.0,S 38th St,L,Tacoma,Pierce,WA,98418-7832,US,US/Pacific,KTCM,2018-11-14 21:58:00,47.8,,100.0,30.41,10.0,SSE,3.5,,Overcast,False,False,True,False,False,False,False,False,False,False,False,True,False,Night,Night,Night,Night
C-693794,2,2021-05-25 11:20:00,2021-05-25 11:54:00,38.752413,-89.896846,38.75427,-89.886799,0.556353292632,Slow traffic on I-70 E from I-270 (I-70) to IL-4/Exit 21 (I-70) due to roadwork.,,I-70 E,R,Troy,Madison,IL,62294,US,US/Central,KBLV,2021-05-25 10:56:00,83.0,83.0,58.0,29.59,10.0,WSW,13.0,0.0,Fair,False,False,False,False,False,False,False,False,False,False,False,False,False,Day,Day,Day,Day
C-693795,2,2018-11-01 00:00:00,2018-11-30 23:59:00,34.122391,-84.07543199999998,,,0.0,Intermittent lane closures due to construction work on Suwanee Dam Rd both ways at Riverside Rd.,,Suwanee Dam Rd,R,Buford,Gwinnett,GA,30518,US,US/Eastern,KLZU,2018-11-01 00:56:00,57.0,,96.0,30.06,10.0,East,3.5,,Clear,False,False,False,False,False,False,False,False,False,False,False,False,False,Night,Night,Night,Night
C-693796,2,2020-09-30 15:01:02,2020-09-30 23:45:00,40.773428,-74.04209,40.774238,-74.04279,0.0668855602928,Construction on NJ-3 NB near US-1 Construction. Right lane closed.,,Tonnelle Ave,R,North Bergen,Hudson,NJ,07047,US,US/Eastern,KNYC,2020-09-30 14:51:00,67.0,67.0,47.0,29.66,10.0,W,9.0,0.0,Fair,False,False,True,False,False,False,False,False,False,False,False,True,False,Day,Day,Day,Day
C-693797,2,2019-10-09 07:53:29,2019-10-09 16:15:00,45.78289,-119.31938,45.78802,-119.34942,1.4901584960499998,Between Stanfield Rest Area and Westland Rd/Exit 180 - Maintenance work.,,I-84 W,R,Stanfield,Umatilla,OR,97875,US,US/Pacific,KHRI,2019-10-09 07:53:00,42.0,38.0,58.0,29.56,10.0,NW,6.0,0.0,Cloudy,False,False,False,False,False,False,False,False,False,False,False,False,False,Day,Day,Day,Day
C-693798,2,2019-12-05 09:05:00,2019-12-05 11:07:29,37.637963,-122.40456,37.637963,-122.40456,0.0,At I-380/Access Rd - Lane control signs not working.,,Bayshore Fwy N,R,South San Francisco,San Mateo,CA,94080,US,US/Pacific,KSFO,2019-12-05 08:56:00,55.0,55.0,86.0,30.07,8.0,ENE,8.0,0.0,Cloudy,False,False,False,False,False,False,False,False,False,False,False,False,False,Day,Day,Day,Day
C-693799,2,2017-07-31 22:01:06,2017-08-01 04:01:06,40.738956,-74.003852,40.738954,-74.003852,0.000138186839205,At W 13th St/Gansevoort St - Construction work.,5.0,Horatio St,R,New York,New York,NY,10014-1611,US,US/Eastern,KJRB,2017-07-31 21:56:00,78.1,,62.0,30.05,10.0,South,5.8,,Clear,False,False,True,False,False,False,False,False,False,False,False,True,False,Night,Night,Night,Day
C-693800,2,2019-12-19 07:01:00,2019-12-19 20:41:46,38.67136,-121.55486,38.67137,-121.57645,1.16465524678,At Powerline Rd Oc - Maintenance work.,,CA-16 W,R,Sacramento,Sacramento,CA,95835,US,US/Pacific,KSMF,2019-12-19 07:07:00,46.0,44.0,96.0,30.16,0.75,W,5.0,0.0,Mist,False,False,False,False,False,False,False,False,False,False,False,False,False,Night,Day,Day,Day
C-693801,2,2021-11-09 14:25:30,2021-11-09 14:45:30,40.76766,-112.025038,40.762125,-112.024991,0.382439986277,Stationary traffic on UT-172 from I-80 (S 5600 W/UT-172) to W 1300 S (S 5600 W/UT-172) due to roadwork.,87.0,S 5600 W,L,Salt Lake City,Salt Lake,UT,84104,US,US/Mountain,KSLC,2021-11-09 14:54:00,49.0,44.0,74.0,25.72,10.0,S,14.0,0.0,Light Rain,False,False,False,False,False,False,False,False,False,False,False,False,False,Day,Day,Day,Day
C-693802,2,2021-12-23 15:06:00,2021-12-23 17:17:56,42.671829,-82.943428,42.671937,-82.939887,0.180040163374,Slow traffic from Hayes Rd (23 Mile Rd) to Card Rd (23 Mile Rd) due to roadwork.,18096.0,23 Mile Rd,R,Macomb,Macomb,MI,48044-1160,US,US/Eastern,KMTC,2021-12-23 14:56:00,31.0,21.0,100.0,29.29,10.0,SSE,13.0,0.01,Cloudy,False,False,True,False,False,False,False,False,False,False,False,False,False,Day,Day,Day,Day
C-693803,3,2019-05-02 19:10:47,2019-05-07 14:35:03,42.006068,-88.195075,42.010268,-88.209282,0.7849929591500001,Between Bartlett Rd and Bluff City Blvd/Shales Pky - Roadwork.,719.0,W Lake St,R,Bartlett,Cook,IL,60103,US,US/Central,KDPA,2019-05-03 14:52:00,57.0,57.0,49.0,29.25,10.0,NE,12.0,0.0,Partly Cloudy,False,False,False,False,False,False,False,False,False,False,False,False,False,Day,Day,Day,Day
C-693804,2,2020-12-09 13:59:00,2020-12-10 00:03:52,26.273153000000004,-80.097658,26.275492,-80.097347,0.162754076797,Stationary traffic on US-1 N - FL-5 from Copans Rd/23rd St (US-1) to FL-834/Sample Rd/36th St (US-1) due to roadwork.,3400.0,N Federal Hwy,L,Lighthouse Point,Broward,FL,33064-6608,US,US/Eastern,KPMP,2020-12-09 13:53:00,64.0,64.0,30.0,30.13,10.0,WNW,14.0,0.0,Fair,False,False,False,False,False,False,False,False,False,False,False,True,False,Day,Day,Day,Day
C-693805,2,2020-03-27 16:51:04,2020-03-28 16:51:04,42.14966,-87.84658,42.14965,-87.8482,0.0829881605807,At Edens Spur Toll Plaza - Roadwork. Left lane closed.,,I-94 W,R,Deerfield,Cook,IL,60015,US,US/Central,KPWK,2020-03-27 16:52:00,44.0,39.0,93.0,29.18,1.0,NE,9.0,0.04,Fog,False,False,False,False,False,False,False,False,False,False,False,False,False,Day,Day,Day,Day
C-693806,2,2016-11-17 09:03:47,2016-11-30 17:00:00,43.39944000000001,-94.701881,43.39958,-94.62103,4.05888797931,At CR-N52/490th Ave - Roadwork. Single alternate lane traffic.,,Highway 9,R,Estherville,Emmet,IA,51334,US,US/Central,KEST,2016-11-17 08:52:00,44.1,38.1,93.0,29.57,10.0,North,11.5,,Clear,False,False,False,False,False,False,False,False,False,False,False,False,False,Day,Day,Day,Day
C-693807,2,2020-10-08 12:03:30,2020-10-09 01:22:32,40.825342,-73.94785300000002,40.825801,-73.95103,0.1691042330599999,Queuing traffic from Amsterdam Ave to W 144th St due to major roadwork.,504.0,W 145th St,L,New York,New York,NY,10031-5402,US,US/Eastern,KNYC,2020-10-08 11:51:00,62.0,62.0,44.0,29.87,10.0,NW,10.0,0.0,Fair,True,False,False,False,False,False,False,False,True,False,False,True,False,Day,Day,Day,Day
C-693808,2,2021-07-19 00:00:00,2021-11-12 00:45:00,32.954276,-96.842094,32.954996,-96.838735,0.200996297678,Slow traffic from Oak St to Arapaho Rd due to roadwork.,4130.0,Belt Line Rd,R,Addison,Dallas,TX,75001-4354,US,US/Central,KADS,2021-09-27 13:59:00,86.0,86.0,31.0,29.28,13.0,SE,13.0,0.0,Partly Cloudy,False,False,False,False,False,False,False,False,False,False,False,False,False,Night,Night,Night,Night
C-693809,2,2021-12-06 06:00:30,2021-12-06 06:21:30,45.520139,-68.352763,45.51793,-68.353832,0.1611626775819999,Stationary traffic on US-2 W - US-2 E from ME-157 (Main St/US-2) to ME-168/Lee St (US-2) due to roadwork.,376.0,Main St,L,Mattawamkeag,Penobscot,ME,04459-3111,US,US/Eastern,KMLT,2021-12-06 06:04:00,21.0,15.0,85.0,29.82,1.0,E,5.0,0.0,Light Snow,False,False,False,False,False,False,False,False,False,False,False,False,False,Night,Night,Day,Day
C-693810,4,2016-11-21 23:00:00,2016-11-22 05:00:00,39.958317,-75.165642,,,2.19,Road closed due to construction on I-676 both ways from I-76 to Broad Street. Detour in operation.,,N 16th St,R,Philadelphia,Philadelphia,PA,19102,US,US/Eastern,KPHL,2016-11-21 22:54:00,39.0,29.0,43.0,29.96,10.0,WNW,20.7,,Overcast,False,False,True,False,False,False,False,False,False,False,False,True,False,Night,Night,Night,Night
C-693811,2,2020-01-31 04:21:36,2020-01-31 04:59:00,36.978474,-121.911514,,,0.0,One lane closed due to construction on CA-1 Southbound at Exit 435 State Park Dr.,,State Highway 1,R,Aptos,Santa Cruz,CA,95003,US,US/Pacific,KWVI,2020-01-31 03:53:00,48.0,48.0,93.0,30.1,10.0,NE,3.0,0.0,Fair,False,False,False,False,False,False,False,False,False,False,False,False,False,Night,Night,Night,Night
C-693812,2,2021-12-16 16:53:52,2021-12-16 19:45:11,30.311192,-81.751935,30.30531,-81.75191099999998,0.406410015232,Stationary traffic on FL-103 from I-10 (Lane Ave/FL-103) to CR-213/Lenox Ave (Lane Ave/FL-103) due to roadwork.,817.0,Lane Ave S,L,Jacksonville,Duval,FL,32205-4704,US,US/Eastern,KNIP,2021-12-16 16:53:00,71.0,71.0,96.0,30.15,7.0,SSE,6.0,0.02,Mostly Cloudy,False,False,True,False,False,False,False,False,False,False,False,True,False,Day,Day,Day,Day
C-693813,2,2021-10-21 17:40:48,2021-10-21 19:49:34,32.859657,-97.34312,32.86206,-97.342575,0.169017604915,Slow traffic on FM-156 from NE Loop 820 Service Rd N/NE Loop 820 (Blue Mound Rd/FM-156) to E McLeroy Blvd (Blue Mound Rd/FM-156) due to roadwork.,1601.0,Bell Ave,L,Blue Mound,Tarrant,TX,76131-1001,US,US/Central,KFWD,2021-10-21 17:53:00,79.0,79.0,39.0,29.35,10.0,ENE,8.0,0.0,Fair,False,False,False,False,False,False,False,False,False,False,False,False,False,Day,Day,Day,Day
C-693814,2,2020-11-09 13:26:00,2020-11-09 16:18:00,30.540621999999995,-87.087386,30.533889,-87.082468,0.549611418354,Stationary traffic on FL-281 from San Blas St to I-10 E due to roadwork.,4921.0,San Blas St,R,Milton,Santa Rosa,FL,32583,US,US/Central,KNFJ,2020-11-09 12:56:00,85.0,85.0,56.0,29.91,10.0,NE,15.0,0.0,Mostly Cloudy,False,False,False,False,False,False,False,False,False,False,False,False,False,Day,Day,Day,Day
C-693815,2,2020-07-30 15:45:00,2020-07-30 18:30:00,42.021857,-91.668623,42.028707,-91.673023,0.524408764014,Construction on I-380 NB near 42ND ST Construction. Right lane closed.,,I-380 N,R,Cedar Rapids,Linn,IA,52402,US,US/Central,KCID,2020-07-30 15:52:00,82.0,82.0,62.0,28.97,10.0,ENE,16.0,0.0,Fair,False,False,False,False,True,False,False,False,False,False,False,False,False,Day,Day,Day,Day
C-693816,2,2019-05-10 09:00:00,2019-05-10 15:00:00,38.02829000000001,-84.49297299999998,,,0.0,Single alternate line traffic due to utility work on Sunset Dr Westbound between KY-1974 Tates Creek Rd and Ashland Ave.,794.0,Sunset Dr,R,Lexington,Fayette,KY,40502-2280,US,US/Eastern,KLEX,2019-05-10 08:54:00,66.0,66.0,84.0,28.98,10.0,SW,8.0,0.0,Cloudy,False,False,False,False,False,False,False,False,False,True,False,False,False,Day,Day,Day,Day
C-693817,2,2019-12-11 11:35:00,2021-07-20 20:45:00,40.574609,-75.928626,40.573996,-75.933973,0.283793249086,Construction on I-78 WB near MP 35 Allow extra time.,,I-78 W,R,Lenhartsville,Berks,PA,19534,US,US/Eastern,KRDG,2019-12-11 11:54:00,37.0,29.0,65.0,29.9,10.0,W,13.0,0.0,Partly Cloudy,False,False,False,False,False,False,False,False,False,False,False,False,False,Day,Day,Day,Day
C-693818,2,2021-03-25 05:53:30,2021-10-07 10:18:07,28.081855,-80.598052,28.07938900000001,-80.603255,0.360043445761,Stationary traffic on US-192 E - US-192 W - US-1 N - US-1 S - FL-5 from 5th Ave to E New Haven Ave due to roadwork.,,Melbourne Cswy,R,Melbourne,Brevard,FL,32901,US,US/Eastern,KMLB,2021-03-25 05:51:00,68.0,68.0,96.0,30.0,6.0,CALM,0.0,0.0,Mostly Cloudy,False,False,False,False,False,False,False,False,False,False,False,False,False,Night,Night,Night,Night
C-693820,4,2020-12-30 08:00:00,2021-01-07 07:59:59,35.452939,-97.521167,35.452921,-97.516166,0.281473870481,Closed road from S Walker Ave to S Robinson Ave due to roadwork.,499.0,SW 12th St,R,Oklahoma City,Oklahoma,OK,73109-5617,US,US/Central,KOKC,2020-12-30 08:03:00,35.0,24.0,89.0,28.74,10.0,N,21.0,0.0,Cloudy / Windy,False,False,False,False,False,False,False,False,False,True,False,False,False,Day,Day,Day,Day
C-693821,2,2020-12-14 15:30:00,2020-12-15 01:45:00,34.933562,-89.993988,34.933561,-89.993147,0.0476375969234,Construction on CHURCH RD WB near I-55 Drive with caution.,,Church Rd W,R,Southaven,DeSoto,MS,38671,US,US/Central,KMEM,2020-12-14 15:54:00,37.0,33.0,67.0,29.92,10.0,N,5.0,0.0,Mostly Cloudy,False,False,False,False,False,False,False,False,False,False,False,True,False,Day,Day,Day,Day
C-693822,2,2021-06-22 17:31:08,2021-06-22 19:33:44,27.942957,-82.353658,27.940795,-82.352678,0.160911670512,Stationary traffic on US-301 S from Brittany Way to S Ware Blvd due to roadwork.,771.0,S US Highway 301,R,Tampa,Hillsborough,FL,33619-4349,US,US/Eastern,KTPF,,,,,,,,,,,False,False,False,False,False,False,False,False,False,False,False,False,False,Day,Day,Day,Day
C-693823,2,2021-09-14 12:43:00,2021-09-14 13:18:30,40.653112,-116.283387,40.656812,-116.269194,0.786659648515,Slow traffic on I-80 E from Exit 268 (I-80) to G-236A/Marys Mtn/Exit 271 (I-80) due to roadwork.,,I-80 E,R,Crescent Valley,Eureka,NV,89821,US,US/Pacific,KB23,2021-09-14 12:56:00,84.0,84.0,13.0,25.71,10.0,CALM,0.0,0.0,Fair,False,False,False,False,False,False,False,False,False,False,False,False,False,Day,Day,Day,Day
C-693824,2,2019-10-07 00:00:00,2021-05-07 14:57:31,31.645396,-93.489124,31.675842,-93.506005,2.32611655466,Paving Operations on LA-175 Both Directions from Shir Willis Dr to Marshall Ln . Lane Alternating. Width Restriction: 12ft Starting 10/7/2019 12:00 AM,15198.0,Highway 175,L,Many,Sabine,LA,71449-6735,US,US/Central,KAQV,2019-10-07 00:56:00,71.0,71.0,90.0,29.59,10.0,CALM,0.0,0.0,Rain,False,False,False,False,False,False,False,False,False,False,False,False,False,Night,Night,Night,Night
C-693825,2,2021-08-12 15:51:30,2021-08-12 18:20:34,41.851504,-87.665947,41.852335,-87.6671,0.0825706003723,Stationary traffic from I-55 S to S Paulina St due to roadwork.,2235.0,S Ashland Ave,L,Chicago,Cook,IL,60608-5301,US,US/Central,KMDW,2021-08-12 15:53:00,79.0,79.0,69.0,29.27,10.0,SW,20.0,0.0,Cloudy,False,False,False,False,False,False,False,False,False,False,False,False,False,Day,Day,Day,Day
C-693826,2,2021-10-26 03:40:23,2021-11-27 01:59:41,40.11861500000001,-91.366038,40.107891,-91.366285,0.741072772124,Roadwork on CR-41/N 2850th Ave (Range St/IL-96) from IL-61 (N Warsaw St/IL-96) to IL-96.,2457.0,Highway 96 N,L,Ursa,Adams,IL,62376-2207,US,US/Central,KUIN,2021-10-26 03:54:00,38.0,33.0,93.0,29.27,10.0,NE,6.0,0.0,Fair,False,False,False,False,False,False,False,False,False,False,False,False,False,Night,Night,Night,Night
C-693827,2,2021-02-20 10:37:30,2021-02-22 10:03:19,40.366053,-111.886559,40.362192,-111.889121,0.298928010062,Roadwork from S 2300 W to S Saratoga Rd.,7725.0,N 9550 W,R,Lehi,Utah,UT,84043-3139,US,US/Mountain,KPVU,2021-02-20 10:56:00,39.0,33.0,70.0,25.4,10.0,WNW,9.0,0.0,Mostly Cloudy,False,False,False,False,False,False,False,False,False,False,False,False,False,Day,Day,Day,Day
C-693828,2,2016-10-04 20:01:37,2016-10-05 02:01:37,39.04402,-94.65836,39.05764,-94.62839,1.86321586622,Between 24th St/Exit 232 and Mission Rd/Southwest/Exit 233 - Maintenance work.,,US-69 N,R,Mission,Johnson,KS,66202,US,US/Central,KNKA,2016-10-04 19:18:00,,,,,,North,,,,False,False,False,False,False,False,False,False,False,False,False,False,False,Night,Night,Night,Day
C-693829,2,2021-09-06 03:55:13,2021-09-06 06:36:49,41.252635,-111.877237,41.25080300000001,-111.882041,0.279814823527,Roadwork on Wheeler Creek Rd (Ogden Cyn/UT-39) from Valley Dr (Ogden Canyon Rd/UT-39) to UT-39.,549.0,Ogden Cyn,L,Ogden,Weber,UT,84401-0955,US,US/Mountain,KOGD,2021-09-06 03:53:00,63.0,63.0,30.0,25.6,10.0,S,9.0,0.0,Fair,False,False,False,False,False,False,False,False,False,False,False,False,False,Night,Night,Night,Night
C-693830,4,2020-05-21 21:31:57,2020-05-21 23:31:22,40.65985,-83.10845,40.6606,-83.10868,0.0532037956951999,At OH-4/Marion Bucyrus Rd - Roadwork.,,US-23 N,R,Marion,Marion,OH,43302,US,US/Eastern,KMNN,2020-05-21 21:53:00,61.0,61.0,83.0,29.05,10.0,SE,10.0,0.0,Cloudy,False,False,False,False,False,False,False,False,False,False,False,False,False,Night,Night,Day,Day
C-693831,2,2021-08-19 15:48:36,2021-08-19 16:37:01,35.418027,-82.811675,35.416297,-82.812555,0.129395172301,Stationary traffic on US-276 S - US-276 N from Chinguapin Rd (US-276) to Blue Ridge Pkwy (US-276) due to roadwork.,13299.0,Cruso Rd,R,Canton,Haywood,NC,28716-5461,US,US/Eastern,KAVL,2021-08-19 15:44:00,69.0,69.0,96.0,27.9,0.5,NW,9.0,0.43,Heavy T-Storm,False,False,False,False,False,False,False,False,False,False,False,False,False,Day,Day,Day,Day
C-693832,2,2021-03-07 07:21:30,2021-03-08 17:46:11,40.71967,-73.99218499999998,40.717675,-73.985957,0.354076675239,Slow traffic from Bowery (Delancey St) to Pitt St (Delancey St) due to roadwork.,39.0,Delancey St,R,New York,New York,NY,10002-2908,US,US/Eastern,KJRB,2021-03-07 06:51:00,29.0,20.0,47.0,30.2,10.0,WNW,10.0,0.0,Fair,True,False,True,False,False,False,True,False,False,False,False,True,False,Day,Day,Day,Day
C-693833,2,2018-06-27 07:03:14,2018-06-27 13:03:14,39.94847,-82.04984,39.947855,-82.042911,0.369472374919,At US-40/Exit 152 - Construction work.,,I-70 E,R,Zanesville,Muskingum,OH,43701,US,US/Eastern,KZZV,2018-06-27 07:04:00,68.0,,93.0,29.91,10.0,SSE,5.8,,Overcast,False,False,False,False,False,False,False,False,False,False,False,False,False,Day,Day,Day,Day
C-693834,3,2016-08-25 22:00:00,2016-08-26 10:00:00,42.357136,-71.12152900000002,,,0.0,Intermittent lane closures due to construction work on I-90 Eastbound at Exits 18 20 Cambridge St.,,I-90 E,R,Allston,Suffolk,MA,02134,US,US/Eastern,KBOS,2016-08-25 21:54:00,77.0,,66.0,29.99,10.0,SSW,15.0,,Overcast,False,False,False,False,False,False,False,False,False,False,False,False,False,Night,Night,Night,Night
C-693835,2,2020-10-16 12:03:00,2020-10-16 23:44:13,42.738163,-73.669297,42.739511,-73.679604,0.531266772886,Slow traffic on NY-7 from Lake Ave (Hoosick St/NY-7) to 6th Ave (NY-7) due to roadwork.,277.0,Hoosick St,L,Troy,Rensselaer,NY,12180-2432,US,US/Eastern,KALB,2020-10-16 11:51:00,48.0,43.0,96.0,29.81,10.0,W,10.0,0.0,Light Drizzle,False,False,False,False,False,False,False,False,False,False,False,True,False,Day,Day,Day,Day
C-693836,2,2020-12-18 04:17:20,2020-12-18 17:00:00,40.008965,-75.189178,,,4.61999988556,Lane closed due to construction work on US-1 Roosevelt Expy Southbound between 9th St and Ridge Ave.,,US-1 N,R,Philadelphia,Philadelphia,PA,19129,US,US/Eastern,KLOM,2020-12-18 04:15:00,20.0,20.0,83.0,29.87,10.0,CALM,0.0,0.0,Cloudy,False,False,False,False,False,False,False,False,False,False,False,False,False,Night,Night,Night,Night
C-693837,2,2021-09-08 14:51:14,2021-09-08 17:09:36,40.72164,-73.993587,40.719918,-73.993002,0.122859313394,Slow traffic from Rivington St to Chrystie St due to roadwork.,210.0,Bowery,L,New York,New York,NY,10012-4203,US,US/Eastern,KJRB,2021-09-08 14:51:00,80.0,80.0,67.0,29.72,10.0,VAR,5.0,0.0,Mostly Cloudy,False,False,True,False,False,False,True,False,True,False,False,True,False,Day,Day,Day,Day
C-693838,2,2020-04-01 14:31:02,2020-04-02 14:31:02,42.31373,-83.17071999999997,42.3261,-83.161,0.988468258074,Between Schaefer Hwy/Exit 208 and US-12/Michigan Ave/Exit 210 - Roadwork. Right lane blocked.,,Detroit Industrial Fwy E,R,Dearborn,Wayne,MI,48120,US,US/Eastern,KDET,2020-04-01 14:53:00,50.0,50.0,59.0,29.35,10.0,N,9.0,0.0,Cloudy,False,False,False,False,False,False,False,False,False,False,False,False,False,Day,Day,Day,Day
C-693839,2,2021-11-26 13:18:00,2021-11-26 15:25:59,26.948075,-80.084958,26.952351,-80.085753,0.299473389962,Stationary traffic on US-1 N - FL-A1A Alt - FL-811 - FL-A1A - FL-5 from S US Highway 1 to N Old Dixie Hwy due to roadwork.,,N US Highway 1,R,Jupiter,Palm Beach,FL,33469,US,US/Eastern,KSUA,2021-11-26 13:47:00,79.0,79.0,39.0,29.98,7.0,NW,9.0,0.0,Fair,False,False,False,False,False,False,False,False,False,False,False,False,False,Day,Day,Day,Day
C-693840,2,2021-06-04 14:07:05,2021-11-02 15:46:50,39.187726,-104.849208,39.187724,-104.846688,0.134953426828,Roadwork from I-25/US-85/US-87 (E Greenland Rd) to CR-61/Spring Valley Rd (E Greenland Rd).,,Greenland Rd,R,Larkspur,Douglas,CO,80118,US,US/Mountain,KMNH,2021-07-20 17:54:00,77.0,77.0,32.0,23.31,10.0,SSE,18.0,0.0,Fair,False,False,False,False,False,False,False,False,False,False,False,False,False,Day,Day,Day,Day
C-693841,2,2021-10-16 17:28:30,2021-10-16 19:46:14,33.654188,-112.030857,33.65504,-112.031314,0.0644686787266,Stationary traffic from N 23rd St to Arizona Heights Cir due to roadwork.,18440.0,N Cave Creek Rd,L,Phoenix,Maricopa,AZ,85032-1005,US,US/Mountain,KSDL,2021-10-16 17:53:00,89.0,89.0,11.0,28.29,10.0,ENE,9.0,0.0,Fair,True,False,True,False,False,False,False,False,True,False,False,True,False,Day,Day,Day,Day
C-693842,2,2021-09-15 15:13:30,2021-12-13 16:44:46,26.274731,-80.13752099999998,26.274838,-80.131119,0.396703394268,Slow traffic on FL-834 from FL-845/Powerline Rd (FL-834) to I-95 (West) (FL-834) due to roadwork.,1028.0,W Sample Rd,L,Pompano Beach,Broward,FL,33064-2016,US,US/Eastern,KPMP,2021-12-13 15:53:00,80.0,80.0,64.0,30.19,10.0,ENE,8.0,0.0,Fair,False,False,True,False,False,False,False,False,False,False,False,True,False,Day,Day,Day,Day
C-693843,2,2021-10-27 07:45:30,2021-10-27 08:06:00,32.48151,-85.03061600000002,32.48407,-85.031189,0.180004374468,Stationary traffic on AL-1 - US-80 E - US-431 N - AL-8 - US-280 W from US-280/US-431/AL-1/Crawford Rd (US-80) to AL-431/AL-280 (US-80) due to roadwork.,2852.0,280 Byp,L,Phenix City,Russell,AL,36867,US,US/Eastern,KCSG,2021-10-27 07:51:00,49.0,49.0,83.0,29.49,10.0,WNW,3.0,0.0,Fair,False,False,False,False,False,False,False,False,False,False,False,True,False,Day,Day,Day,Day
C-693844,2,2019-04-23 14:31:08,2019-04-25 14:30:00,41.708276,-71.397951,41.705014,-71.398459,0.226900905068,At Stanfield St - Roadwork. Lane blocked.,10.0,Oakland Beach Ave,R,Warwick,Kent,RI,02889-8355,US,US/Eastern,KPVD,2019-04-23 14:18:00,59.0,59.0,75.0,29.85,10.0,NE,9.0,0.0,Mostly Cloudy,False,False,False,False,False,False,False,False,False,False,False,False,False,Day,Day,Day,Day
C-693845,2,2021-10-14 19:44:00,2021-10-14 20:19:30,41.753303,-85.650747,41.749737,-85.662178,0.6386669113310001,Slow traffic on I-90 W - I-80 W - Indiana East-West Toll Rd W from IN-9/Exit 121 (I-90/I-80) to IN-13/Exit 107 (I-90/I-80) due to roadwork.,,I-80 W,R,Shipshewana,LaGrange,IN,46565,US,US/Eastern,KIRS,2021-10-14 20:41:00,61.0,61.0,94.0,28.93,10.0,CALM,0.0,0.0,Cloudy,False,False,False,False,False,False,False,False,False,False,False,False,False,Night,Night,Day,Day
C-693846,2,2021-03-20 10:30:00,2021-03-20 14:48:00,39.92446,-104.987867,39.90498,-104.990217,1.35168915254,Slow traffic on I-25 S - US-87 S from 136th Ave (I-25) to 104th Ave/Exit 221 (I-25) due to roadwork.,,I-25 S,R,Thornton,Adams,CO,80241,US,US/Mountain,KEIK,2021-03-20 10:35:00,45.0,45.0,58.0,,5.0,CALM,0.0,0.0,Fair,False,False,False,False,True,False,False,False,False,False,False,False,False,Day,Day,Day,Day
C-693847,2,2021-07-19 16:46:30,2021-07-19 17:26:00,39.934176,-82.850802,39.934056,-82.85289300000002,0.111090317394,Slow traffic from exit [108A] to exit [43B] due to roadwork.,,East Fwy W,R,Columbus,Franklin,OH,43232,US,US/Eastern,KCMH,2021-07-19 16:51:00,83.0,83.0,51.0,29.21,9.0,N,10.0,0.0,Fair,False,False,False,False,False,False,False,False,False,False,False,False,False,Day,Day,Day,Day
C-693848,4,2021-09-09 09:00:00,2021-09-09 14:00:00,39.972263,-75.123814,39.967133,-75.133804,0.63676240962,Closed road from Aramingo Ave to E Berks St due to roadwork.,800.0,E Girard Ave,R,Philadelphia,Philadelphia,PA,19125-3506,US,US/Eastern,KPNE,2021-09-09 08:54:00,68.0,68.0,93.0,29.67,10.0,N,3.0,0.0,Light Rain,False,False,True,False,False,False,True,False,True,False,False,False,False,Day,Day,Day,Day
C-693849,4,2019-08-05 07:00:00,2020-09-01 07:44:00,36.894664,-119.983556,36.894718,-119.970703,0.710225339171,Construction on AVENUE 10 EB near ROAD 31 Road closed. Take alternate route.,31060.0,Avenue 10,L,Madera,Madera,CA,93636-8314,US,US/Pacific,KFAT,2019-08-05 06:53:00,73.0,73.0,51.0,29.56,10.0,NNW,7.0,0.0,Mostly Cloudy,False,False,False,False,False,False,False,False,False,False,False,False,False,Day,Day,Day,Day
C-693850,2,2021-01-22 12:49:30,2021-01-23 03:48:00,40.819904,-73.890417,40.822313,-73.886718,0.25516895209,Slow traffic from Barretto St (Bruckner Blvd) to I-278/Sheridan Expy (Bruckner Blvd) due to roadwork.,998.0,Bruckner Blvd,L,Bronx,Bronx,NY,10459-5220,US,US/Eastern,KLGA,2021-01-22 12:51:00,45.0,37.0,34.0,29.67,10.0,W,20.0,0.0,Mostly Cloudy,False,False,False,False,True,False,False,False,False,False,False,True,False,Day,Day,Day,Day
C-693851,2,2021-04-05 05:47:30,2021-04-05 10:36:36,25.729937,-80.367654,25.732266,-80.367212,0.163253318384,Slow traffic on FL-976 - FL-985 from SW 41st Ter to SW 104th Ct due to roadwork.,4138.0,SW 107th Ave,R,Miami,Miami-Dade,FL,33165-4861,US,US/Eastern,KMIA,2021-04-05 05:53:00,66.0,66.0,59.0,30.13,10.0,NNE,5.0,0.0,Fair,False,False,False,False,False,False,False,False,True,False,False,False,False,Night,Night,Night,Night
C-693852,2,2019-07-05 09:20:43,2019-07-08 22:23:25,40.460059,-80.047924,40.452106,-80.038465,0.74111375611,At US-19 - Roadwork. Open.,2905.0,W Carson St,L,Pittsburgh,Allegheny,PA,15204-1939,US,US/Eastern,KPIT,2019-07-05 08:51:00,74.0,74.0,91.0,28.82,6.0,SSE,3.0,0.0,Partly Cloudy,False,False,True,False,False,False,False,False,False,False,False,False,False,Day,Day,Day,Day
C-693853,2,2021-07-21 15:52:30,2021-07-21 18:44:34,39.042319,-94.856394,39.050825,-94.863402,0.697722098902,Stationary traffic on KS-7 from W 55th St (KS-7) to KS-32/Kaw Dr (KS-7) due to roadwork.,4647.0,Highway K 7,L,Shawnee,Johnson,KS,66226,US,US/Central,KIXD,2021-07-21 15:53:00,88.0,88.0,39.0,28.95,10.0,SSW,3.0,0.0,Fair,False,False,False,False,False,False,False,False,False,False,False,True,False,Day,Day,Day,Day
C-693854,2,2021-08-30 18:39:30,2021-08-30 19:27:30,33.422004,-111.920806,33.422015,-111.928729,0.456903236365,Stationary traffic from S McClintock Dr (E University Dr) to S Mill Ave (University Dr) due to roadwork.,1151.0,E University Dr,R,Tempe,Maricopa,AZ,85281,US,US/Mountain,KPHX,2021-08-30 18:51:00,102.0,102.0,22.0,28.43,10.0,SW,5.0,0.0,Mostly Cloudy,False,False,True,False,False,False,False,False,False,False,False,True,False,Day,Day,Day,Day
C-693855,2,2019-11-07 21:03:33,2019-11-12 21:01:28,33.94236,-84.51875,33.94236,-84.51875,0.0,At Martin Ct SE - Construction work.,,Technology Way,R,Marietta,Cobb,GA,30060,US,US/Eastern,KMGE,2019-11-07 20:56:00,58.0,58.0,94.0,28.98,7.0,NW,5.0,0.06,Light Rain,False,False,True,False,False,False,False,False,False,False,False,True,False,Night,Night,Night,Night
C-693856,3,2019-10-10 20:56:31,2019-10-14 20:56:04,34.06547,-118.37726,34.06491,-118.37516,0.126271946452,Between Le Doux Rd and Hamilton Dr - Roadwork.,8517.0,Wilshire Blvd,R,Beverly Hills,Los Angeles,CA,90211-3101,US,US/Pacific,KSMO,2019-10-10 20:51:00,66.0,66.0,81.0,29.7,10.0,ESE,3.0,0.0,Fair,False,False,True,False,False,False,False,False,False,True,False,False,False,Night,Night,Night,Night
C-693857,2,2021-02-15 16:49:00,2021-02-15 20:42:52,31.564332,-101.819602,31.562184,-101.820195,0.152463441346,Roadwork on County Road 127 from County Road 126 to RM-2401.,9000.0,FM 2401,R,Midkiff,Upton,TX,79755,US,US/Central,KMAF,2021-02-15 16:55:00,14.0,14.0,71.0,27.16,10.0,NE,3.0,0.0,Cloudy,False,False,False,False,False,False,False,False,False,False,False,False,False,Day,Day,Day,Day
C-693858,2,2020-10-16 13:39:30,2020-10-17 01:51:45,39.703114,-86.401943,39.702302,-86.402745,0.0704642877021999,Stationary traffic on US-40 W - US-40 E from E Main St / N Vine St to W Carter St due to roadwork.,100.0,E Main St,L,Plainfield,Hendricks,IN,46168-1130,US,US/Eastern,KIND,2020-10-16 13:54:00,55.0,55.0,29.0,29.38,10.0,W,12.0,0.0,Fair,False,False,False,False,False,False,False,False,False,False,False,False,False,Day,Day,Day,Day
C-693859,2,2021-12-09 16:36:30,2021-12-23 17:27:37,47.685494,-120.735595,47.777909,-120.825941,7.64198120338,Roadwork on Hatchery Creek Rd (US-2) from White Pine Rd (US-2) to US-2 W - US-2 E.,15609.0,W US Highway 2,L,Leavenworth,Chelan,WA,98826-9208,US,US/Pacific,KEAT,2021-12-09 16:55:00,37.0,29.0,67.0,28.45,10.0,NW,13.0,0.0,Fair,False,False,False,False,False,False,False,False,False,False,False,False,False,Night,Day,Day,Day
C-693860,2,2021-05-06 09:00:00,2021-11-18 20:27:32,33.614826,-84.39778100000002,33.624025,-84.399842,0.646557756802,Slow traffic on I-75 N - GA-401 N from I-75 S to I-285 E due to roadwork.,,I-75 S,R,Forest Park,Clayton,GA,30297,US,US/Eastern,KATL,2021-07-22 12:52:00,87.0,87.0,53.0,29.06,9.0,W,8.0,0.0,Partly Cloudy,False,False,False,False,False,False,False,False,False,False,False,False,False,Day,Day,Day,Day
C-693861,4,2021-03-05 04:44:40,2021-03-12 23:59:00,40.862501,-73.914244,40.863121,-73.915718,0.0881334410876999,Bridge closure from Major Deegan Expy S / W Fordham Rd to 9th Ave.,,W Fordham Rd,R,Bronx,Bronx,NY,10468,US,US/Eastern,KLGA,2021-03-05 04:51:00,26.0,11.0,44.0,29.85,10.0,NW,24.0,0.0,Fair / Windy,False,False,False,False,False,False,False,False,False,False,False,True,False,Night,Night,Night,Night
C-693862,2,2020-10-20 15:00:00,2020-10-21 00:45:00,37.420102,-77.556639,37.424439,-77.555571,0.305334935661,On Rt. 649 (Newbys Bridge Rd) in the County of Chesterfield at Celestial Ln; Rt. 3469E/W (Chesterfield County) motorists can expect potential delays in this area from 10/20/20 at 8:00 AM until 10/20/20 at 5:00 PM due to construction activities. The north through lanes are alternating closures. The south through lanes are alternating closures.,5898.0,Newbys Bridge Rd,R,Chesterfield,Chesterfield,VA,23832-7543,US,US/Eastern,KFCI,,,,,,,,,,,False,False,False,False,False,False,False,False,False,False,False,False,False,Day,Day,Day,Day
C-693863,2,2021-04-01 14:04:00,2021-04-01 19:02:30,41.239148,-81.494895,41.222528,-81.48944,1.18279945889,Stationary traffic on OH-8 S from I-80/Ohio Tpke (OH-8) to Seasons Rd (OH-8) due to roadwork.,,OH-8 S,R,Hudson,Summit,OH,44236,US,US/Eastern,KPOV,2021-04-01 13:55:00,28.0,17.0,70.0,28.94,5.0,WNW,15.0,0.01,Mostly Cloudy,False,False,False,False,True,False,False,False,False,False,False,False,False,Day,Day,Day,Day
C-693864,2,2020-10-22 13:18:00,2020-10-23 02:59:56,42.155326,-87.954657,42.154399,-87.956475,0.1130209522089999,Queuing traffic on County Hwy-W17 - County Hwy-73 from Armstrong Dr to McHenry Rd due to resurfacing work.,188.0,N Weiland Rd,L,Buffalo Grove,Lake,IL,60089-7047,US,US/Central,KPWK,2020-10-22 13:18:00,59.0,59.0,93.0,29.31,2.0,S,6.0,0.0,Fog,False,False,False,False,False,False,False,False,False,False,False,False,False,Day,Day,Day,Day
C-693865,2,2020-12-17 02:03:48,2020-12-17 06:00:00,34.116378999999995,-118.170853,,,1.16999995708,Exit ramp from CA-110 Northbound to Bridewell St closed due to paving repairs.,,Arroyo Seco Pkwy,R,Los Angeles,Los Angeles,CA,90042,US,US/Pacific,KCQT,2020-12-17 01:52:00,51.0,51.0,54.0,29.82,10.0,CALM,0.0,0.0,Fair,False,False,False,False,True,False,False,False,False,False,False,False,False,Night,Night,Night,Night
C-693866,2,2021-08-23 04:20:12,2021-09-08 18:13:47,37.718153,-94.868923,37.718196,-94.874374,0.2979388593079999,Roadwork on KS-7 (KS-39) from KS-3 (Uniontown) (East) (KS-39) to KS-39.,399.0,130th St,R,Fort Scott,Bourbon,KS,66701-8745,US,US/Central,KFSK,2021-08-23 04:15:00,77.0,77.0,91.0,28.93,10.0,S,6.0,0.0,Fair,False,False,False,False,False,False,False,False,False,False,False,False,False,Night,Night,Night,Night
C-693867,2,2020-08-18 14:03:21,2020-08-26 08:52:01,30.747194,-91.283086,30.749027,-91.293468,0.629362828398,Roadwork on US-61 from LA-68 (US-61) to LA-10 (US-61).,,Highway 61,R,Jackson,East Feliciana,LA,70748,US,US/Central,KHZR,2020-08-18 13:55:00,91.0,91.0,43.0,29.9,10.0,NNW,7.0,0.0,Fair,False,False,False,False,False,False,False,False,False,False,False,False,False,Day,Day,Day,Day
C-693868,2,2020-11-12 11:13:00,2020-11-14 21:32:50,40.712792,-73.99368,40.716248,-73.995997,0.267849306813,Slow traffic from Flatbush Ave/Flatbush Avenue Ext (Manhattan Bridge) to Bowery (Manhattan Bridge) due to roadwork.,,Manhattan Brg,R,New York,New York,NY,10002,US,US/Eastern,KJRB,2020-11-12 10:51:00,55.0,55.0,77.0,29.9,10.0,NNE,8.0,0.0,Cloudy,True,False,True,False,False,False,False,False,False,False,False,True,False,Day,Day,Day,Day
C-693869,2,2021-08-06 13:33:07,2021-08-06 14:10:08,40.862334,-109.528213,40.860128,-109.549347,1.11482790904,Slow traffic on UT-44 from US-191 (Flaming Gorge-Uintas Scenic Bywy/UT-44) to E Meadow Park Rd (Flaming Gorge-Uintas Scenic Bywy/UT-44) due to roadwork.,,S Highway 44,R,Manila,Daggett,UT,84046,US,US/Mountain,KVEL,2021-08-06 13:53:00,88.0,88.0,18.0,24.67,10.0,WSW,14.0,0.0,Partly Cloudy,False,False,False,False,False,False,False,False,False,False,False,False,False,Day,Day,Day,Day
C-693870,2,2019-05-21 14:43:26,2019-05-25 14:43:03,33.7372,-80.21315,33.73955,-80.20895,0.290858466001,At US-521/Exit 122 - Construction work. Left lane blocked.,,I-95 N,R,Alcolu,Clarendon,SC,29001,US,US/Eastern,KMNI,2019-05-21 14:35:00,88.0,88.0,40.0,29.83,10.0,SW,6.0,0.0,Fair,False,False,False,False,True,False,False,False,False,False,False,False,False,Day,Day,Day,Day
C-693871,3,2020-09-10 02:44:58,2020-09-10 06:01:00,37.532101,-121.93869,,,1.07000005245,Entry ramp to I-680 Northbound from Washington Blvd closed due to construction work.,,I-680 N,R,Fremont,Alameda,CA,94539,US,US/Pacific,KNUQ,2020-09-10 02:35:00,63.0,63.0,88.0,29.89,6.0,CALM,0.0,,Haze,False,False,False,False,False,False,False,False,False,False,False,False,False,Night,Night,Night,Night
C-693872,2,2021-09-15 21:14:00,2021-09-15 23:18:01,34.048792,-117.813252,34.0494,-117.811631,0.101864462916,Stationary traffic from Poly Vis to Kellogg Dr due to roadwork.,3641.0,W Temple Ave,R,Walnut,Los Angeles,CA,91789,US,US/Pacific,KPOC,2021-09-15 20:47:00,64.0,64.0,73.0,28.83,10.0,WSW,7.0,,Fair,False,False,False,False,False,False,False,False,False,False,False,False,False,Night,Night,Night,Night
C-693873,2,2016-07-22 09:07:20,2016-07-22 16:00:00,41.04046,-73.93659,41.04491,-73.94498,0.534503391619,At RT-303/Greenbush Rd - Construction work.,168.0,Route 340,R,Sparkill,Rockland,NY,10976-1070,US,US/Eastern,KHPN,2016-07-22 08:56:00,75.9,,71.0,29.94,10.0,Variable,6.9,,Clear,False,False,False,False,False,False,False,False,False,False,False,False,False,Day,Day,Day,Day
C-693874,2,2021-04-20 03:27:30,2021-04-20 14:51:37,27.996386,-82.537402,27.996473,-82.545479,0.4927973886039999,Stationary traffic on FL-580 from Anderson Rd (FL-580) to FL-589/Veterans Expy (FL-580) due to roadwork.,5525.0,W Hillsborough Ave,R,Tampa,Hillsborough,FL,33634-5213,US,US/Eastern,KTPA,2021-04-20 03:53:00,70.0,70.0,73.0,29.91,10.0,NNE,3.0,0.0,Mostly Cloudy,False,False,False,False,False,False,False,False,False,False,False,True,False,Night,Night,Night,Night
C-693875,2,2021-11-09 13:15:00,2021-11-09 15:16:25,28.803035,-81.889339,28.804074,-81.88755400000002,0.12974299998,Stationary traffic on FL-25 - US-27 N - FL-44 from Hood Ave / Flamingo Dr to Buena Vista Ave due to roadwork.,1439.0,South St,R,Leesburg,Lake,FL,34748,US,US/Eastern,KLEE,2021-11-09 12:53:00,80.0,80.0,45.0,30.12,10.0,NNE,9.0,0.0,Fair,False,False,False,False,False,False,False,False,False,False,False,False,False,Day,Day,Day,Day
C-693877,2,2021-12-18 11:47:30,2021-12-18 12:27:00,33.477624,-112.169026,33.480482,-112.16898799999998,0.197481135949,Stationary traffic from McDowell Rd (N 51st Ave) to Thomas Rd (N 51st Ave) due to roadwork.,2616.0,N 51st Ave,L,Phoenix,Maricopa,AZ,85035-2020,US,US/Mountain,KGEU,2021-12-18 11:58:00,62.0,62.0,15.0,28.99,10.0,N,12.0,0.0,Fair,False,False,True,False,False,False,False,False,False,False,False,True,False,Day,Day,Day,Day
C-693878,2,2019-02-19 22:00:00,2019-02-20 05:30:00,39.55423,-105.0923,39.55788,-105.09975,0.470219301497,At Kipling Pky - Construction work.,,CO-470 W,R,Littleton,Jefferson,CO,80128,US,US/Mountain,KAPA,2019-02-19 21:53:00,12.9,6.9,92.0,29.87,6.0,WSW,3.5,0.0,Partly Cloudy,False,False,False,False,True,False,False,False,False,False,False,False,False,Night,Night,Night,Night
C-693879,2,2020-02-25 21:01:00,2020-02-26 06:01:00,38.0118,-121.86782,38.00364,-121.83731,1.7540636073099998,Between Loveridge Rd and Somersville Rd - Construction work. Lane closed.,,CA-4 E,R,Pittsburg,Contra Costa,CA,94565,US,US/Pacific,KCCR,2020-02-25 20:53:00,58.0,58.0,47.0,30.19,10.0,SSE,5.0,0.0,Fair,False,False,False,False,False,False,False,False,False,False,False,False,False,Night,Night,Night,Night
C-693880,4,2020-05-13 18:16:39,2020-05-13 23:12:23,39.77496,-86.14216,39.78513,-86.13866,0.726841020008,Closed between Ohio St and I-65/I-70 North Interchange - Closed due to roadwork.,,I-70 E,R,Indianapolis,Marion,IN,46202,US,US/Eastern,KEYE,2020-05-13 17:53:00,59.0,59.0,55.0,29.28,10.0,SSE,12.0,0.0,Cloudy,False,False,False,False,True,False,False,False,False,False,False,False,False,Day,Day,Day,Day
C-693882,2,2021-04-14 11:39:38,2021-04-14 20:29:01,33.414059,-111.926278,33.414815000000004,-111.927081,0.0698082857956,Stationary traffic from E Spence Ave to S McAllister Ave due to roadwork.,1336.0,S Rural Rd,R,Tempe,Maricopa,AZ,85281-6802,US,US/Mountain,KPHX,2021-04-14 11:51:00,79.0,79.0,17.0,28.65,10.0,VAR,7.0,0.0,Fair,False,False,False,False,False,False,False,False,False,False,False,False,False,Day,Day,Day,Day
C-693883,2,2020-06-11 00:00:00,2020-06-11 23:59:00,42.74054,-78.600121,,,0.0,Left lane closed due to construction work on NY-400 Northbound at NY-16.,,Aurora Expy N,R,East Aurora,Erie,NY,14052,US,US/Eastern,KBUF,2020-06-11 00:14:00,68.0,68.0,90.0,28.98,4.0,SSW,21.0,0.18,Heavy Rain / Windy,False,False,False,False,False,False,False,False,False,False,False,False,False,Night,Night,Night,Night
C-693884,2,2020-08-15 03:00:00,2020-08-17 12:45:00,42.22062,-83.433138,42.22008,-83.484477,2.62719094454,Construction on I-94 WB near HAGGERTY RD Construction. Expect long delays.,,I-94 W,R,Belleville,Wayne,MI,48111,US,US/Eastern,KYIP,2020-08-15 02:53:00,68.0,68.0,81.0,29.21,10.0,N,5.0,0.0,Fair,False,False,False,False,False,False,False,False,False,False,False,False,False,Night,Night,Night,Night
C-693885,2,2018-04-28 08:03:21,2018-04-28 14:05:56,39.862216,-75.890086,39.862394,-75.889705,0.0236549250923,At Fagg Manor Rd - Roadwork. Lane blocked.,98.0,Greenfield Rd,L,Cochranville,Chester,PA,19330-9490,US,US/Eastern,KMQS,2018-04-28 07:55:00,48.2,,100.0,29.84,2.5,Calm,,0.01,Clear,False,False,False,False,False,False,False,False,False,False,False,False,False,Day,Day,Day,Day
C-693886,3,2019-02-28 20:00:00,2019-03-01 06:00:00,44.947691,-92.9588,44.94928,-92.95871,0.109877618305,At I-94/Exit 58 - Construction work.,,I-494 E,R,Saint Paul,Washington,MN,55125,US,US/Central,KSTP,2019-02-28 19:53:00,14.0,8.2,62.0,30.2,10.0,South,3.5,,Clear,False,False,False,False,True,False,False,False,False,False,False,False,False,Night,Night,Night,Night
C-693887,2,2021-09-17 08:42:30,2021-09-17 09:09:00,32.751249,-96.804645,32.751219,-96.808916,0.24819414374,Stationary traffic from TX-342/N Corinth St Rd (E 8th St) to I-35E/US-77/US-67/S R L Thornton Fwy (E 8th St) due to roadwork.,1356.0,E 8th St,R,Dallas,Dallas,TX,75203,US,US/Central,KRBD,2021-09-17 08:53:00,76.0,76.0,76.0,29.25,10.0,CALM,0.0,0.0,Fair,False,False,False,False,False,False,False,False,False,False,False,True,False,Day,Day,Day,Day
C-693888,2,2021-11-24 07:13:41,2021-11-25 08:00:59,38.219703,-75.697913,38.224347,-75.695471,0.347171633029,Construction on US-13 NB near UMES BLVD Expect delays.,,Ocean Hwy,R,Princess Anne,Somerset,MD,21853,US,US/Eastern,KSBY,2021-11-24 06:54:00,29.0,29.0,75.0,30.33,10.0,WNW,3.0,0.0,Fair,False,False,False,False,False,False,False,False,False,False,False,False,False,Day,Day,Day,Day
C-693889,2,2021-02-09 13:08:19,2021-02-10 06:46:31,36.01410100000001,-97.407524,36.057596,-97.40765,3.005226529,Roadwork on W CR-72/E0720 Rd (US-77) from Baty Ave (Main St/US-77) to US-77 S - US-77 N.,11148.0,N Highway 77,R,Mulhall,Logan,OK,73063,US,US/Central,KGOK,2021-02-09 12:53:00,19.0,9.0,88.0,29.1,5.0,N,8.0,0.0,Cloudy,False,False,False,False,False,False,False,False,False,False,False,False,False,Day,Day,Day,Day
C-693890,2,2020-11-07 04:00:00,2020-11-07 14:45:00,40.886639,-74.069191,40.865329,-74.017551,3.07348516572,Construction on I-80 EB near RIVER RD Construction. Left lane closed.,,Bergen Passaic Expy E,R,Lodi,Bergen,NJ,07644,US,US/Eastern,KTEB,2020-11-07 03:51:00,45.0,45.0,86.0,30.21,10.0,CALM,0.0,0.0,Shallow Fog,False,False,False,False,True,False,False,False,False,False,False,False,False,Night,Night,Night,Night
C-693891,4,2019-04-08 00:22:56,2019-04-08 05:22:54,28.37512000000001,-81.41251,28.3681,-81.37934,2.07405601406,Closed between SR-423/John Young Pkwy/Exit 10 and Florida's Tpke/Exit 12 - Closed due to roadwork.,,FL-417 N,R,Orlando,Orange,FL,32837,US,US/Eastern,KMCO,2019-04-08 00:53:00,72.0,72.0,87.0,30.01,10.0,ESE,9.0,0.0,Partly Cloudy,False,False,False,False,False,False,False,False,False,False,False,False,False,Night,Night,Night,Night
C-693892,2,2021-10-11 16:27:17,2021-10-11 16:46:51,35.501117,-94.147398,35.511046,-94.124442,1.4621132977000002,Stationary traffic on I-40 E from US-71/Exit 13 (I-40) to CR-63/Exit 20 (I-40) due to roadwork.,,I-40 E,R,Alma,Crawford,AR,72921,US,US/Central,KFSM,2021-10-11 16:53:00,79.0,79.0,35.0,29.3,10.0,W,17.0,0.0,Fair,False,False,False,False,False,False,False,False,False,False,False,False,False,Day,Day,Day,Day
C-693893,2,2021-04-02 06:31:00,2021-04-02 16:48:58,28.355842,-80.700087,28.357046,-80.70124200000002,0.1088678193569999,Slow traffic on FL-520 - FL-3 from Magnolia Ave to McLeod St due to roadwork.,108.0,S Courtenay Pkwy,L,Merritt Island,Brevard,FL,32952,US,US/Eastern,KCOF,2021-04-02 06:56:00,54.0,54.0,56.0,30.11,10.0,NW,18.0,0.0,Fair,False,False,True,False,False,False,False,False,False,True,False,True,False,Night,Night,Day,Day
C-693894,2,2021-07-26 19:00:00,2021-07-27 05:45:00,42.165196,-72.60008,42.169515,-72.580371,1.05251103579,Construction on I-90 EB near MM 46 Expect delays.,,I-90 E,R,Chicopee,Hampden,MA,01013,US,US/Eastern,KCEF,2021-07-26 18:56:00,83.0,83.0,45.0,29.59,10.0,NW,8.0,0.0,Fair,False,False,False,False,False,False,False,False,False,False,False,False,False,Day,Day,Day,Day
C-693895,2,2021-03-21 19:00:00,2021-03-26 06:45:00,43.638014,-70.33819,43.63212,-70.344352,0.510677333787,Beginning on March 21 there will be southbound right lane closures at mile 45 in South Portland from 7 PM to 6 AM for road construction. Speed limit reduced to 50 MPH.,68.0,Running Hill Rd,R,South Portland,Cumberland,ME,04106-3218,US,US/Eastern,KPWM,2021-03-21 18:51:00,49.0,47.0,35.0,30.4,10.0,S,6.0,0.0,Fair,False,False,False,False,False,False,False,False,False,False,False,False,False,Night,Day,Day,Day
C-693896,2,2018-03-14 12:34:10,2018-03-14 15:00:00,32.72867,-114.6178,32.73263,-114.62736,0.619366285658,Between California/Arizona State Line and I-8-BL/Winterhaven Dr - Roadwork. Right lane blocked.,,I-8 W,R,Winterhaven,Imperial,CA,92283,US,US/Mountain,KNYL,2018-03-14 12:57:00,79.0,,30.0,29.88,7.0,WSW,11.5,,Partly Cloudy,False,False,False,False,False,False,False,False,False,False,False,False,False,Day,Day,Day,Day
C-693897,2,2020-12-11 12:47:30,2020-12-12 01:34:42,26.681712,-80.244632,26.68182,-80.24851899999999,0.2400836733109999,Slow traffic on FL-80 - FL-700 - US-441 N - US-98 W from Royal Palm Beach Blvd (US-98) to Big Blue Trl/F Rd (US-98) due to roadwork.,11959.0,Southern Blvd,R,Royal Palm Beach,Palm Beach,FL,33411-7619,US,US/Eastern,KPBI,2020-12-11 12:53:00,74.0,74.0,55.0,30.1,10.0,ENE,7.0,0.0,Mostly Cloudy,False,False,False,False,False,False,False,False,False,False,False,False,False,Day,Day,Day,Day
C-693898,2,2021-07-22 20:28:23,2021-07-23 06:45:00,32.86588,-79.905835,32.852835,-79.885465,1.4866408185299995,Construction on I-526 EB near EXIT 24 Construction. Left lane closed.,,I-526 E,R,Charleston,Berkeley,SC,29492,US,US/Eastern,KLRO,2021-07-22 20:35:00,81.0,81.0,100.0,30.05,8.0,CALM,0.0,0.0,Fair,False,False,False,False,False,False,False,False,False,False,False,False,False,Night,Day,Day,Day
C-693899,2,2020-11-03 13:24:30,2020-11-03 17:42:30,25.789368,-80.239593,25.794291,-80.239246,0.340831212484,Stationary traffic on FL-9 from NW 27th St / NW 14th St to NW 26th Ave due to roadwork.,1579.0,NW 27th Ave,L,Miami,Miami-Dade,FL,33125-2135,US,US/Eastern,KMIA,2020-11-03 13:53:00,78.0,78.0,52.0,30.08,10.0,ENE,21.0,0.0,Mostly Cloudy / Windy,False,False,False,False,False,False,False,False,True,False,False,False,False,Day,Day,Day,Day
C-693900,2,2021-09-29 19:09:00,2021-09-29 21:42:51,37.307703,-76.75313299999998,37.307287,-76.75149300000002,0.0946008937232,Stationary traffic from New Point Rd to Westmoreland Dr due to roadwork.,4741.0,Longhill Rd,L,Williamsburg,James City,VA,23188-1530,US,US/Eastern,KJGG,2021-09-29 19:15:00,64.0,64.0,73.0,29.99,10.0,CALM,0.0,0.0,Fair,False,False,False,False,False,False,False,False,False,False,False,False,False,Night,Day,Day,Day
C-693901,2,2016-09-13 11:32:53,2016-09-13 15:00:00,34.03692,-118.63596,34.03692,-118.63596,0.0,At Tuna Canyon Rd - Construction work.,3999.0,Las Flores Canyon Rd,L,Malibu,Los Angeles,CA,90265-5236,US,US/Pacific,KSMO,2016-09-13 11:51:00,66.9,,70.0,29.99,10.0,WSW,11.5,,Mostly Cloudy,False,False,True,False,False,False,False,False,False,False,False,True,False,Day,Day,Day,Day
C-693902,2,2020-08-24 03:00:00,2020-08-28 12:45:00,42.501923,-71.11746,42.503489,-71.102675,0.760863002885,Construction on I-95 NB near I-93 Allow extra time.,,I-95 N,R,Reading,Middlesex,MA,01867,US,US/Eastern,KBVY,2020-08-24 02:53:00,66.0,66.0,93.0,29.88,10.0,SSW,3.0,0.0,Fair,False,False,False,False,True,False,False,False,False,False,False,False,False,Night,Night,Night,Night
C-693903,4,2018-06-28 23:00:00,2018-06-29 05:00:00,35.24698,-80.84680999999998,35.24588,-80.85054000000002,0.223774993186,Ramp closed to I-277/NC-16/Brookshire/Exit 11 - Closed. Construction work.,,I-77 S,R,Charlotte,Mecklenburg,NC,28206,US,US/Eastern,KCLT,2018-06-28 17:52:00,89.1,,55.0,29.87,10.0,NW,5.8,,Mostly Cloudy,False,False,False,False,True,False,False,False,False,False,False,False,False,Night,Night,Night,Night
C-693904,2,2021-02-12 05:41:30,2021-02-12 16:03:15,26.683501,-80.302786,26.683824,-80.31245200000002,0.5971470465300001,Slow traffic on FL-80 - FL-700 - US-441 N - US-98 W from Binks Forest Dr/B Rd (US-98) to CR-880 (US-98) due to roadwork.,16199.0,Southern Blvd,R,Loxahatchee,Palm Beach,FL,33470-9243,US,US/Eastern,KPBI,2021-02-12 05:53:00,68.0,68.0,93.0,29.97,10.0,CALM,0.0,0.0,Fair,False,False,False,False,False,False,False,False,False,False,False,False,False,Night,Night,Night,Day
C-693905,2,2021-08-19 15:49:00,2021-10-05 23:23:30,39.698712,-104.992743,39.696712,-104.993868,0.150574027405,Slow traffic on US-85 S from S Kalamath St to S Fox St due to roadwork.,800.0,S Platte River Dr,L,Denver,Denver,CO,80223,US,US/Mountain,KAPA,2021-08-26 11:53:00,79.0,79.0,36.0,24.31,10.0,NNW,12.0,0.0,Partly Cloudy,False,False,True,False,False,False,False,False,False,False,False,False,False,Day,Day,Day,Day
C-693906,2,2021-11-11 14:14:00,2021-11-11 16:27:15,33.422027,-111.921882,33.422024,-111.927154,0.304025072042,Stationary traffic from S McClintock Dr (E University Dr) to S Mill Ave (University Dr) due to roadwork.,1112.0,E University Dr,L,Tempe,Maricopa,AZ,85281-4219,US,US/Mountain,KPHX,2021-11-11 13:51:00,82.0,82.0,15.0,28.81,10.0,CALM,0.0,0.0,Fair,False,False,False,False,False,False,False,False,False,False,False,False,False,Day,Day,Day,Day
C-693907,2,2021-12-10 08:51:30,2021-12-10 10:58:51,27.298828000000004,-80.304643,27.298278000000003,-80.303268,0.0925813962343,Stationary traffic on US-1 S - FL-5 from SE Village Green Dr / Crosstown Pkwy to SE Main St due to roadwork.,9109.0,S US Highway 1,R,Port Saint Lucie,St. Lucie,FL,34952-3405,US,US/Eastern,KSUA,2021-12-10 08:47:00,75.0,75.0,89.0,30.15,5.0,CALM,0.0,0.0,Fair,False,False,False,False,False,False,False,False,True,False,False,False,False,Day,Day,Day,Day
C-693908,4,2019-09-27 00:04:27,2019-09-27 05:02:32,33.89564,-84.30462,33.89564,-84.30462,0.0,Closed at Chamblee Dunwoody Rd - Closed due to roadwork.,5396.0,Peachtree Blvd,L,Atlanta,DeKalb,GA,30341-2140,US,US/Eastern,KPDK,2019-09-27 00:53:00,74.0,74.0,73.0,28.89,10.0,NNE,3.0,0.0,Fair,False,False,True,False,False,False,False,False,False,False,False,True,False,Night,Night,Night,Night
C-693909,2,2018-05-05 11:41:16,2018-05-05 17:44:54,39.732382,-75.818065,39.733859,-75.82288199999998,0.2755454275869999,At PA-841/Chesterville Rd - Roadwork. Traffic problem.,279.0,Stricklersville Rd,L,Landenberg,Chester,PA,19350-1209,US,US/Eastern,KILG,2018-05-05 11:51:00,71.1,,35.0,30.14,10.0,NNW,4.6,,Clear,False,False,False,False,False,False,False,False,False,False,False,False,False,Day,Day,Day,Day
C-693910,2,2019-03-15 07:04:37,2019-03-19 07:04:29,34.086121,-118.09958,34.081384,-118.09957,0.327296028662,At Hovey Ave - Construction work.,1153.0,S Del Mar Ave,R,San Gabriel,Los Angeles,CA,91776-3034,US,US/Pacific,KEMT,2019-03-15 07:45:00,44.6,,66.0,30.14,10.0,Calm,,,Clear,False,False,False,False,False,False,False,False,False,False,False,False,False,Day,Day,Day,Day
C-693912,2,2020-09-16 12:20:30,2020-09-16 22:07:21,27.996685,-82.582882,27.997228000000003,-82.582298,0.0517393959348,Stationary traffic on FL-580 - County Hwy-589 from S Lagoon St to Jackson Springs Rd due to roadwork.,8758.0,W Hillsborough Ave,L,Tampa,Hillsborough,FL,33615-3705,US,US/Eastern,KTPA,2020-09-16 11:53:00,88.0,88.0,61.0,29.92,10.0,S,13.0,0.0,Partly Cloudy,False,False,False,False,False,False,False,False,False,False,False,False,False,Day,Day,Day,Day
C-693913,2,2021-10-06 15:10:00,2021-10-06 15:36:02,42.490807,-83.535562,42.494646,-83.535895,0.265791633997,Stationary traffic from W 10 Mile Rd (Wixom Rd) to I-96 (Wixom Rd) due to roadwork.,49401.0,Harrier Pl,R,Novi,Oakland,MI,48374-4206,US,US/Eastern,KPTK,2021-10-06 14:53:00,65.0,65.0,81.0,29.22,6.0,ESE,6.0,0.0,Haze,False,False,False,False,False,False,False,False,False,False,False,False,False,Day,Day,Day,Day
C-693914,4,2019-01-04 11:03:06,2019-01-04 16:01:33,37.590571,-108.345694,37.94573,-107.877773,35.4304854986,Closed between Road 38 and Ridgway - Closed. Rescue and recovery work in progress.,25461.0,Highway 145,R,Dolores,Montezuma,CO,81323-9729,US,US/Mountain,KCEZ,2019-01-04 10:53:00,18.0,,74.0,30.51,10.0,Calm,,,Clear,False,False,False,False,False,False,False,False,False,False,False,False,False,Day,Day,Day,Day
C-693915,2,2021-09-16 08:47:30,2021-09-16 10:56:10,28.803034000000004,-81.895162,28.802526,-81.887693,0.453573778564,Slow traffic on US-27 S - FL-25 - FL-44 from Florida Ave to W Dixie Ave due to roadwork.,1921.0,South St,L,Leesburg,Lake,FL,34748-6505,US,US/Eastern,KLEE,2021-09-16 08:53:00,79.0,79.0,90.0,29.89,10.0,SE,3.0,0.0,Fair,False,False,False,False,False,False,False,False,False,False,False,False,False,Day,Day,Day,Day
C-693916,2,2021-06-23 05:14:00,2021-06-23 05:39:30,40.85009,-73.944379,40.854055,-73.962714,0.99662216624,Slow traffic on I-95 S - US-1 S - US-9 S from Maj Deegan Expwy (I-87) exit [1D-C-B] to exit [74] due to roadwork.,,George Washington Brg,R,New York,New York,NY,10033,US,US/Eastern,KNYC,2021-06-23 04:51:00,56.0,56.0,72.0,29.96,10.0,VAR,3.0,0.0,Fair,False,False,False,False,False,False,False,False,False,False,False,False,False,Night,Day,Day,Day
C-693917,2,2021-07-25 11:20:30,2021-07-25 13:08:00,41.312805,-105.61463700000002,41.298433,-105.598295,1.30595158791,Stationary traffic on I-80 E from W Curtis St/Exit 310 (I-80) to US-287/S 3rd St/Exit 313 (I-80) due to roadwork.,,I-80 E,R,Laramie,Albany,WY,82070,US,US/Mountain,KLAR,2021-07-25 10:53:00,76.0,76.0,29.0,23.14,7.0,VAR,3.0,0.0,Fair,False,False,False,False,False,False,False,False,False,False,False,False,False,Day,Day,Day,Day
C-693918,2,2020-12-03 14:24:00,2020-12-04 04:33:29,25.950008,-80.14885,25.947442,-80.14805600000003,0.184028424143,Stationary traffic on FL-860 from NE 189th St to Biscayne Blvd due to roadwork.,18872.0,W Dixie Hwy,L,Miami,Miami-Dade,FL,33180-2634,US,US/Eastern,KHWO,2020-12-03 14:53:00,74.0,74.0,55.0,30.15,10.0,E,12.0,0.0,Partly Cloudy,False,False,False,False,False,False,False,False,True,False,False,False,False,Day,Day,Day,Day
C-693919,2,2021-09-25 15:33:00,2021-09-25 15:55:30,33.494256,-112.242316,33.494285,-112.237077,0.301876971399,Stationary traffic from N 91st Ave (W Indian School Rd) to N 75th Ave (W Indian School Rd) due to roadwork.,4028.0,N 85th Ave,L,Phoenix,Maricopa,AZ,85037-2406,US,US/Mountain,KGEU,2021-09-25 15:58:00,94.0,94.0,24.0,28.73,10.0,CALM,0.0,0.0,Fair,True,False,False,False,False,False,False,False,True,True,False,False,False,Day,Day,Day,Day
C-693920,2,2021-09-09 12:07:00,2021-09-09 12:27:30,39.445061,-83.81495600000002,39.448571,-83.806007,0.535533240058,Slow traffic on US-22 E - US-22 W - OH-3 from US-68/OH-134/South St (OH-3/Main St/Locust St/OH-73) to Progress Way (Rombach Ave/OH-73) due to roadwork.,804.0,Fife Ave,L,Wilmington,Clinton,OH,45177-2428,US,US/Eastern,KILN,2021-09-09 11:54:00,71.0,71.0,53.0,28.84,10.0,N,10.0,0.0,Fair,False,False,False,False,False,False,False,False,False,False,False,True,False,Day,Day,Day,Day
C-693921,3,2021-12-30 09:00:00,2021-12-30 15:00:00,37.657505,-77.605141,,,2.26999998093,Left lane closed due to construction work on I-295 Northbound between Exits 51A 51B / Nuckols Rd and I-295 Exits 53A 53B /I-64.,11600.0,Coachmans Carriage Pl,L,Glen Allen,Henrico,VA,23059-8511,US,US/Eastern,KOFP,2021-12-30 08:54:00,52.0,52.0,93.0,29.73,7.0,N,3.0,0.0,Cloudy,False,False,False,False,False,False,False,False,False,False,False,False,False,Day,Day,Day,Day
C-693922,2,2019-09-30 21:05:13,2019-10-07 21:02:33,33.993140000000004,-84.59724,33.982040000000005,-84.60873000000002,1.01068903686,At Stilesboro Rd - Roadwork. Lane blocked.,,Old 41 Hwy NW,R,Kennesaw,Cobb,GA,30152,US,US/Eastern,KRYY,2019-09-30 20:50:00,79.0,79.0,72.0,29.0,10.0,CALM,0.0,0.0,Fair,False,False,True,False,False,False,False,False,False,False,False,True,False,Night,Night,Night,Night
C-693923,2,2021-02-16 05:41:49,2021-02-16 19:08:41,30.131925,-97.021775,30.137953000000003,-97.046254,1.52088574397,Roadwork on Private Road 6003 from County Road 205 to FM-2239.,2276.0,FM 2239,R,Giddings,Lee,TX,78942,US,US/Central,KGYB,2021-02-16 05:35:00,,,,29.72,,NNE,5.0,0.0,,False,False,False,False,False,False,False,False,False,False,False,False,False,Night,Night,Night,Night
C-693924,2,2020-09-28 12:17:00,2020-09-29 03:01:22,41.868911,-88.280273,41.87314,-88.278673,0.303570783697,Stationary traffic from Cleanwater Dr to Old Kirk Rd due to resurfacing work.,1369.0,E Fabyan Pkwy,L,Geneva,Kane,IL,60134,US,US/Central,KDPA,2020-09-28 12:17:00,57.0,57.0,81.0,28.95,10.0,SW,9.0,0.0,Cloudy,False,False,False,False,False,False,False,False,False,False,False,False,False,Day,Day,Day,Day
C-693925,2,2021-08-31 07:00:00,2021-08-31 19:45:00,39.74868,-75.614685,39.748645,-75.614501,0.0100693223479,Construction on FAULKLAND RD near CENTERVILLE RD Expect delays.,901.0,Wagoner Dr,L,Wilmington,New Castle,DE,19805,US,US/Eastern,KILG,2021-08-31 06:51:00,72.0,72.0,93.0,29.75,6.0,WNW,5.0,0.0,Fair,False,False,True,False,False,False,False,False,False,False,False,True,False,Day,Day,Day,Day
C-693926,3,2020-01-13 09:58:38,2020-01-13 18:43:31,40.785343,-73.444313,,,6.170000076290001,Right and center lane closed due to paving repairs on I-495 Westbound between Exit 50 Bagatelle Rd and Exit 48 Round Swamp Rd.,390.0,Round Swamp Rd,R,Melville,Suffolk,NY,11747,US,US/Eastern,KFRG,2020-01-13 09:53:00,45.0,41.0,74.0,30.27,10.0,ESE,8.0,0.0,Cloudy,False,False,True,False,False,False,False,False,False,False,False,False,False,Day,Day,Day,Day
C-693927,2,2021-09-14 16:51:00,2021-09-14 19:13:08,28.811369,-81.357848,28.812612,-81.363043,0.3260209858989999,Slow traffic on FL-46 from N Henderson Ln to Westlake Ln due to roadwork.,5500.0,W State Road 46,L,Sanford,Seminole,FL,32771-9238,US,US/Eastern,KSFB,2021-09-14 16:53:00,80.0,80.0,79.0,29.91,10.0,N,5.0,0.0,Fair,False,False,False,False,False,False,False,False,False,False,False,False,False,Day,Day,Day,Day
C-693928,2,2020-06-15 14:00:00,2020-10-29 20:45:00,40.553721,-91.495102,40.560149,-91.50619,0.732151284123,Construction on US-218 WB near US-61 Drive with caution.,2798.0,Highway 218,R,Montrose,Lee,IA,52639-9595,US,US/Central,KEOK,2020-06-15 13:55:00,79.0,79.0,42.0,29.55,10.0,ESE,12.0,0.0,Fair,False,False,False,False,False,False,False,False,False,False,False,False,False,Day,Day,Day,Day
C-693930,3,2020-02-16 20:30:00,2020-02-17 07:00:00,30.44745300000001,-91.244469,,,117.370002747,Intermittent lane closures due to bridge maintenance work on I-10 both ways between Exit 115 LA-347 Grandpoint Hwy and Exit 151 LA-415.,,I-10 W,R,Port Allen,West Baton Rouge,LA,70767,US,US/Central,KBTR,2020-02-16 20:53:00,59.0,59.0,90.0,29.96,10.0,ENE,5.0,0.0,Cloudy,False,False,False,False,False,False,False,False,False,False,False,False,False,Night,Night,Night,Night
C-693931,3,2020-01-16 10:00:00,2020-01-16 15:00:00,40.621326,-74.174614,,,0.0,One lane closed due to construction work on I-278 Eastbound at Exit 5 NY-440 Pearl Harbor Memorial Expy.,,W Shore Expy S,R,Staten Island,Richmond,NY,10303,US,US/Eastern,KEWR,2020-01-16 09:51:00,47.0,39.0,56.0,29.89,10.0,WNW,21.0,0.01,Mostly Cloudy / Windy,False,False,False,False,False,False,False,False,False,False,False,False,False,Day,Day,Day,Day
C-693932,3,2020-09-04 01:13:07,2020-09-04 05:00:00,47.238449,-122.414886,,,0.6399999856949999,Exit ramp from I-5 Northbound to E 28th St Eastbound closed due to construction during the night.,,I-5 N,R,Tacoma,Pierce,WA,98404,US,US/Pacific,KTCM,2020-09-04 00:58:00,56.0,56.0,83.0,29.66,10.0,CALM,0.0,0.0,Fair,False,False,False,False,False,False,False,False,False,False,False,False,False,Night,Night,Night,Night
C-693933,2,2020-10-10 21:31:57,2020-10-11 02:13:47,40.755944,-73.99073299999998,40.752212,-73.981824,0.532840704058,Slow traffic from 8th Ave to 5th Ave / E 40th St due to resurfacing work.,300.0,W 40th St,L,New York,New York,NY,10018-1404,US,US/Eastern,KNYC,2020-10-10 21:51:00,68.0,68.0,73.0,29.81,10.0,VAR,5.0,0.0,Fair,True,False,True,False,False,False,True,False,True,False,False,True,False,Night,Night,Night,Night
C-693935,4,2020-04-25 06:00:00,2020-04-25 20:00:00,39.289,-76.62801999999998,39.28919000000001,-76.62368000000002,0.232455066878,Closed between Carey St and Eutaw St - Closed due to roadwork.,,W Baltimore St,R,Baltimore,Baltimore City,MD,21201,US,US/Eastern,KDMH,2020-04-25 05:54:00,48.0,,86.0,29.97,,,,0.0,,False,False,False,False,False,False,False,False,True,False,False,True,False,Night,Day,Day,Day
C-693936,2,2021-07-24 09:56:15,2021-07-24 10:09:15,40.6037,-74.06859399999998,40.602358,-74.05757,0.585686370973,Slow traffic on Staten Island Expy E - I-278 E from Hylan Blvd/Exit 14 (I-278) to Verrazano-Narrows Bridge (Lower/Upper Level Split) (I-278) due to roadwork.,,I-278 E,R,Staten Island,Richmond,NY,10305,US,US/Eastern,KEWR,2021-07-24 09:51:00,79.0,79.0,52.0,30.09,10.0,CALM,0.0,0.0,Fair,False,False,False,False,False,False,False,False,False,False,False,False,False,Day,Day,Day,Day
C-693937,2,2020-01-24 10:00:00,2020-01-24 16:00:00,40.80849,-73.90483,40.80849,-73.90483,0.0,At E 138th St/Bruckner Blvd Frontage - Construction work.,,Bruckner Blvd,R,Bronx,Bronx,NY,10454,US,US/Eastern,KLGA,2020-01-24 09:51:00,39.0,34.0,70.0,30.38,10.0,ENE,7.0,0.0,Partly Cloudy,False,False,False,False,False,False,False,False,False,True,False,False,False,Day,Day,Day,Day
C-693938,2,2021-06-24 13:26:01,2021-06-24 15:28:58,42.476401,-83.079892,42.476646,-83.084532,0.2370601853929999,Slow traffic from Westbrook St to Kenney Ave due to roadwork.,25001.0,Westbrook St,R,Warren,Macomb,MI,48091,US,US/Eastern,KDET,2021-06-24 13:53:00,82.0,82.0,44.0,29.38,10.0,SSW,13.0,0.0,Fair,False,False,False,False,False,False,False,False,True,False,False,False,False,Day,Day,Day,Day
C-693939,2,2019-01-30 21:01:16,2019-02-03 21:01:06,34.07173,-117.87543,34.06355,-117.8189,3.2845091085000004,Between Grand Ave/Exit 38A and CA-57/CA-71/Corona/Orange/Exit 42 - Construction work.,,I-10 E,R,West Covina,Los Angeles,CA,91791,US,US/Pacific,KPOC,2019-01-30 20:47:00,51.8,,100.0,29.96,4.0,SE,3.5,,Mostly Cloudy,False,False,False,False,False,False,False,False,False,False,False,False,False,Night,Night,Night,Night
C-693940,2,2017-09-01 09:00:00,2017-09-01 12:00:00,43.047195,-88.248817,,,20.0100002289,One lane closed due to construction work on WI-16 Eastbound between Exit 178 County Hwy-P and I-94.,,I-94 E,R,Waukesha,Waukesha,WI,53188,US,US/Central,KUES,2017-09-01 08:45:00,57.2,,67.0,30.25,10.0,East,9.2,,Scattered Clouds,False,False,False,False,True,False,False,False,False,False,False,False,False,Day,Day,Day,Day
C-693941,2,2020-08-21 16:58:00,2020-08-22 17:43:06,26.653004,-81.854345,26.652816,-81.854686,0.0247414254165999,Construction on PALM BEACH BLVD near ISABELLE ST Construction. Right lane closed.,2917.0,Palm Beach Blvd,L,Fort Myers,Lee,FL,33916-1504,US,US/Eastern,KFMY,2020-08-21 16:53:00,89.0,89.0,65.0,29.89,10.0,SW,8.0,0.0,Thunder in the Vicinity,False,False,False,False,False,False,False,False,False,False,False,False,False,Day,Day,Day,Day
C-693942,2,2020-09-25 13:56:00,2020-09-25 15:02:00,37.678873,-88.860314,37.687307,-88.8558,0.6328534070440001,Stationary traffic on IL-166 from Lake of Egypt Rd (IL-166) to IL-13 (IL-166) due to roadwork.,9301.0,Route 166,L,Marion,Williamson,IL,62959,US,US/Central,KMWA,2020-09-25 13:45:00,68.0,68.0,83.0,29.5,10.0,ESE,6.0,0.0,Cloudy,False,False,False,False,False,False,False,False,False,False,False,False,False,Day,Day,Day,Day
C-693943,2,2021-11-15 15:47:00,2021-11-15 17:50:02,33.527442,-112.07371100000002,33.523804,-112.074526,0.255707732777,Stationary traffic from E Rose Ln to N 2nd Ave due to roadwork.,6201.0,N Central Ave,R,Phoenix,Maricopa,AZ,85012-1107,US,US/Mountain,KPHX,2021-11-15 15:51:00,86.0,86.0,12.0,28.82,10.0,CALM,0.0,0.0,Fair,True,False,True,False,False,False,False,False,True,True,False,False,False,Day,Day,Day,Day
C-693944,2,2021-12-18 12:02:38,2021-12-18 14:41:30,26.650819,-80.199789,26.649796,-80.203634,0.247737540831,Slow traffic on FL-7 - FL-882 - US-441 S from Via Buena Vida / Olympia Blvd to Wellington Green Mall due to roadwork.,9523.0,Forest Hill Blvd,L,West Palm Beach,Palm Beach,FL,33411,US,US/Eastern,KPBI,2021-12-18 11:53:00,81.0,81.0,72.0,30.11,10.0,ESE,17.0,0.0,Mostly Cloudy,False,False,False,False,False,False,False,False,False,False,False,False,False,Day,Day,Day,Day
C-693945,2,2021-02-10 13:44:00,2021-02-11 03:10:12,29.849858,-95.226447,29.849453000000004,-95.223413,0.183959572311,Roadwork from Houston Dyersdale Dr (Tidwell Rd) to C E King Pkwy (Tidwell Rd).,11285.0,Tidwell Rd,L,Houston,Harris,TX,77044,US,US/Central,KIAH,2021-02-10 13:53:00,59.0,59.0,93.0,29.87,0.25,NW,7.0,0.0,Fog,False,False,False,False,False,False,False,False,False,True,False,False,False,Day,Day,Day,Day
C-693946,2,2021-09-24 12:23:30,2021-09-24 14:32:20,39.89039,-82.93014699999998,39.888776,-82.930778,0.116426038002,Stationary traffic from Whimswillow Dr to Strack Rd due to roadwork.,3756.0,Alum Creek Dr,L,Columbus,Franklin,OH,43207-3427,US,US/Eastern,KLCK,2021-09-24 11:55:00,69.0,69.0,42.0,29.3,10.0,WSW,13.0,0.0,Fair,False,False,True,False,False,False,False,False,False,False,False,False,False,Day,Day,Day,Day
C-693947,2,2021-12-17 18:30:00,2021-12-17 20:58:09,33.523972,-112.136219,33.524573,-112.134264,0.120020159759,Slow traffic from N 36th Dr to W Rovey Ave due to roadwork.,3604.0,W Bethany Home Rd,R,Phoenix,Maricopa,AZ,85019-1942,US,US/Mountain,KGEU,2021-12-17 18:58:00,53.0,53.0,46.0,28.89,10.0,SW,5.0,0.0,Fair,False,False,False,False,False,False,False,False,False,True,False,False,False,Night,Night,Night,Day
C-693948,2,2021-09-30 13:33:30,2021-09-30 15:37:05,30.248414,-81.74206,30.247532,-81.743128,0.0881883838117,Slow traffic on FL-21 - FL-134 from Timuquana Rd / Wesconnett Blvd to 105th St due to roadwork.,6150.0,103rd St,L,Jacksonville,Duval,FL,32210-7865,US,US/Eastern,KNIP,2021-09-30 13:53:00,84.0,84.0,56.0,30.06,10.0,N,3.0,0.0,Mostly Cloudy,False,False,True,False,False,False,False,False,False,False,False,False,False,Day,Day,Day,Day
C-693949,2,2019-03-07 05:39:09,2019-03-12 23:59:00,41.487171,-81.589478,,,0.0,Restrictions due to maintenance work on Larchmere Blvd both ways between 128th St and Moreland Blvd.,2601.0,Kemper Rd,L,Cleveland,Cuyahoga,OH,44120-1533,US,US/Eastern,KBKL,2019-03-07 05:32:00,24.1,10.6,81.0,30.22,8.0,WNW,17.3,0.0,Overcast,False,False,False,False,False,False,False,False,False,False,False,True,False,Night,Night,Night,Day
C-693950,2,2021-11-24 16:58:00,2021-11-24 19:30:59,34.297894,-118.441008,34.299868,-118.439706,0.155323161519,Stationary traffic from Herrick Ave to Aztec St due to roadwork.,14143.0,Hubbard St,R,Sylmar,Los Angeles,CA,91342-4713,US,US/Pacific,KWHP,2021-11-24 16:55:00,68.0,68.0,8.0,29.06,10.0,NNW,12.0,,Fair,False,False,False,False,False,False,False,False,False,False,False,False,False,Night,Day,Day,Day
C-693951,2,2021-10-26 13:04:00,2021-10-26 13:35:31,25.840949,-80.304834,25.843074,-80.307731,0.232400821206,Slow traffic on FL-25 - US-27 N from FL-934/74th St Expy/21st St (US-27) to 29th St (US-27) due to roadwork.,2133.0,W Okeechobee Rd,R,Hialeah,Miami-Dade,FL,33010-1931,US,US/Eastern,KMIA,2021-10-26 12:53:00,81.0,81.0,88.0,29.91,9.0,W,9.0,0.01,Light Rain,False,False,False,False,False,False,False,False,False,False,False,False,False,Day,Day,Day,Day
C-693953,2,2019-10-01 00:01:27,2019-10-05 00:01:20,41.99913,-71.2108,42.004463,-71.22053299999997,0.620898231264,At I-495 - Construction work. Lane blocked.,,S Main St,R,Mansfield,Bristol,MA,02048,US,US/Eastern,KOWD,2019-10-01 00:53:00,57.0,57.0,69.0,30.16,10.0,SSE,3.0,0.0,Cloudy,False,False,False,False,False,False,False,False,False,False,False,False,False,Night,Night,Night,Night
C-693954,2,2021-02-15 06:57:30,2021-02-15 09:26:30,33.408839,-112.073445,33.406695,-112.073411,0.148149271007,Stationary traffic from I-17/US-60/Maricopa Fwy (S Central Ave) to Broadway Rd (S Central Ave) due to roadwork.,2.0,W Riverside St,R,Phoenix,Maricopa,AZ,85041-1520,US,US/Mountain,KPHX,2021-02-15 06:51:00,44.0,42.0,47.0,28.76,10.0,E,5.0,0.0,Fair,False,False,True,False,False,False,False,False,False,True,False,True,False,Night,Day,Day,Day
C-693955,2,2020-09-22 07:00:00,2020-09-28 20:10:08,42.984057,-82.851387,42.98745200000001,-82.877027,1.31699227988,Construction on I-69 WB near BURT RD Expect delays.,,I-69 W,R,Memphis,St. Clair,MI,48041,US,US/Eastern,KPHN,2020-09-22 06:55:00,37.0,37.0,93.0,29.57,10.0,CALM,0.0,0.0,Fair,False,False,False,False,False,False,False,False,False,False,False,False,False,Night,Day,Day,Day
C-693956,2,2021-07-20 14:25:30,2021-07-20 16:27:06,39.921138,-75.19386800000002,39.921578,-75.190797,0.165546261151,Stationary traffic from Essington Ave (Passyunk Ave) to I-76/Schuylkill Expy/S 26th St (W Passyunk Ave) due to roadwork.,2561.0,S 28th St,L,Philadelphia,Philadelphia,PA,19145-4013,US,US/Eastern,KPHL,2021-07-20 14:54:00,87.0,87.0,49.0,29.9,7.0,WNW,5.0,0.0,Partly Cloudy,False,False,False,False,False,False,False,False,False,False,False,True,False,Day,Day,Day,Day
C-693957,1,2021-09-21 05:31:25,2021-09-24 00:01:00,41.81868,-87.650673,,,0.850000023842,Road closed due to construction work on Exchange Ave both ways between Halsted St and Morgan St.,4198.0,S Morgan St,R,Chicago,Cook,IL,60609-2515,US,US/Central,KMDW,2021-09-21 05:53:00,68.0,68.0,84.0,29.27,10.0,SW,14.0,0.0,Cloudy,False,False,False,False,False,False,False,False,False,False,False,False,False,Night,Night,Night,Day
C-693958,2,2021-03-01 06:14:30,2021-03-01 17:52:58,33.539238,-112.07376200000002,33.538315999999995,-112.073101,0.0742113357273,Stationary traffic from E Cactus Wren Dr to N 2nd St due to roadwork.,6991.0,N Central Ave,L,Phoenix,Maricopa,AZ,85020,US,US/Mountain,KSDL,2021-03-01 05:53:00,41.0,41.0,21.0,28.59,10.0,SSE,3.0,0.0,Fair,False,False,False,False,False,False,False,False,False,False,False,False,False,Night,Night,Day,Day
C-693959,2,2021-04-24 21:52:30,2021-04-26 11:47:08,35.489486,-95.06559,35.49160399999999,-95.015319,2.8318614621,Roadwork on OK-10/Exit 291 (I-40) from OK-82/Exit 297 (I-40) to I-40 E.,,I-40 E,R,Vian,Sequoyah,OK,74962,US,US/Central,KJSV,2021-04-24 21:55:00,54.0,54.0,94.0,29.45,10.0,CALM,0.0,0.0,Fair,False,False,False,False,False,False,False,False,False,False,False,False,False,Night,Night,Night,Night
C-693960,2,2021-01-31 14:48:00,2021-01-31 17:28:00,38.168298,-120.043237,38.180371,-120.017782,1.61477531282,Slow traffic on CA-108 from Forest Route 3N30 (Sonora Pass Hwy/CA-108) to Pinecrest Lake Rd (Sonora Pass Hwy/CA-108) due to roadwork.,30222.0,State Highway 108,L,Long Barn,Tuolumne,CA,95335-9602,US,US/Pacific,KO22,2021-01-31 17:55:00,52.0,52.0,62.0,27.87,10.0,CALM,0.0,0.0,Fair,False,False,False,False,False,False,False,False,False,False,False,False,False,Day,Day,Day,Day
C-693961,2,2021-10-27 11:59:00,2021-10-27 12:19:30,47.331901,-106.290482,47.33737100000001,-106.332062,1.98335370624,Stationary traffic on MT-200 from MT-24/South Flowing Wells Rd (MT-200) to MT-59/MT-22 (MT-200) due to roadwork.,,Highway 200 E,R,Cohagen,Garfield,MT,59322,US,US/Mountain,KJDN,2021-10-27 11:48:00,61.0,61.0,30.0,27.0,,WSW,15.0,0.0,,False,False,False,False,False,False,False,False,False,False,False,False,False,Day,Day,Day,Day
C-693962,2,2021-12-22 12:48:24,2021-12-22 14:54:25,26.544041,-81.886985,26.546108,-81.887148,0.143171028806,Slow traffic on County Hwy-869 - County Hwy-876 from Reflections Pkwy to Buccaneer Dr due to roadwork.,13701.0,Summerlin Rd,L,Fort Myers,Lee,FL,33907,US,US/Eastern,KFMY,2021-12-22 12:53:00,69.0,69.0,57.0,29.93,10.0,N,9.0,0.0,Partly Cloudy,False,False,True,False,False,False,False,False,False,False,False,True,False,Day,Day,Day,Day
C-693963,2,2021-10-22 09:06:00,2021-10-22 09:26:30,29.716004,-95.427652,29.718731,-95.42768,0.188425246285,Stationary traffic from W Holcombe Blvd (Buffalo Speedway) to Bissonnet St (Buffalo Speedway) due to roadwork.,,Amherst St,R,Houston,Harris,TX,77005,US,US/Central,KMCJ,2021-10-22 08:53:00,75.0,75.0,84.0,30.03,5.0,NNW,3.0,0.0,Partly Cloudy,False,False,False,False,False,False,False,False,False,True,False,False,False,Day,Day,Day,Day
C-693964,3,2020-03-30 09:03:08,2020-04-08 09:00:49,26.326190000000004,-80.2029,26.26735,-80.20179,4.06603818684,Between Marina Blvd/19th St and Royal Palm Blvd/Copans Rd - Construction work. Lane blocked.,5701.0,Loxahatchee Rd,L,Pompano Beach,Broward,FL,33067,US,US/Eastern,KFXE,2020-04-03 18:53:00,76.0,76.0,56.0,29.93,10.0,ESE,8.0,0.0,Fair,False,False,True,False,False,False,False,False,False,False,False,True,False,Day,Day,Day,Day
C-693965,4,2021-04-12 23:00:00,2021-04-13 05:00:00,33.895751000000004,-118.050638,33.890971,-118.042108,0.5902643730380001,Santa Ana Fwy S - I-5 S is closed from Rosecrans Ave (I-5) to Carmenita Rd (I-5) due to roadwork.,,I-5 S,R,Santa Fe Springs,Los Angeles,CA,90670,US,US/Pacific,KFUL,2021-04-12 22:53:00,61.0,61.0,78.0,29.77,9.0,CALM,0.0,0.0,Cloudy,False,False,False,False,False,False,False,False,False,False,False,False,False,Night,Night,Night,Night
C-693966,2,2021-09-23 13:43:30,2021-09-23 15:50:41,40.81274000000001,-73.937627,40.814751,-73.940298,0.197014940089,Slow traffic from E 135th St / 5th Ave to W 136th St due to roadwork.,,E 135th St,R,New York,New York,NY,10037,US,US/Eastern,KNYC,2021-09-23 13:51:00,79.0,,72.0,29.82,10.0,,,0.0,Cloudy,False,False,True,False,False,False,True,False,True,False,False,True,False,Day,Day,Day,Day
C-693967,3,2019-11-03 19:01:33,2019-11-07 19:01:12,30.39243,-88.86019,30.38807000000001,-89.00124,8.41197072145,Between Myrtle St and Debuys Rd - Construction work.,,Beach Blvd,R,Biloxi,Harrison,MS,39530,US,US/Central,KBIX,2019-11-03 18:56:00,54.0,54.0,75.0,30.13,10.0,CALM,0.0,0.0,Fair,False,False,False,False,False,False,False,False,False,False,False,True,False,Night,Night,Night,Night
C-693968,2,2021-05-24 04:38:30,2021-05-24 19:55:05,41.852379,-87.66466700000002,41.851513,-87.666078,0.0940936059902,Slow traffic from S Laflin St to I-55 S due to roadwork.,1555.0,W Cermak Rd,L,Chicago,Cook,IL,60608,US,US/Central,KMDW,2021-05-24 04:53:00,59.0,59.0,87.0,29.48,10.0,NE,5.0,0.0,Mostly Cloudy,False,False,False,False,False,False,False,False,False,False,False,False,False,Night,Night,Day,Day
C-693969,3,2019-03-21 04:29:45,2019-08-30 17:00:00,41.231567,-95.91098,,,7.909999847410001,Construction on I-80 both ways from Exits 452 453 US-75 Kennedy Fwy to Iowa State Line.,,I-80 E,R,Council Bluffs,Pottawattamie,IA,51501,US,US/Central,KOMA,2019-03-21 04:52:00,35.1,27.9,82.0,30.22,10.0,NNW,9.2,,Mostly Cloudy,False,False,False,False,False,False,False,False,False,False,False,False,False,Night,Night,Night,Night
C-693970,2,2021-10-06 22:09:30,2021-10-06 22:22:30,33.459709000000004,-112.510417,33.446549,-112.551147,2.5178832459,Slow traffic on I-10 W - Pearl Harbor Memorial Hwy - Papago Fwy W from Verrado Way/Exit 120 (I-10) to S Watson Rd/Exit 117 (I-10) due to roadwork.,,I-10 W,R,Buckeye,Maricopa,AZ,85326,US,US/Mountain,KBXK,2021-10-06 22:15:00,79.0,79.0,34.0,28.81,10.0,CALM,0.0,0.0,,False,False,False,False,True,False,False,False,False,False,False,False,False,Night,Night,Night,Night
C-693971,2,2020-10-06 04:35:00,2020-10-06 12:43:00,47.063319,-122.765278,47.063799,-122.759711,0.264104326248,Road work on I-5 northbound at milepost 111.94 near Marvin Rd NE (SR 510) beginning at 9:35 pm on October 5 2020 until about 5:00 am on October 6 2020.,,I-5 N,R,Olympia,Thurston,WA,98516,US,US/Pacific,KGRF,2020-10-06 04:30:00,50.0,50.0,100.0,29.83,10.0,CALM,0.0,0.0,Fair,False,False,False,False,False,False,False,False,False,False,False,False,False,Night,Night,Night,Night
C-693972,2,2021-12-14 15:53:24,2021-12-14 18:00:20,40.937314,-73.88651899999998,40.940753,-73.88544300000002,0.24415892366,Slow traffic from Yonkers Ave (Nepperhan Ave) to Roberts Ave (Nepperhan Ave) due to roadwork.,329.0,Nepperhan Ave,L,Yonkers,Westchester,NY,10701-6529,US,US/Eastern,KLGA,2021-12-14 15:51:00,53.0,53.0,26.0,30.51,10.0,N,9.0,0.0,Partly Cloudy,False,False,False,False,False,False,False,False,False,False,False,False,False,Day,Day,Day,Day
C-693973,2,2021-08-05 10:15:00,2021-08-06 02:04:31,31.026431,-96.114656,31.020479,-96.124432,0.710052403708,Roadwork on FM-39 (Old San Antonio Rd/County Line Rd/Osr Hwy) from FM-1452 (Old San Antonio Rd/County Line Rd/Osr Hwy) to TX-OSR.,,1st St,R,Normangee,Leon,TX,77871,US,US/Central,KCFD,2021-08-05 10:15:00,82.0,82.0,67.0,29.71,10.0,ESE,7.0,0.0,Cloudy,False,False,False,False,False,False,False,False,False,False,False,False,False,Day,Day,Day,Day
C-693975,2,2021-02-03 08:36:02,2021-02-03 17:01:00,37.437199,-122.240784,,,0.670000016689,One lane closed due to construction during the day time on CA-84 Woodside Rd Southbound from High Rd to Moore Rd.,2658.0,Woodside Rd,L,Woodside,San Mateo,CA,94062-2438,US,US/Pacific,KSQL,2021-02-03 08:52:00,50.0,50.0,71.0,30.28,10.0,VAR,3.0,0.0,Mostly Cloudy,False,False,False,False,False,False,False,False,False,False,False,False,False,Day,Day,Day,Day
C-693976,2,2020-10-24 13:31:00,2020-10-24 22:54:14,33.669439000000004,-112.063783,33.668831,-112.065708,0.118396895511,Queuing traffic from N 12th St to AZ-101 Loop E due to roadwork.,788.0,E Beardsley Rd,L,Phoenix,Maricopa,AZ,85024,US,US/Mountain,KDVT,2020-10-24 13:53:00,82.0,82.0,31.0,28.27,10.0,VAR,5.0,0.0,Fair,False,False,False,False,False,False,False,False,False,False,False,False,False,Day,Day,Day,Day
C-693977,2,2019-08-26 21:04:47,2019-09-01 21:02:13,42.54188,-70.98575,42.54774000000001,-70.98339,0.422334179492,Between I-95/City of Peabody and Lowell St - Construction work. Lane blocked.,183.0,Newbury St,L,Peabody,Essex,MA,01960-2411,US,US/Eastern,KBVY,2019-08-28 20:53:00,68.0,68.0,93.0,29.7,10.0,ESE,5.0,0.09,Cloudy,False,False,False,False,False,False,False,False,False,False,False,False,False,Night,Night,Night,Day
C-693979,2,2019-01-07 07:03:15,2019-01-11 07:03:09,42.039605,-76.528785,42.019072,-76.52389000000002,1.44076712917,At Norris Rd - Bridge maintenance work.,352.0,State Route 34,R,Waverly,Tioga,NY,14892-9631,US,US/Eastern,KELM,2019-01-07 06:53:00,19.9,11.1,71.0,30.52,10.0,ENE,6.9,,Clear,False,False,False,False,False,False,False,False,False,False,False,False,False,Night,Day,Day,Day
C-693980,3,2019-10-22 09:00:00,2019-10-22 16:00:00,39.939156,-83.010216,,,0.0,Intermittent lane closures due to paving repairs on I-71 both ways at Exit 105 Greenlawn Ave.,501.0,American Blvd,L,Columbus,Franklin,OH,43223-2601,US,US/Eastern,KTZR,2019-10-22 08:47:00,55.0,55.0,94.0,28.77,10.0,SW,7.0,0.0,Fair,False,False,False,False,False,False,False,False,False,False,False,False,False,Day,Day,Day,Day
C-693981,2,2019-12-30 08:35:03,2020-01-03 08:34:36,47.25625,-122.18674,47.25749,-122.18684,0.0858040827592,At Kersey Way SE - Construction work.,18201.0,1st Street Ct E,R,Lake Tapps,Pierce,WA,98391-9430,US,US/Pacific,KPLU,2019-12-30 08:28:00,45.0,40.0,100.0,29.99,10.0,SSW,8.0,0.0,Cloudy,False,False,False,False,False,False,False,False,False,False,False,False,False,Day,Day,Day,Day
C-693982,2,2021-09-02 16:59:55,2021-09-02 17:19:55,44.891359,-93.445548,44.891233,-93.442511,0.14891290106,Stationary traffic on MN-62 - County Hwy-62 from Eden Prairie Rd (CR-62) to I-494 (CR-62) due to roadwork.,12901.0,Highway 62,L,Eden Prairie,Hennepin,MN,55346,US,US/Central,KFCM,2021-09-02 16:53:00,68.0,68.0,65.0,29.04,8.0,E,16.0,0.0,Fair,False,False,True,False,False,False,False,False,False,False,False,True,False,Day,Day,Day,Day
C-693983,2,2021-12-14 12:49:30,2021-12-14 14:59:54,40.687187,-76.194579,40.685713,-76.19394,0.10720531918,Slow traffic on PA-61 from E Arch St to N Centre St / S Centre St due to roadwork.,,E Arch St,R,Pottsville,Schuylkill,PA,17901,US,US/Eastern,KRDG,2021-12-14 12:54:00,52.0,52.0,40.0,30.12,10.0,VAR,5.0,0.0,Fair,False,False,False,False,False,False,False,False,False,False,False,True,False,Day,Day,Day,Day
C-693985,1,2020-07-24 22:00:00,2020-07-25 08:00:00,40.757671,-73.994843,,,0.15000000596,Road closed due to construction work on 40th St Eastbound from 10th Ave to Dyer Ave.,,Dyer Ave,R,New York,New York,NY,10018,US,US/Eastern,KNYC,2020-07-24 21:51:00,75.0,75.0,84.0,29.98,10.0,CALM,0.0,0.0,Fair,False,False,True,False,False,False,False,False,False,False,False,True,False,Night,Night,Night,Day
C-693986,2,2019-08-26 21:00:00,2019-08-30 05:00:00,29.597775,-95.386536,,,0.0,Intermittent lane closures due to construction work on TX-288 Northbound at TX-8-BELTWAY Sam Houston Pkwy.,,S Sam Houston Pkwy,R,Houston,Harris,TX,77047,US,US/Central,KMCJ,2019-08-26 20:53:00,86.0,86.0,79.0,29.77,9.0,SSE,13.0,0.0,Partly Cloudy,False,False,False,False,False,False,False,False,False,False,False,False,False,Night,Night,Night,Day
C-693987,4,2019-01-12 00:01:01,2019-01-12 05:00:36,33.64628,-117.86095,33.63933,-117.86137,0.480806592473,Ramp closed to CA-73 (South) - Closed due to roadwork.,,CA-73 S,R,Irvine,Orange,CA,92617,US,US/Pacific,KSNA,2019-01-12 00:53:00,54.0,,83.0,30.0,6.0,Calm,,,Haze,False,False,False,False,False,False,False,False,False,False,False,False,False,Night,Night,Night,Night
C-693988,4,2020-12-11 07:00:00,2020-12-11 13:45:00,35.694204,-78.574529,35.69473400000001,-78.574999,0.0451280677726,Construction on I-40 WB near EXIT 306 Use alternate exit ramp.,,I-40 W,R,Garner,Wake,NC,27529,US,US/Eastern,KRDU,2020-12-11 06:51:00,37.0,37.0,96.0,29.79,6.0,CALM,0.0,0.0,Fair,False,False,False,False,False,False,False,False,False,False,False,False,False,Night,Day,Day,Day
C-693989,2,2017-05-08 20:03:27,2017-05-09 02:03:27,36.07365,-79.93758000000003,36.08496,-80.06738,7.29022713702,Between Gallimore Dairy Rd and NC-66/Exit 203 - Construction work.,,US-421 N,R,Greensboro,Guilford,NC,27409,US,US/Eastern,KGSO,2017-05-08 19:54:00,64.0,,22.0,29.94,10.0,NW,6.9,,Partly Cloudy,False,False,False,False,False,False,False,False,False,False,False,False,False,Day,Day,Day,Day
C-693990,2,2019-04-18 09:03:06,2019-04-23 09:01:30,33.833524,-84.38331600000002,33.835012,-84.38234399999997,0.116970650377,At Peachtree Ave NE - Construction work.,2885.0,Peachtree Rd NE,R,Atlanta,Fulton,GA,30305-2936,US,US/Eastern,KPDK,2019-04-19 09:00:00,62.0,62.0,100.0,28.47,1.0,SE,6.0,0.12,Heavy T-Storm,False,False,True,False,False,False,False,False,False,False,False,True,False,Day,Day,Day,Day
C-693991,2,2021-12-08 15:06:30,2021-12-08 16:00:28,26.166535,-80.14779200000002,26.166242,-80.15525699999998,0.463366010765,Stationary traffic on FL-816 from N Andrews Ave (Oakland Park Blvd/31st St/FL-816) to I-95 (NW 31st St/W Oakland Park Blvd/FL-816) due to roadwork.,153.0,W Oakland Park Blvd,L,Wilton Manors,Broward,FL,33311-2521,US,US/Eastern,KFXE,2021-12-08 14:53:00,85.0,85.0,51.0,29.99,10.0,SW,12.0,0.0,Fair,False,False,False,False,False,False,False,False,False,False,False,False,False,Day,Day,Day,Day
C-693992,4,2018-01-07 17:14:15,2018-01-07 17:41:40,40.124023,-77.761673,,,10.2899999619,Very slow traffic due to clearance work on Pennsylvania Tpke I-76 Westbound from Exit 201 PA-997 Cumberland Hwy to Pennsylvania Tpke I-76.,,Pennsylvania Tpke E,R,Spring Run,Franklin,PA,17262,US,US/Eastern,KHGR,2018-01-07 16:53:00,21.9,12.5,28.0,30.5,10.0,South,8.1,,Overcast,False,False,False,False,False,False,False,False,False,False,False,False,False,Night,Day,Day,Day
C-693993,2,2021-11-18 07:40:21,2021-11-18 08:21:13,43.543388,-70.41521999999998,43.547082,-70.411659,0.3113640136389999,Stationary traffic on US-1 N - US-1 S from I-195 (ME-5/Main St/Blue Star Memorial Hwy/US-1) to ME-9/Broadturn Rd/Pine Point Rd (Blue Star Memorial Hwy/US-1) due to roadwork.,901.0,Portland Rd,R,Saco,York,ME,04072-9673,US,US/Eastern,KPWM,2021-11-18 07:35:00,46.0,46.0,89.0,29.93,10.0,CALM,0.0,0.0,Cloudy,False,False,False,False,False,False,False,False,False,False,False,False,False,Day,Day,Day,Day
C-693994,2,2021-01-29 13:49:00,2021-01-30 23:20:58,25.790447,-80.14116,25.792028,-80.141903,0.118613574335,Stationary traffic on FL-907 from Lincoln Rd to Dade Blvd / Bay Rd due to roadwork.,1198.0,Lincoln Rd,L,Miami Beach,Miami-Dade,FL,33139-2425,US,US/Eastern,KMIA,2021-01-29 13:53:00,71.0,71.0,53.0,30.17,10.0,NE,10.0,0.0,Mostly Cloudy,True,False,True,False,False,False,False,False,False,True,False,True,False,Day,Day,Day,Day
C-693995,2,2021-11-22 15:42:00,2021-11-22 16:03:00,46.58472800000001,-116.700947,46.582526,-116.703045,0.181861568995,Stationary traffic on ID-3 from ID-99 (ID-3) to 4th St (ID-3) due to roadwork.,1138.0,Highway 3,R,Kendrick,Latah,ID,83537,US,US/Pacific,KPUW,2021-11-22 15:53:00,44.0,40.0,65.0,27.34,10.0,ESE,8.0,0.0,Fair,False,False,False,False,False,False,False,False,False,False,False,False,False,Day,Day,Day,Day
C-693996,2,2021-02-15 05:02:00,2021-02-16 00:35:30,30.124677,-94.153138,30.126686,-94.157112,0.27507989105,Stationary traffic on US-96 N - US-69 N - US-287 N from Lucas Dr (US-287/US-96/US-69) to Dowlen Rd (US-287/US-96/US-69) due to roadwork.,,US-287 N,R,Beaumont,Jefferson,TX,77708,US,US/Central,KBMT,2021-02-15 04:55:00,24.0,13.0,88.0,30.09,3.0,NNW,13.0,0.0,Light Snow,False,False,False,False,True,False,False,False,False,False,False,False,False,Night,Night,Night,Night
C-693997,2,2021-10-19 07:20:30,2021-10-19 09:31:56,38.913718,-94.77974,38.912738,-94.778807,0.0842663869607,Slow traffic from W 118th Ter to I-35 S due to roadwork.,11854.0,Renner Blvd,R,Olathe,Johnson,KS,66061,US,US/Central,KIXD,2021-10-19 06:53:00,54.0,54.0,69.0,28.84,10.0,SSE,12.0,0.0,Fair,False,False,False,False,False,False,False,False,False,False,False,False,False,Night,Day,Day,Day
C-693998,2,2020-05-04 14:58:00,2020-07-29 13:31:51,44.371135,-100.36944,44.372332,-100.365819,0.1970361081349999,Construction on US-14 near US-14 Allow extra time.,,SD-34,R,Pierre,Hughes,SD,57501,US,US/Central,KPIR,2020-05-04 14:53:00,46.0,37.0,96.0,28.07,5.0,N,26.0,0.04,Rain / Windy,False,False,False,False,False,False,False,False,False,False,False,False,False,Day,Day,Day,Day
C-693999,2,2021-03-09 16:16:42,2021-03-09 17:07:30,29.771737,-98.0404,29.758541,-98.049647,1.06719141072,Slow traffic on Vetter Memorial Hwy - I-35 S from Watson Ln/Exit 195 (I-35) to Conrads Ln/Kohlenberg Rd/Exit 193 (I-35) due to roadwork.,,I-35 S,R,New Braunfels,Comal,TX,78130,US,US/Central,KBAZ,2021-03-09 15:51:00,76.0,76.0,46.0,29.41,10.0,S,23.0,0.0,Cloudy / Windy,False,False,False,False,False,False,False,False,False,False,False,False,False,Day,Day,Day,Day
C-694000,2,2021-02-10 14:38:30,2021-02-10 19:24:00,34.622732,-92.503019,34.624546,-92.499587,0.2319183188859999,Stationary traffic on AR-5 from Springhill Rd (Stagecoach Rd/AR-5) to AR-183/Commonwealth Dr/Reynolds Rd (Stagecoach Rd/AR-5) due to roadwork.,5324.0,Highway 5 N,R,Bryant,Saline,AR,72022,US,US/Central,KLIT,2021-02-10 14:33:00,33.0,27.0,92.0,29.86,1.0,N,7.0,0.0,Light Drizzle,False,False,True,False,False,False,False,False,False,False,False,False,False,Day,Day,Day,Day
C-694001,2,2020-12-22 14:01:30,2020-12-22 19:51:10,27.331196,-80.32356800000002,27.326955,-80.321113,0.32950224085,Stationary traffic on US-1 S - FL-5 from Easy St (US-1) to E Prima Vista Blvd (US-1) due to roadwork.,7349.0,S US Highway 1,R,Port Saint Lucie,St. Lucie,FL,34952,US,US/Eastern,KSUA,2020-12-22 13:50:00,68.0,68.0,64.0,30.18,7.0,N,9.0,0.0,Partly Cloudy,False,False,False,False,False,False,False,False,False,False,False,True,False,Day,Day,Day,Day
C-694002,2,2021-09-19 09:36:00,2021-10-14 05:23:54,30.563201,-85.388589,30.577825,-85.386915,1.01531782244,Construction on US-231 NB near COUNTY LINE RD Expect delays.,22900.0,Highway 231,R,Fountain,Bay,FL,32438-1804,US,US/Central,KVSH,2021-09-19 09:48:00,81.0,81.0,79.0,29.99,10.0,NE,5.0,0.0,Mostly Cloudy,False,False,False,False,False,False,False,False,False,False,False,False,False,Day,Day,Day,Day
C-694003,2,2021-08-26 06:54:00,2021-08-26 07:07:30,40.309867,-104.980391,40.320614,-104.980022,0.7428014127600001,Slow traffic on US-87 N - I-25 N from CO-56/Exit 250 (I-25) to CO-60/Exit 252 (I-25) due to roadwork.,,I-25 N,R,Johnstown,Weld,CO,80534,US,US/Mountain,KFNL,2021-08-26 06:56:00,61.0,61.0,87.0,25.08,10.0,N,7.0,0.0,Mostly Cloudy,False,False,False,False,False,False,False,False,False,False,False,False,False,Day,Day,Day,Day
C-694004,2,2021-06-09 12:32:30,2021-06-09 14:40:48,42.359214,-88.036018,42.359361,-88.033247,0.141838898818,Stationary traffic on IL-83 - County Hwy-45 - County Hwy-A22 from Chesapeake Blvd to Barron Blvd due to roadwork.,766.0,Chesapeake Blvd,L,Grayslake,Lake,IL,60030,US,US/Central,KUGN,2021-06-09 12:55:00,76.0,76.0,71.0,29.28,10.0,NE,8.0,0.0,Fair,False,False,False,False,False,False,False,False,False,False,False,False,False,Day,Day,Day,Day
C-694005,2,2021-07-06 11:59:55,2021-07-06 14:04:03,40.804387,-73.937423,40.805526,-73.940148,0.162800825038,Slow traffic from 2nd Ave (E 125th St) to 5th Ave (New York) (East) (E 125th St) due to roadwork.,150.0,E 125th St,R,New York,New York,NY,10035-1747,US,US/Eastern,KNYC,2021-07-06 11:51:00,86.0,86.0,61.0,29.88,8.0,VAR,5.0,0.0,Fair,True,False,True,False,False,False,True,False,True,False,False,True,False,Day,Day,Day,Day
