ID,Severity,Start_Time,End_Time,Start_Lat,Start_Lng,End_Lat,End_Lng,Distance(mi),Description,Number,Street,Side,City,County,State,Zipcode,Country,Timezone,Airport_Code,Weather_Timestamp,Temperature(F),Wind_Chill(F),Humidity(%),Pressure(in),Visibility(mi),Wind_Direction,Wind_Speed(mph),Precipitation(in),Weather_Condition,Amenity,Bump,Crossing,Give_Way,Junction,No_Exit,Railway,Roundabout,Station,Stop,Traffic_Calming,Traffic_Signal,Turning_Loop,Sunrise_Sunset,Civil_Twilight,Nautical_Twilight,Astronomical_Twilight
C-489828,2,2020-09-08 12:59:00,2020-09-08 21:45:45,32.723889,-96.316009,32.717128,-96.324095,0.662686445132,Slow traffic on FM-148 from US-80/W Moore Ave (FM-148) to I-20 (FM-148) due to roadwork.,1037.0,N FM 148,R,Terrell,Kaufman,TX,75160,US,US/Central,KTRL,2020-09-08 12:53:00,86.0,86.0,65.0,29.37,10.0,SSE,10.0,0.0,Partly Cloudy,False,False,False,False,False,False,False,False,False,False,False,False,False,Day,Day,Day,Day
C-489829,4,2021-05-25 08:00:00,2021-05-25 17:00:00,40.618155,-80.604151,40.61725,-80.603952,0.0633945812662,County Hwy-1 is closed from Washington St to Jefferson St due to roadwork.,600.0,Washington St,R,Newell,Hancock,WV,26050-1375,US,US/Eastern,KBVI,2021-05-25 07:55:00,65.0,65.0,100.0,28.77,0.0,SSE,3.0,,Fog,False,False,False,False,False,False,False,False,False,False,False,False,False,Day,Day,Day,Day
C-489830,2,2020-09-28 19:35:33,2020-09-28 22:01:50,29.849858,-95.226447,29.847936,-95.223804,0.206693291937,Slow traffic from Valley Forest Dr to Ticonderoga Rd due to roadwork.,11285.0,Tidwell Rd,L,Houston,Harris,TX,77044,US,US/Central,KIAH,2020-09-28 19:53:00,72.0,72.0,48.0,29.92,10.0,NNW,7.0,0.0,Mostly Cloudy,False,False,False,False,False,False,False,False,False,False,False,False,False,Night,Night,Day,Day
C-489831,2,2021-09-13 20:56:23,2021-11-04 19:29:13,33.509563,-112.183055,33.508425,-112.186348,0.205358802987,Stationary traffic from N 57th Ave to W Elm St due to roadwork.,5728.0,W Camelback Rd,L,Glendale,Maricopa,AZ,85301-7408,US,US/Mountain,KGEU,2021-11-04 16:58:00,87.0,87.0,14.0,28.73,10.0,CALM,0.0,0.0,Fair,False,False,False,False,False,False,False,False,False,False,False,False,False,Night,Night,Night,Night
C-489832,4,2018-07-25 20:56:16,2018-07-29 20:56:07,34.199966,-118.33783,34.1979,-118.33789,0.142788178772,Closed at San Fernando Blvd - Closed due to roadwork.,2421.0,N Buena Vista St,L,Burbank,Los Angeles,CA,91504,US,US/Pacific,KBUR,2018-07-25 20:53:00,80.1,,60.0,29.87,10.0,East,9.2,,Clear,False,False,False,False,False,False,False,False,False,False,False,True,False,Night,Night,Day,Day
C-489833,3,2016-11-21 06:03:41,2016-12-01 19:02:09,41.98403,-87.986628,41.98494,-88.020875,1.76001285681,Between CR-28/Wood Dale Rd and I-290 - Roadwork.,,Thorndale Ave,R,Wood Dale,DuPage,IL,60191,US,US/Central,KORD,2016-11-21 05:51:00,24.1,19.7,71.0,30.33,10.0,NNW,3.5,,Partly Cloudy,False,False,False,False,False,False,False,False,False,False,False,True,False,Night,Night,Day,Day
C-489834,2,2019-04-11 00:00:00,2019-07-08 16:30:00,41.59188,-83.688098,41.59188,-83.687814,0.0146755375037,At US-20/Exit 59 - Roadwork. Left lane closed.,,I-80 E,R,Maumee,Lucas,OH,43537,US,US/Eastern,KTOL,2019-04-11 00:52:00,39.0,31.0,76.0,29.42,10.0,ENE,13.0,0.0,Partly Cloudy,False,False,False,False,False,False,False,False,False,False,False,False,False,Night,Night,Night,Night
C-489835,2,2021-10-20 13:58:00,2021-10-20 16:09:35,37.636266,-83.78013100000003,37.635058,-83.77854599999998,0.120364089955,Roadwork on KY-1571/Millers Creek Rd (Beattyville Rd/KY-52) from KY-498 (Beattyville Rd/KY-52) to KY-52.,7658.0,Highway 52 W,L,Beattyville,Lee,KY,41311-8169,US,US/Eastern,KJKL,2021-10-20 13:53:00,71.0,71.0,47.0,28.76,10.0,CALM,0.0,0.0,Fair,False,False,False,False,False,False,False,False,False,False,False,False,False,Day,Day,Day,Day
C-489836,2,2020-08-30 04:00:00,2020-08-30 14:45:00,36.002894,-79.853664,36.003044,-79.830504,1.29458464599,Construction on I-85 NB near EXIT 120 Construction. Left lane closed.,,I-85 N,R,Greensboro,Guilford,NC,27407,US,US/Eastern,KGSO,2020-08-30 03:54:00,70.0,70.0,90.0,28.8,10.0,WNW,6.0,0.0,Fair,False,False,False,False,True,False,False,False,False,False,False,False,False,Night,Night,Night,Night
C-489837,3,2020-09-15 10:00:00,2020-09-15 11:30:00,42.627781,-71.271034,,,0.0,Intermittent lane closures due to construction work on I-495 Northbound at MA-38 Main St.,,I-495 N,R,Tewksbury,Middlesex,MA,01876,US,US/Eastern,KLWM,2020-09-15 09:54:00,55.0,55.0,62.0,30.21,10.0,NNE,6.0,0.0,Fair,False,False,False,False,False,False,False,False,False,False,False,False,False,Day,Day,Day,Day
C-489838,2,2021-03-06 15:33:00,2021-03-06 16:13:30,32.426446,-111.15899,32.42405,-111.163957,0.333648545631,Stationary traffic from Twin Peaks Rd/Dove Mountain Blvd (Tangerine Rd) to I-10 (W Tangerine Rd) due to roadwork.,9019.0,W Tangerine Rd,L,Marana,Pima,AZ,85658-9286,US,US/Mountain,KRYN,2021-03-06 15:45:00,84.0,84.0,8.0,27.39,10.0,SSE,3.0,,Fair,False,False,False,False,False,False,False,False,False,False,False,True,False,Day,Day,Day,Day
C-489839,2,2019-08-28 06:30:00,2019-08-29 16:00:00,44.10427,-70.07951,44.124346,-70.02324399999999,3.11680094098,At West Gardiner Toll Plaza - Construction work. Right lane closed.,,I-95 N,R,Sabattus,Androscoggin,ME,04280,US,US/Eastern,KLEW,2019-08-28 06:56:00,55.0,55.0,93.0,29.68,10.0,CALM,0.0,0.0,Cloudy,False,False,False,False,False,False,False,False,False,False,False,False,False,Day,Day,Day,Day
C-489840,2,2020-11-19 12:25:00,2021-12-22 12:34:19,41.103102,-81.510889,41.102158,-81.510124,0.0764235051388999,Stationary traffic on OH-261 from Frances Ave to Elma St due to roadwork.,662.0,N Main St,L,Akron,Summit,OH,44310-3045,US,US/Eastern,KAKR,2021-09-01 12:54:00,75.0,75.0,53.0,28.68,10.0,NE,17.0,0.0,Fair,False,False,False,False,False,False,False,False,False,False,False,False,False,Day,Day,Day,Day
C-489841,2,2021-02-03 14:00:00,2021-02-05 00:00:00,33.42268,-111.773062,33.422677,-111.773462,0.0230679050982,3573 E University - Construction - Eastbound/westbound one lane open for City of Mesa Transportation fog seal pavement maintenance. No left turns at Val Vista and at Lindsay. TTCP Number: TTC21-00265,2713.0,E University Dr,R,Mesa,Maricopa,AZ,85213,US,US/Mountain,KFFZ,2021-02-03 13:51:00,77.0,77.0,32.0,28.7,10.0,WNW,7.0,0.0,Mostly Cloudy,False,False,False,False,False,False,False,False,False,False,False,False,False,Day,Day,Day,Day
C-489842,2,2019-05-01 21:02:27,2019-05-05 21:02:09,33.6777,-84.39784,33.68509,-84.39862,0.5125660065250001,At Cleveland Ave/Exit 241 - Construction work. Right lane blocked.,,I-75 N,R,Atlanta,Fulton,GA,30354,US,US/Eastern,KATL,2019-05-01 20:52:00,77.0,77.0,60.0,29.09,10.0,SSE,6.0,0.0,Mostly Cloudy,False,False,False,False,True,False,False,False,False,False,False,False,False,Night,Night,Day,Day
C-489843,2,2021-04-15 17:00:00,2021-12-12 08:18:00,47.537904,-121.831995,47.536086,-121.830749,0.138406521343,Stationary traffic on WA-202 from WA-203/Fall City Carnation Rd (WA-202) to I-90 (WA-202) due to roadwork.,7206.0,Fall City-Snoqualmie Rd,R,Snoqualmie,King,WA,98065,US,US/Pacific,KRNT,2021-06-09 11:53:00,62.0,62.0,44.0,30.1,10.0,WSW,5.0,0.0,Fair,False,False,True,False,False,False,True,False,False,False,False,False,False,Day,Day,Day,Day
C-489845,2,2020-09-12 01:19:24,2020-09-12 10:03:26,38.611999,-86.698527,38.61242,-86.701561,0.166364562804,Roadwork on US-150 from CR-193 (US-150) to IN-550 (US-150).,12099.0,US Highway 150,R,Shoals,Martin,IN,47581-7414,US,US/Eastern,KDCY,2020-09-12 01:15:00,70.0,70.0,99.0,29.59,10.0,ESE,9.0,0.0,Cloudy,False,False,False,False,False,False,False,False,False,False,False,False,False,Night,Night,Night,Night
C-489846,2,2021-10-18 07:00:00,2021-10-18 17:45:00,33.412931,-111.834072,33.412905,-111.832775,0.0748246380865,Construction on W 1ST AVE EB near HOUSE 59 Allow extra time.,67.0,W 1st Ave,L,Mesa,Maricopa,AZ,85210-1558,US,US/Mountain,KFFZ,2021-10-18 06:51:00,64.0,64.0,41.0,28.69,10.0,E,12.0,0.0,Fair,False,False,True,False,False,False,False,False,False,False,False,True,False,Day,Day,Day,Day
C-489847,2,2021-09-23 21:49:00,2021-09-23 23:51:38,33.320463000000004,-111.641942,33.317418,-111.635372,0.433765835405,Stationary traffic on AZ-24 E from exit [34A] to AZ-24 W due to roadwork.,,AZ-24 E,R,Mesa,Maricopa,AZ,85212,US,US/Mountain,KIWA,2021-09-23 21:50:00,84.0,84.0,35.0,28.43,10.0,SSE,7.0,0.0,Partly Cloudy,False,False,False,False,False,False,False,False,False,False,False,False,False,Night,Night,Night,Night
C-489848,2,2021-06-30 09:30:00,2021-06-30 09:42:00,40.927275,-80.56298000000002,40.923916,-80.556308,0.4185464354479999,Slow traffic on Ohio Tpke E - I-76 E from I-680/Exit 234 (I-76) to OH--PA State Border (I-76) due to roadwork.,,Ohio Tpke E,R,Petersburg,Mahoning,OH,44454,US,US/Eastern,KUCP,2021-06-30 09:56:00,77.0,77.0,84.0,28.96,10.0,VAR,5.0,0.0,Fair,False,False,False,False,False,False,False,False,False,False,False,False,False,Day,Day,Day,Day
C-489849,2,2019-02-14 08:02:58,2019-02-20 08:01:00,33.78727,-84.39081999999998,33.789840000000005,-84.39084,0.1775738021489999,Ramp to Honorable Rodney Mims Cook Memorial Hwy - Construction work.,,I-75 N,R,Atlanta,Fulton,GA,30309,US,US/Eastern,KFTY,2019-02-14 07:53:00,32.0,,96.0,30.15,10.0,Calm,,,Clear,False,False,False,False,True,False,False,False,False,False,False,False,False,Day,Day,Day,Day
C-489850,2,2021-12-11 13:56:00,2021-12-11 16:25:00,40.742804,-73.91498100000003,40.743101,-73.91680799999997,0.0978170602873,Stationary traffic on NY-25 from 58th St (Queens Blvd/NY-25) to 39th St (Queens Blvd/NY-25) due to roadwork.,,50th St,R,Woodside,Queens,NY,11377,US,US/Eastern,KLGA,2021-12-11 13:51:00,58.0,58.0,84.0,29.63,7.0,S,10.0,0.0,Cloudy,False,False,True,False,False,False,False,False,True,False,False,True,False,Day,Day,Day,Day
C-489851,2,2020-09-10 12:24:30,2020-09-10 17:37:30,42.08844600000001,-122.603379,42.056442,-122.610032,2.23743748801,Slow traffic on I-5 from OR-99/Exit 11 (I-5) to OR-99/Exit 1 (I-5) due to construction work.,,I-5 S,R,Ashland,Jackson,OR,97520,US,US/Pacific,KMFR,2020-09-10 12:53:00,86.0,86.0,12.0,28.55,1.0,CALM,0.0,0.0,Smoke,False,False,False,False,False,False,False,False,False,False,False,False,False,Day,Day,Day,Day
C-489852,2,2021-02-10 18:24:30,2021-02-10 19:09:00,47.539153000000006,-124.252333,47.541355,-124.271105,0.888703238107,Slow traffic on US-101 S - US-101 N from W Boundary Rd (US-101) to Clearwater Rd (US-101) due to roadwork.,,US Highway 101,R,Montesano,Jefferson,WA,98563,US,US/Pacific,KHQM,2021-02-10 18:53:00,41.0,38.0,70.0,30.15,10.0,SSE,5.0,0.0,Cloudy,False,False,False,False,False,False,False,False,False,False,False,False,False,Night,Night,Day,Day
C-489853,2,2019-01-12 08:30:00,2019-01-12 15:30:00,39.77969,-104.971915,39.77969,-104.97191,0.000265495049948,At Brighton Blvd/Exit 275 - Construction work.,1622.0,E 46th Ave,R,Denver,Denver,CO,80216,US,US/Mountain,KBJC,2019-01-12 08:45:00,32.0,,93.0,30.22,6.0,Calm,,,Light Snow,False,False,False,False,False,False,False,False,False,False,False,False,False,Day,Day,Day,Day
C-489854,2,2021-10-14 14:39:43,2021-10-14 17:55:40,40.756985,-73.871317,40.757583,-73.86567,0.298421327616,Slow traffic on NY-25A from Junction Blvd (Northern Blvd/NY-25A) to 108th St (Northern Blvd/NY-25A) due to roadwork.,9700.0,Northern Blvd,R,Corona,Queens,NY,11368-1044,US,US/Eastern,KLGA,2021-10-14 14:51:00,79.0,79.0,47.0,29.87,10.0,NNW,10.0,0.0,Mostly Cloudy,True,False,False,False,False,False,False,False,True,False,False,True,False,Day,Day,Day,Day
C-489856,2,2020-07-06 02:00:00,2020-07-11 12:45:00,39.521892,-119.811239,39.583621,-119.829935,4.37982054244,Construction on US-395 NB near N MCCARRAN BLVD Drive with caution.,1.0,E Liberty St,L,Reno,Washoe,NV,89501-2106,US,US/Pacific,KRNO,2020-07-06 01:55:00,61.0,61.0,34.0,25.58,10.0,SSW,5.0,0.0,Fair,False,False,True,False,False,False,False,False,False,False,False,True,False,Night,Night,Night,Night
C-489857,4,2020-08-03 14:00:00,2020-08-04 07:45:00,45.747257,-87.957431,45.626522,-87.99534399999996,8.54035091535,Construction on US-141 SB near WISCONSIN-MICHIGAN STATE LINE Expect delays.,,W7599 US Highway 8,L,Niagara,Marinette,WI,54151-9704,US,US/Central,KIMT,2020-08-03 15:54:00,67.0,67.0,47.0,28.86,10.0,NNE,8.0,0.0,Cloudy,False,False,False,False,False,False,False,False,False,False,False,False,False,Day,Day,Day,Day
C-489858,2,2021-10-08 16:55:53,2021-10-08 17:16:35,33.247355,-92.729118,33.258315,-92.716952,1.03324212394,Slow traffic on AR-335 from Sleepy Hollow Rd to Tracy Dr due to roadwork.,3094.0,N Wyatt Dr,L,El Dorado,Union,AR,71730-9427,US,US/Central,KELD,2021-10-08 16:53:00,86.0,86.0,44.0,29.7,10.0,SW,7.0,0.0,Fair,False,False,False,False,False,False,False,False,False,False,False,False,False,Day,Day,Day,Day
C-489859,2,2020-10-17 14:32:30,2020-10-17 19:11:00,40.789619,-79.455303,40.78125,-79.445916,0.7586328895540001,Stationary traffic on US-422 from Lasher Rd (US-422) to PA-2014 (US-422) due to roadwork.,13127.0,US Route 422,L,Kittanning,Armstrong,PA,16201-4029,US,US/Eastern,KBTP,2020-10-17 14:56:00,56.0,56.0,33.0,28.92,10.0,W,8.0,0.0,Fair,False,False,False,False,False,False,False,False,False,False,False,False,False,Day,Day,Day,Day
C-489860,2,2019-08-25 08:01:47,2019-08-29 08:01:33,47.6199,-122.32088600000002,47.619919,-122.319583,0.060697677424,At E Madison St - Construction work. Lane blocked.,1899.0,E Olive Way,R,Seattle,King,WA,98102-5691,US,US/Pacific,KBFI,2019-08-25 08:04:00,63.0,63.0,65.0,30.13,10.0,E,7.0,0.0,Cloudy,True,False,True,False,False,False,True,False,True,False,False,True,False,Day,Day,Day,Day
C-489861,2,2020-12-16 12:54:00,2020-12-19 20:35:08,38.938514,-94.816101,38.939416,-94.816101,0.0623222644333,Roadwork from College Blvd (S Woodland Rd) to KS-10 (Woodland Rd).,10548.0,S Woodland Rd,R,Olathe,Johnson,KS,66061-8501,US,US/Central,KIXD,2020-12-16 12:53:00,27.0,27.0,75.0,28.89,7.0,NW,3.0,0.0,Cloudy,False,False,False,False,False,False,False,False,False,False,False,False,False,Day,Day,Day,Day
C-489862,2,2021-12-01 09:00:00,2021-12-01 15:30:00,39.493788,-104.760285,39.50809,-104.763288,1.00105950771,Between Parker Square Drive and Hess Road (Parker) from Mile Point 59 to Mile Point 58. Right lane closed due to guardrail repair. Starting December 1 2021 at 9:00AM MST until December 1 2021 at about 3:30PM MST.Between Hess Road and Parker Square Drive (Parker) from Mile Point 58 to Mile Point 59. Guardrail repair work. Starting December 1 2021 at 9:00AM MST until December 1 2021 at about 3:30PM MST.,12286.0,S Parker Rd,R,Parker,Douglas,CO,80134-3492,US,US/Mountain,KAPA,2021-12-01 08:53:00,49.0,46.0,35.0,24.3,10.0,S,7.0,0.0,Mostly Cloudy,False,False,False,False,False,False,False,False,False,False,False,False,False,Day,Day,Day,Day
C-489863,2,2021-11-12 18:10:00,2021-11-12 20:19:33,41.386562,-81.761454,41.383633,-81.759819,0.219406861028,Slow traffic from US-42/Pearl Rd (York Rd) to W Pleasant Valley Rd (York Rd) due to roadwork.,6470.0,York Rd,R,Cleveland,Cuyahoga,OH,44130-3067,US,US/Eastern,KCLE,2021-11-12 17:51:00,51.0,51.0,39.0,28.94,10.0,WSW,18.0,0.0,Cloudy,False,False,False,False,False,False,False,False,False,False,False,False,False,Night,Night,Day,Day
C-489864,2,2021-11-12 07:41:00,2021-11-12 09:44:01,40.880661,-73.877616,40.88271,-73.881231,0.236018522998,Slow traffic from Bronx River Pkwy (E Gun Hill Rd) to Jerome Ave (Gun Hill Rd) due to roadwork.,198.0,E Gun Hill Rd,R,Bronx,Bronx,NY,10467-2161,US,US/Eastern,KLGA,2021-11-12 07:51:00,68.0,68.0,70.0,29.91,10.0,SSE,21.0,0.0,Cloudy / Windy,True,False,False,False,False,False,False,False,False,False,False,True,False,Day,Day,Day,Day
C-489865,2,2021-10-27 00:00:00,2021-10-29 00:45:00,39.783752,-104.926984,39.783756,-104.919999,0.370874784141,Construction on E 48TH AVE EB near N HOLLY ST Expect delays.,4818.0,N Forest St,R,Denver,Denver,CO,80216,US,US/Mountain,KBJC,2021-10-27 00:15:00,36.0,36.0,93.0,24.24,10.0,CALM,0.0,0.0,Fair,False,False,False,False,False,False,False,False,False,True,False,False,False,Night,Night,Night,Night
C-489866,2,2020-05-13 09:51:56,2020-05-13 15:00:00,38.3351,-75.10138,38.33164,-75.08744,0.792439569975,Between MD-611/Stephen Decatur Hwy and MD-528/Philadelphia Ave - Roadwork. Right lane closed.,12938.0,Inlet Isle Ln,R,Ocean City,Worcester,MD,21842-9801,US,US/Eastern,KOXB,2020-05-13 09:53:00,57.0,57.0,53.0,30.35,10.0,E,7.0,0.0,Fair,True,False,True,False,False,False,False,False,False,False,False,True,False,Day,Day,Day,Day
C-489867,2,2020-09-26 13:52:30,2020-09-26 21:28:18,40.784351,-73.981165,40.7832,-73.98057299999998,0.0853444869987,Slow traffic from Henry Hudson Pkwy N to W 78th St due to roadwork.,300.0,W 79th St,L,New York,New York,NY,10024-6116,US,US/Eastern,KNYC,2020-09-26 13:51:00,73.0,73.0,64.0,29.97,10.0,CALM,0.0,0.0,Cloudy,True,False,True,False,False,False,True,False,True,False,False,True,False,Day,Day,Day,Day
C-489868,2,2021-05-25 14:34:30,2021-05-25 15:18:37,44.586523,-97.166427,44.586541,-97.136079,1.4933562971899998,Slow traffic on SD-28 - US-28 W - US-28 E from 3rd St/Burlington St (SD-28) to US-81 (SD-28) due to roadwork.,45211.0,SD Highway 28,L,Lake Norden,Hamlin,SD,57248-5902,US,US/Central,KATY,2021-05-25 14:53:00,77.0,77.0,28.0,27.97,10.0,W,26.0,0.0,Fair / Windy,False,False,False,False,False,False,False,False,False,False,False,False,False,Day,Day,Day,Day
C-489869,4,2020-08-29 07:00:00,2020-09-01 06:59:59,40.000514,-104.717776,39.994781,-104.725103,0.554356054547,Closed road from CR-37/Frances Steele Blvd (Frontage Rd) to E 160th Ave (Frontage Rd) due to roadwork.,,Frontage Rd,R,Brighton,Adams,CO,80601,US,US/Mountain,KDEN,2020-08-29 06:53:00,54.0,54.0,90.0,24.69,10.0,S,8.0,0.0,Mostly Cloudy,False,False,False,False,False,False,False,False,False,False,False,False,False,Day,Day,Day,Day
C-489870,2,2021-09-01 00:41:00,2021-09-01 01:03:30,40.741546,-111.560127,40.727215,-111.543799,1.3081384106,Slow traffic on I-80 E from Homestead Rd/Exit 143 (I-80) to UT-224/Exit 145 (I-80) due to roadwork.,,I-80 E,R,Park City,Summit,UT,84098,US,US/Mountain,K36U,,,,,,,,,,,False,False,False,False,False,False,False,False,False,False,False,True,False,Night,Night,Night,Night
C-489871,2,2021-08-16 20:21:25,2021-09-20 16:15:48,48.019493,-114.224739,48.027401,-114.225869,0.548880395571,Construction on US-93 NB near MM 102 Drive with caution.,7225.0,Highway 93 S,R,Lakeside,Flathead,MT,59922-9731,US,US/Mountain,KGPI,2021-08-16 19:55:00,81.0,81.0,27.0,26.66,7.0,N,6.0,0.0,Smoke,False,False,False,False,False,False,False,False,False,False,False,False,False,Day,Day,Day,Day
C-489872,4,2021-12-24 18:03:03,2021-12-26 23:59:00,37.78425,-122.417731,37.785168,-122.417923,0.0642884243738,Closed road from Turk St (Larkin St) to O'Farrell St (Larkin St) due to roadwork.,698.0,Ellis St,R,San Francisco,San Francisco,CA,94109-8028,US,US/Pacific,KOAK,2021-12-24 17:53:00,50.0,50.0,86.0,29.9,7.0,W,17.0,0.02,Light Rain,True,False,False,False,False,False,False,False,True,False,False,True,False,Night,Night,Night,Day
C-489873,2,2021-03-17 10:57:00,2021-03-17 17:45:00,46.102463,-122.876747,46.044993,-122.860527,4.04619460119,Construction on I-5 SB near MP 36 Construction. Right lane closed.,,I-5 S,R,Kelso,Cowlitz,WA,98626,US,US/Pacific,KKLS,2021-03-17 10:56:00,46.0,46.0,68.0,30.04,10.0,VAR,3.0,0.0,Fair,False,False,False,False,False,False,False,False,False,False,False,False,False,Day,Day,Day,Day
C-489874,2,2021-05-13 09:45:30,2021-05-14 02:02:00,37.373648,-113.252355,37.402057,-113.23931,2.08943428325,Slow traffic on I-15 N from Exit 33 (I-15) to S Old UT-91/Exit 36 (I-15) due to roadwork.,,I-15 N,R,Hurricane,Washington,UT,84737,US,US/Mountain,KSGU,2021-05-13 09:56:00,70.0,70.0,14.0,27.1,10.0,CALM,0.0,0.0,Fair,False,False,False,False,False,False,False,False,False,False,False,False,False,Day,Day,Day,Day
C-489875,2,2021-09-01 18:19:00,2021-09-22 08:47:18,44.746082,-67.37674200000001,44.739392,-67.386833,0.67742372442,Slow traffic on US-1 N - US-1 S from Bunker Hill Rd (US-1) to ME-191/Jacksonville Rd (US-1) due to roadwork.,99.0,Dike Gaddis Loop,L,East Machias,Washington,ME,04630-4223,US,US/Eastern,KBHB,2021-09-22 07:56:00,62.0,62.0,96.0,30.19,4.0,S,7.0,0.01,Light Rain,False,False,False,False,False,False,False,False,False,False,False,False,False,Day,Day,Day,Day
C-489876,4,2021-04-06 05:59:30,2021-11-22 13:05:51,45.213914,-85.01160300000002,45.214843,-85.011544,0.064251994257,Construction on EAST ST NB near WATER ST Road closed. Take alternate route.,5.0,N East St,L,Boyne City,Charlevoix,MI,49712-1294,US,US/Eastern,KCVX,2021-07-07 06:55:00,61.0,61.0,95.0,29.27,,ENE,6.0,0.0,Cloudy,True,False,True,False,False,False,False,False,False,False,False,False,False,Night,Night,Night,Day
C-489877,2,2021-08-07 10:19:32,2021-08-07 16:23:26,40.720833,-74.000644,40.71990200000001,-74.002583,0.1201988322749999,Stationary traffic from Broome St to Church St due to roadwork.,463.0,Broadway,L,New York,New York,NY,10013-2607,US,US/Eastern,KJRB,2021-08-07 09:51:00,79.0,79.0,54.0,29.99,10.0,VAR,5.0,0.0,Fair,True,False,True,False,False,False,False,False,False,False,False,True,False,Day,Day,Day,Day
C-489878,4,2018-04-24 21:02:23,2018-04-25 03:02:23,39.91728,-83.01129,39.916268,-83.014317,0.174987293545,Closed at I-71/Frank Rd - Closed due to roadwork.,,Frank Rd,R,Columbus,Franklin,OH,43223,US,US/Eastern,KTZR,2018-04-24 20:55:00,53.1,,99.0,29.91,5.0,East,3.5,,Overcast,False,False,False,False,False,False,False,False,False,False,False,False,False,Night,Night,Day,Day
C-489879,2,2020-09-08 13:51:17,2020-09-08 21:53:02,40.82728,-83.982446,40.874873,-83.9116,4.95205153581,Roadwork on I-75 from E Bluelick Rd/Exit 130 (I-75) to Bentley Rd/Exit 140 (I-75).,,I-75 N,R,Lima,Allen,OH,45801,US,US/Eastern,KAOH,2020-09-08 13:53:00,83.0,83.0,63.0,29.0,10.0,S,9.0,0.0,Fair,False,False,False,False,False,False,False,False,False,False,False,False,False,Day,Day,Day,Day
C-489880,2,2021-03-29 05:35:00,2021-03-29 13:57:30,33.424494,-111.92636,33.422038,-111.926299,0.169729894778,Stationary traffic from E Rio Salado Pkwy/N Scottsdale Rd (S Rural Rd) to E University Dr (S Rural Rd) due to roadwork.,1833.0,E 6th St,R,Tempe,Maricopa,AZ,85281-2950,US,US/Mountain,KPHX,2021-03-29 05:51:00,60.0,60.0,26.0,28.73,10.0,E,7.0,0.0,Fair,False,False,True,False,False,False,False,False,False,False,False,True,False,Night,Night,Day,Day
C-489881,2,2019-05-09 07:04:15,2019-05-13 07:03:53,42.98678,-76.26025,42.98678,-76.26025,0.0,At Kasson Rd - Construction work. Single alternate lane traffic.,3633.0,W Seneca Tpke,L,Syracuse,Onondaga,NY,13215-9651,US,US/Eastern,KSYR,2019-05-09 06:54:00,49.0,44.0,43.0,29.78,10.0,E,14.0,0.0,Cloudy,False,False,False,False,False,False,False,False,False,False,False,True,False,Day,Day,Day,Day
C-489882,2,2018-02-28 07:34:02,2018-02-28 13:35:04,41.442183,-75.61515899999998,41.459406,-75.605633,1.2882002625700002,Between I-81/US-6 and Burke Byp - Roadwork. Lane blocked.,176.0,Cypress St,R,Throop,Lackawanna,PA,18512-1433,US,US/Eastern,KAVP,2018-02-28 07:54:00,37.0,33.3,59.0,30.08,10.0,East,4.6,,Clear,False,False,False,False,False,False,False,False,False,False,False,False,False,Day,Day,Day,Day
C-489883,4,2021-10-27 00:00:00,2021-10-29 00:45:00,39.766595,-105.050619,39.766617,-105.053094,0.131453821403,Construction on W 36TH AVE WB near N YATES ST Expect delays.,5001.0,W 36th Ave,R,Denver,Denver,CO,80212-2014,US,US/Mountain,KBJC,2021-10-27 00:15:00,36.0,36.0,93.0,24.24,10.0,CALM,0.0,0.0,Fair,False,False,True,False,False,False,False,False,False,True,False,False,False,Night,Night,Night,Night
C-489884,2,2017-09-22 07:00:00,2017-09-22 15:30:00,39.413788,-74.55364200000002,,,2.93000006676,Right lane blocked due to construction work on Atlantic City Expy Westbound between Exit 5 Martin Ter and Exits 7N 7S Garden State Pkwy.,,Garden State Pkwy S,R,Egg Harbor Township,Atlantic,NJ,08234,US,US/Eastern,KACY,2017-09-22 06:54:00,66.0,,84.0,30.01,10.0,North,5.8,,Clear,False,False,False,False,False,False,False,False,False,False,False,False,False,Day,Day,Day,Day
C-489885,1,2020-06-08 20:40:44,2020-06-09 06:00:00,39.63209000000001,-75.65314000000002,39.61447,-75.64667,1.26518355715,At US-13/Dupont Hwy - Roadwork.,,DE-1 S,R,Bear,New Castle,DE,19701,US,US/Eastern,KILG,2020-06-08 20:51:00,73.0,73.0,39.0,29.9,10.0,WSW,3.0,0.0,Fair,False,False,False,False,False,False,False,False,False,False,False,False,False,Night,Day,Day,Day
C-489886,2,2021-12-13 15:26:31,2021-12-13 17:45:02,25.940444,-80.260483,25.939706,-80.261356,0.0744461266027,Stationary traffic on FL-953 - FL-860 from NW 34th Ct to NW 181st St due to roadwork.,3619.0,NW 183rd St,L,Miami Gardens,Miami-Dade,FL,33056-3455,US,US/Eastern,KOPF,2021-12-13 15:53:00,81.0,81.0,56.0,30.2,10.0,NE,14.0,0.0,Fair,False,False,False,False,False,False,False,False,True,False,False,False,False,Day,Day,Day,Day
C-489887,2,2021-06-12 12:56:00,2021-06-12 14:57:57,39.740097,-104.848899,39.740098,-104.846407,0.1323988475,Stationary traffic on US-40 E - I-70 Bus E - US-287 S from Havana St (Colfax Ave) to I-225 (Colfax Ave) due to roadwork.,11942.0,E Colfax Ave,R,Aurora,Arapahoe,CO,80010-5110,US,US/Mountain,KBKF,2021-06-12 12:58:00,87.0,87.0,18.0,24.44,10.0,ENE,3.0,0.0,Fair,False,False,False,False,False,False,False,False,False,False,False,False,False,Day,Day,Day,Day
C-489888,2,2021-12-24 12:18:30,2021-12-24 12:41:00,28.534371000000004,-81.28564,28.540131,-81.28568,0.397985502716,Stationary traffic on FL-551 from Autumnvale Dr (S Goldenrod Rd/FL-551) to FL-408/East West Expy (S Goldenrod Rd/FL-551) due to roadwork.,749.0,S Goldenrod Rd,L,Orlando,Orange,FL,32822-8127,US,US/Eastern,KORL,2021-12-24 11:53:00,76.0,76.0,50.0,30.1,10.0,ENE,7.0,0.0,Fair,False,False,True,False,False,False,False,False,False,False,False,True,False,Day,Day,Day,Day
C-489889,2,2019-01-07 22:00:00,2019-01-12 04:00:00,38.923554,-77.215075,38.934714,-77.208473,0.8488164720129999,Between VA-123/Chain Bridge Rd/Exit 46 and VA-267/Exit 45 - Construction work. Lane blocked.,,Capital Beltway N,R,Mc Lean,Fairfax County,VA,22102,US,US/Eastern,KDCA,2019-01-07 21:52:00,39.0,32.8,65.0,30.31,10.0,SSE,9.2,,Overcast,False,False,False,False,False,False,False,False,False,False,False,False,False,Night,Night,Night,Night
C-489890,4,2019-02-12 08:02:16,2019-02-12 13:01:55,41.98291,-87.77431,41.98292,-87.76834000000002,0.306621178271,Closed at N Central Ave - Closed due to roadwork.,,W Bryn Mawr Ave,R,Chicago,Cook,IL,60646,US,US/Central,KORD,2019-02-12 07:51:00,33.1,26.9,96.0,29.57,1.0,East,6.9,0.0,Light Drizzle,False,False,True,False,False,False,False,False,True,False,False,True,False,Day,Day,Day,Day
C-489891,4,2019-12-02 09:00:00,2019-12-06 17:00:00,42.38552,-83.47570999999998,42.38552,-83.47570999999998,0.0,At M-14 - Entry ramp closed. Construction work.,,MI-14 E,R,Plymouth,Wayne,MI,48170,US,US/Eastern,KYIP,2019-12-02 08:53:00,35.0,26.0,78.0,29.03,10.0,NNW,15.0,0.0,Cloudy,False,False,False,False,False,False,False,False,False,False,False,False,False,Day,Day,Day,Day
C-489893,2,2021-09-10 11:45:30,2021-09-11 06:38:32,25.760954,-80.560973,25.760924,-80.604513,2.70934647658,Roadwork on SW 187th Ave (SW 8th St/US-41) from Shark Valley Loop Rd (Old Tamiami Trl/SW 8th St/US-41) to US-41 W - US-41 E.,22671.0,SW 8th St,L,Miami,Miami-Dade,FL,33196,US,US/Eastern,KTMB,2021-09-10 11:53:00,90.0,90.0,54.0,30.0,10.0,CALM,0.0,0.0,Fair,True,False,False,False,False,False,False,False,False,False,False,False,False,Day,Day,Day,Day
C-489894,2,2019-08-06 07:02:28,2019-08-10 07:01:50,42.622129,-83.910422,42.61743,-83.99055,4.08688973341,Between Musson Rd/McGrain Ln and I-96 - Roadwork.,1500.0,Mallard Pond Dr,R,Howell,Livingston,MI,48855-6400,US,US/Eastern,KOZW,2019-08-06 06:58:00,71.0,71.0,81.0,28.8,10.0,WSW,5.0,0.0,Fair,False,False,False,False,False,False,False,False,False,False,False,False,False,Day,Day,Day,Day
C-489895,4,2018-12-13 17:09:03,2018-12-13 22:08:48,38.64889,-85.77468,38.6496,-85.69105,4.5130126005,Closed between US-31 and IN-3 - Closed due to roadwork.,3019.0,S US Highway 31,R,Scottsburg,Scott,IN,47170-6426,US,US/Eastern,KLOU,2018-12-13 16:53:00,57.9,,58.0,30.09,10.0,East,4.6,,Overcast,False,False,False,False,False,False,False,False,False,False,False,False,False,Day,Day,Day,Day
C-489896,2,2021-03-26 09:01:00,2021-03-26 10:02:00,38.58153,-109.551988,38.588818,-109.560765,0.691575847049,Slow traffic on County Hwy-13 - US-191 N - US-191 S from Center St (Main St/US-191) to UT-128 (US-191) due to roadwork.,550.0,N Main St,R,Moab,Grand,UT,84532-2131,US,US/Mountain,KCNY,2021-03-26 08:53:00,39.0,36.0,79.0,25.18,10.0,E,5.0,0.0,Fair,True,False,True,False,False,False,False,False,False,False,False,True,False,Day,Day,Day,Day
C-489897,2,2021-04-02 16:23:07,2021-04-03 00:57:02,47.543013,-111.277451,47.553311,-111.269584,0.800544415155,Roadwork on Old Havre Hwy (US-87) from Fas 386 (US-87) to US-87 N - US-87 S.,3120.0,US Highway 87,L,Great Falls,Cascade,MT,59404,US,US/Mountain,KGTF,2021-04-02 15:53:00,67.0,67.0,13.0,26.14,10.0,WSW,23.0,0.0,Fair / Windy,False,False,False,False,False,False,False,False,False,False,False,False,False,Day,Day,Day,Day
C-489898,2,2021-02-12 17:45:16,2021-02-14 10:38:20,35.006702000000004,-91.341741,35.004926,-91.258437,4.71610263781,Roadwork on State Highway 38 from W Main St / State Highway 306 to AR-38.,,Highway 38,R,Cotton Plant,Woodruff,AR,72036,US,US/Central,KSRC,2021-02-12 17:56:00,27.0,17.0,72.0,29.98,10.0,NNE,10.0,0.0,Cloudy,False,False,False,False,False,False,False,False,False,False,False,False,False,Night,Day,Day,Day
C-489899,2,2021-10-28 15:21:30,2021-10-28 17:22:56,29.403574,-95.034378,29.402373,-95.033218,0.108449596475,Slow traffic on FM-2004 from Holland Rd (I-45 Frontage) to I-45/FM-1764/Mall of Mainland Pkwy (I-45 Frontage) due to roadwork.,6406.0,Gulf Fwy,R,La Marque,Galveston,TX,77568-3085,US,US/Central,KGLS,2021-10-28 15:33:00,79.0,79.0,25.0,29.76,1.0,NW,25.0,0.0,Haze / Windy,False,False,False,False,False,False,False,False,False,False,False,True,False,Day,Day,Day,Day
C-489900,2,2021-01-29 14:00:00,2021-01-29 23:10:11,40.850488,-73.904951,40.85222,-73.903565,0.139885270436,Slow traffic from E Tremont Ave to E Burnside Ave due to roadwork.,1948.0,Grand Concourse,R,Bronx,Bronx,NY,10457-5221,US,US/Eastern,KLGA,2021-01-29 13:51:00,27.0,12.0,39.0,30.02,10.0,WNW,25.0,0.0,Fair / Windy,False,False,False,False,False,False,True,False,True,True,False,True,False,Day,Day,Day,Day
C-489901,2,2019-04-22 07:00:00,2021-05-09 07:45:00,27.082557,-80.281474,27.105967,-80.264025,1.94118937066,Construction on FL-76 EB near COUNTY HWY-711 Allow extra time.,2025.0,SW Kanner Hwy,L,Stuart,Martin,FL,34997-2619,US,US/Eastern,KSUA,2019-04-22 06:50:00,63.0,63.0,82.0,30.13,7.0,CALM,0.0,0.0,Partly Cloudy,False,False,False,False,False,False,False,False,False,False,False,False,False,Day,Day,Day,Day
C-489902,2,2021-08-27 13:18:42,2021-08-27 14:02:11,40.830047,-73.87275600000002,40.829228,-73.875518,0.155089513592,Slow traffic from I-95/Cross Bronx Expy (Westchester Ave) to I-895/Sheridan Expy (Westchester Ave) due to roadwork.,1226.0,Metcalf Ave,R,Bronx,Bronx,NY,10472-4304,US,US/Eastern,KLGA,2021-08-27 12:51:00,90.0,90.0,55.0,30.05,10.0,ENE,6.0,0.0,Mostly Cloudy,True,False,True,False,False,False,True,False,True,False,False,False,False,Day,Day,Day,Day
C-489903,2,2020-11-04 13:46:00,2020-11-04 18:53:04,25.794315,-80.238714,25.793269,-80.239747,0.0967100838764,Slow traffic on FL-9 from NW 25th Ave to NW South River Dr due to roadwork.,2598.0,NW 20th St,L,Miami,Miami-Dade,FL,33142-7104,US,US/Eastern,KMIA,2020-11-04 13:53:00,80.0,80.0,64.0,30.12,10.0,ENE,21.0,0.0,Mostly Cloudy / Windy,False,False,False,False,False,False,False,False,False,False,False,True,False,Day,Day,Day,Day
C-489904,2,2021-12-15 15:01:37,2021-12-15 17:10:56,26.258365,-80.186272,26.259784000000003,-80.18781800000002,0.137073819442,Slow traffic from NW 22nd St to NW 48th Ter due to roadwork.,2306.0,Lyons Rd,L,Pompano Beach,Broward,FL,33066,US,US/Eastern,KFXE,2021-12-15 14:53:00,80.0,80.0,71.0,30.12,10.0,E,16.0,0.0,Fair,False,False,False,False,False,False,False,False,False,False,False,False,False,Day,Day,Day,Day
C-489905,2,2020-04-17 09:21:29,2020-04-18 09:21:29,35.22247,-80.84746,35.22346,-80.84852,0.0908764283223999,Between I-277/US-74/Brevard St/Caldwell St and S Tryon St - Long-term roadwork.,598.0,S College St,R,Charlotte,Mecklenburg,NC,28202-1909,US,US/Eastern,KCLT,2020-04-17 08:52:00,54.0,54.0,62.0,29.47,10.0,S,6.0,0.0,Fair,False,False,True,False,False,False,False,False,True,False,False,True,False,Day,Day,Day,Day
C-489906,2,2021-02-24 20:01:00,2021-02-25 04:44:00,34.191576,-117.424273,34.187388,-117.430276,0.448822092099,Construction on I-15 SB near GLENN HELEN PKWY Drive with caution.,,I-15 S,R,San Bernardino,San Bernardino,CA,92407,US,US/Pacific,KSBD,2021-02-24 19:55:00,61.0,61.0,36.0,28.78,7.0,SW,5.0,0.0,Fair,False,False,False,False,False,False,False,False,False,False,False,False,False,Night,Night,Night,Night
C-489907,3,2017-05-08 19:31:12,2017-05-09 01:31:14,39.38757,-94.78964,39.34187,-94.74112,4.0850744901,Between MO-E/MO-U/Exit 25 and I-435/Exit 17 - Construction work.,,I-29 S,R,Platte City,Platte,MO,64079,US,US/Central,KMCI,2017-05-08 19:53:00,75.9,,52.0,29.87,10.0,SSW,8.1,,Clear,False,False,False,False,True,False,False,False,False,False,False,False,False,Day,Day,Day,Day
C-489908,2,2017-07-28 07:00:00,2017-08-25 18:01:00,44.271111,-105.502022,,,0.0,Road closed due to construction on Birch Ave both ways between Redwood St and Walnut St.,200.0,E Walnut St,L,Gillette,Campbell,WY,82718-6319,US,US/Mountain,KGCC,2017-07-28 06:53:00,63.0,,84.0,29.97,10.0,SE,5.8,,Clear,False,False,False,False,False,False,False,False,False,True,False,False,False,Day,Day,Day,Day
C-489909,2,2021-04-23 07:00:00,2021-12-13 17:30:27,40.777147,-74.045513,40.773025,-74.042199,0.333436363268,Stationary traffic on NJ-3 E from Harmon Meadow Blvd (NJ-3) to US-9/US-1/Tonnelle Ave (Penhorn Ave/NJ-3) due to roadwork.,,NJ-495 E,R,North Bergen,Hudson,NJ,07047,US,US/Eastern,KNYC,2021-07-31 21:51:00,71.0,71.0,51.0,29.86,10.0,CALM,0.0,0.0,Fair,False,False,True,False,True,False,False,False,False,False,False,True,False,Day,Day,Day,Day
C-489910,2,2020-12-02 19:41:32,2020-12-03 20:27:40,39.212211,-76.646558,39.211461,-76.650948,0.2406618809199999,Construction on MD-170 SB near BALTO BELTWAY Expect delays.,,N Camp Meade Rd,R,Linthicum Heights,Anne Arundel,MD,21090,US,US/Eastern,KBWI,2020-12-02 19:54:00,39.0,33.0,46.0,30.04,10.0,W,8.0,0.0,Fair,False,False,False,False,False,False,False,False,False,False,False,False,False,Night,Night,Night,Night
C-489911,2,2021-06-22 12:58:43,2021-06-22 14:59:58,25.734283,-80.274513,25.734892,-80.27323299999998,0.0900971258675,Stationary traffic on FL-976 from SW 40th St to Durango St due to roadwork.,1070.0,Bird Rd,L,Miami,Miami-Dade,FL,33146,US,US/Eastern,KMIA,2021-06-22 12:53:00,89.0,89.0,67.0,30.07,10.0,ESE,15.0,0.0,Mostly Cloudy,False,False,False,False,False,False,False,False,False,False,False,False,False,Day,Day,Day,Day
C-489912,2,2021-04-26 15:01:46,2021-05-01 23:59:00,40.825113,-73.87253,40.826491,-73.871868,0.101306616994,Construction on Bronx River Parkway northbound ramp to Watson Avenue (New York) Partial ramp closure. Not currently Scheduled,,Bronx River Pkwy N,R,Bronx,Bronx,NY,10472,US,US/Eastern,KLGA,2021-04-26 14:51:00,57.0,57.0,25.0,29.98,10.0,WNW,23.0,0.0,Fair / Windy,False,False,False,False,True,False,False,False,False,True,False,False,False,Day,Day,Day,Day
C-489913,2,2021-11-05 19:30:30,2021-11-05 19:55:30,39.751224,-105.016625,39.756868,-105.010329,0.513730203003,Slow traffic on US-85 N - US-87 N - I-25 N - US-6 E from 17th Ave/19th Ave/Exit 210 (I-25) to Speer Blvd/Exit 212 (I-25) due to roadwork.,,I-25 N,R,Denver,Denver,CO,80211,US,US/Mountain,KBJC,2021-11-05 19:55:00,59.0,59.0,16.0,24.46,10.0,W,8.0,0.0,Fair,False,False,False,False,False,False,False,False,False,False,False,True,False,Night,Night,Night,Night
C-489914,2,2021-06-17 08:58:40,2021-06-17 16:15:00,41.645747,-72.674356,41.650917,-72.671976,0.377756533725,ConnDOT: Road Work on I-91 Northbound between Exits 23 and 27 (6.5 miles) in effect today until 3:30 pm. The left lane is closed. Reported Thursday June 17 at 8:58 am.,,I-91 N,R,Rocky Hill,Hartford,CT,06067,US,US/Eastern,KHFD,2021-06-17 08:53:00,64.0,64.0,52.0,29.96,10.0,CALM,0.0,0.0,Fair,False,False,False,False,False,False,False,False,False,False,False,False,False,Day,Day,Day,Day
C-489915,2,2021-06-08 09:44:30,2021-06-08 10:08:00,40.859172,-73.931148,40.859939,-73.926778,0.234429048202,Slow traffic from Broadway / Nagle Ave to Sickles St due to roadwork.,2.0,Hillside Ave,L,New York,New York,NY,10040-2202,US,US/Eastern,KLGA,2021-06-08 09:51:00,84.0,84.0,63.0,30.03,10.0,S,8.0,0.0,Mostly Cloudy,False,False,True,False,False,False,False,False,False,True,False,True,False,Day,Day,Day,Day
C-489916,2,2017-06-17 11:57:06,2017-06-20 14:01:51,36.05269000000001,-79.7313,36.042,-79.77813,2.71838596784,Between McConnell Rd/Exit 130 and US-421/Exit 126/Exit 127 - Construction work.,,I-85 Bus S,R,Greensboro,Guilford,NC,27405,US,US/Eastern,KGSO,2017-06-17 11:54:00,77.0,,84.0,29.91,10.0,Variable,6.9,,Overcast,False,False,False,False,False,False,False,False,False,False,False,False,False,Day,Day,Day,Day
C-489917,4,2021-08-21 00:01:00,2021-09-05 00:44:00,34.262137,-118.32998,34.262399,-118.32932,0.0418104360905,Construction on HILLROSE ST EB near OLIVE GROVE AVE Road closed. Take alternate route.,9045.0,Hillrose St,R,Sunland,Los Angeles,CA,91040-1712,US,US/Pacific,KBUR,2021-08-21 00:53:00,65.0,65.0,75.0,28.98,10.0,SSE,6.0,0.0,Fair,False,False,False,False,False,False,False,False,False,False,False,False,False,Night,Night,Night,Night
C-489918,2,2021-07-19 18:09:58,2021-07-21 02:58:45,39.392943,-74.510982,39.390885,-74.509964,0.152230135601,Roadwork on Franklin Blvd/Exit 4 (Atlantic City Expy) from US-40/US-322/Black Horse Pike/Exit 2 (Atlantic City Expy) to Atlantic City Expy E.,,Atlantic City Expy E,R,Pleasantville,Atlantic,NJ,08232,US,US/Eastern,KACY,2021-07-19 17:54:00,82.0,82.0,60.0,29.88,9.0,WSW,7.0,0.0,Fair,False,False,False,False,False,False,False,False,False,False,False,False,False,Day,Day,Day,Day
C-489919,2,2017-05-31 09:01:01,2017-05-31 15:01:01,40.316487,-75.099716,40.31391,-75.10553,0.354293654664,At PA-313/Swamp Rd - Construction work.,3776.0,Route 202,L,Mechanicsville,Bucks,PA,18934-9527,US,US/Eastern,KDYL,2017-05-31 08:54:00,60.1,,100.0,30.04,10.0,Calm,,,Overcast,False,False,False,False,False,False,False,False,False,False,False,True,False,Day,Day,Day,Day
C-489920,2,2021-10-13 07:20:30,2021-10-13 09:27:08,26.097788,-80.13663000000003,26.100294,-80.137897,0.190159453624,Stationary traffic on US-1 N - FL-A1A - FL-5 from SE 18th Ct to SE 4th Ave due to roadwork.,1838.0,S Federal Hwy,L,Fort Lauderdale,Broward,FL,33316-2936,US,US/Eastern,KFLL,2021-10-13 06:53:00,75.0,75.0,100.0,29.92,10.0,NNW,5.0,0.0,Partly Cloudy,False,False,False,False,False,False,False,False,False,False,False,False,False,Day,Day,Day,Day
C-489921,1,2020-01-09 07:00:00,2020-02-20 17:01:00,39.747391,-104.922256,,,0.0,Road closed due to construction on Holly St both ways from 26th Ave to Montview Blvd.,2001.0,Holly St,L,Denver,Denver,CO,80207-3840,US,US/Mountain,KBKF,2020-01-09 06:58:00,27.0,18.0,59.0,24.13,10.0,SE,9.0,0.0,Cloudy,False,False,True,False,False,False,False,False,False,True,False,False,False,Night,Day,Day,Day
C-489922,4,2021-06-02 10:14:49,2021-06-15 09:21:10,35.355407,-92.959155,35.39412,-92.954421,2.68807692682,Construction on AR-105 NB near MM 4 Road closed. Take alternate route.,9998.0,State Route 164 E,R,Russellville,Pope,AR,72802,US,US/Central,KRUE,2021-06-02 09:53:00,66.0,66.0,93.0,29.53,10.0,W,8.0,0.0,Cloudy,False,False,False,False,False,False,False,False,False,False,False,False,False,Day,Day,Day,Day
C-489923,2,2020-12-10 16:01:00,2020-12-10 22:01:00,34.182194,-117.273356,34.182520000000004,-117.273895,0.0381639442659,Traffic Break closure due to Utility Work between Old Waterman Canyon Rd and Old Waterman Canyon Rd,,Rim of the World Hwy,R,San Bernardino,San Bernardino,CA,92404,US,US/Pacific,KSBD,2020-12-10 16:49:00,59.0,59.0,59.0,28.76,7.0,W,9.0,0.0,Mostly Cloudy,False,False,False,False,False,False,False,False,False,False,False,False,False,Day,Day,Day,Day
C-489924,2,2021-06-22 17:08:39,2021-06-22 19:12:39,25.948834,-80.148787,25.94753,-80.149316,0.0959050377021,Slow traffic on FL-860 from NE 188th St to NE 25th Pl due to roadwork.,18724.0,W Dixie Hwy,L,Miami,Miami-Dade,FL,33180-2618,US,US/Eastern,KHWO,2021-06-22 16:53:00,90.0,90.0,55.0,30.01,10.0,S,16.0,0.0,Fair,False,False,False,False,False,True,False,False,True,False,False,False,False,Day,Day,Day,Day
C-489925,2,2021-01-28 04:31:32,2021-01-28 18:00:00,39.388779,-79.459389,,,0.910000026226,Intermittent lane closures due to construction on MD-39 Hutton Rd both ways from Otterbein St to Ashby Ellis Rd.,4.0,E Ashby Ellis Rd,R,Oakland,Garrett,MD,21550-5200,US,US/Eastern,K2G4,2021-01-28 04:35:00,18.0,7.0,86.0,27.01,10.0,NW,8.0,,Cloudy,False,False,False,False,False,False,False,False,False,False,False,False,False,Night,Night,Night,Night
C-489926,2,2021-07-21 01:17:30,2021-07-21 02:54:00,47.277055,-118.055959,47.212965,-118.221549,8.94065808,Slow traffic on I-90 W - US-395 S from WA-23/Exit 245 (I-90) to Danekas Rd/Durry Rd/Exit 231 (I-90) due to roadwork.,,I-90 W,R,Sprague,Lincoln,WA,99032,US,US/Pacific,KSKA,2021-07-21 00:58:00,65.0,65.0,36.0,27.38,10.0,S,7.0,0.0,Fair,False,False,False,False,False,False,False,False,False,False,False,False,False,Night,Night,Night,Night
C-489927,2,2021-08-24 17:00:30,2021-08-24 19:08:33,28.56559600000001,-81.20740699999998,28.567025,-81.208415,0.116146430825,Slow traffic on FL-434 - FL-50 from Iroquois Trl to Crescent Blvd due to roadwork.,1627.0,N Alafaya Trl,L,Orlando,Orange,FL,32828,US,US/Eastern,KORL,2021-08-24 16:53:00,90.0,90.0,59.0,29.88,10.0,SSE,7.0,0.0,Fair,False,False,True,False,False,False,False,False,False,False,False,False,False,Day,Day,Day,Day
C-489928,2,2021-03-03 09:48:00,2021-03-04 10:38:40,40.316847,-76.920427,40.266362,-77.04991,7.6638363189,Construction on I-81 SB near MP 64 Allow extra time.,,I-81 S,R,Enola,Cumberland,PA,17025,US,US/Eastern,KCXY,2021-03-03 09:56:00,46.0,41.0,28.0,29.58,10.0,WSW,10.0,0.0,Fair,False,False,False,False,True,False,False,False,False,False,False,False,False,Day,Day,Day,Day
C-489929,2,2021-02-24 05:16:00,2021-02-24 21:17:53,25.771338,-80.238988,25.772302,-80.239809,0.0839397109783,Stationary traffic on FL-9 - FL-968 from SW 1st St to NW 27th Ct due to roadwork.,,SW 1st St,R,Miami,Miami-Dade,FL,33135,US,US/Eastern,KMIA,2021-02-24 04:53:00,72.0,72.0,87.0,30.07,10.0,ENE,5.0,0.0,Fair,True,False,False,False,False,False,False,False,False,False,False,False,False,Night,Night,Night,Night
C-489930,2,2021-12-24 17:38:30,2021-12-24 19:40:22,44.969459,-122.982378,44.969829,-122.983409,0.0565108007560999,Stationary traffic on OR-213 from Sandringham Dr NE to Stortz Ave NE due to roadwork.,4046.0,Silverton Rd NE,R,Salem,Marion,OR,97305-2051,US,US/Pacific,KSLE,2021-12-24 17:45:00,40.0,33.0,86.0,29.22,6.0,S,12.0,0.11,Light Rain,True,False,False,False,False,False,False,False,False,False,False,False,False,Night,Night,Day,Day
C-489931,2,2020-10-12 20:43:30,2020-10-12 23:53:00,28.401129,-81.828052,28.394584,-81.82641,0.463097847006,Stationary traffic on FL-33 from CR-561 (FL-33) to Bronson Ranch Rd (Commonwealth Ave/FL-33) due to roadwork.,3698.0,State Road 33,R,Clermont,Lake,FL,34714-8620,US,US/Eastern,KISM,2020-10-12 20:56:00,81.0,81.0,70.0,29.87,10.0,WNW,7.0,0.0,Fair,False,False,False,False,False,False,False,False,False,False,False,False,False,Night,Night,Night,Night
C-489932,2,2021-03-04 04:12:30,2021-08-31 21:59:00,38.814539,-104.730219,38.806219,-104.730319,0.574882462167,Slow traffic on CO-21 - US-24 W from Airport Rd (S Powers Blvd) to US-24/E Fountain Blvd (S Powers Blvd) due to roadwork.,1080.0,S Powers Blvd,L,Colorado Springs,El Paso,CO,80916,US,US/Mountain,KCOS,2021-07-22 16:54:00,88.0,88.0,28.0,24.02,10.0,ESE,21.0,0.0,Mostly Cloudy / Windy,False,False,True,False,False,False,False,False,False,False,False,True,False,Night,Night,Night,Night
C-489933,4,2021-10-21 20:54:04,2021-10-24 23:59:00,27.945308,-82.484031,27.94586,-82.48403499999998,0.0381403490226999,Closed road from W Kennedy Blvd / S Moody Ave to W North A St due to roadwork.,147.0,N Moody Ave,R,Tampa,Hillsborough,FL,33609,US,US/Eastern,KTPA,2021-10-21 20:53:00,77.0,77.0,69.0,30.07,10.0,NNW,6.0,0.0,Fair,False,False,False,False,False,False,False,False,False,False,False,False,False,Night,Night,Night,Night
C-489934,2,2020-09-13 16:24:30,2020-09-14 00:16:30,25.838089,-80.241376,25.841867,-80.241505,0.261158170357,Stationary traffic on FL-9 from Martin Luther King Blvd/62nd St (FL-9) to FL-934/79th St (FL-9) due to maintenance work.,6991.0,NW 27th Ave,L,Miami,Miami-Dade,FL,33147,US,US/Eastern,KOPF,2020-09-13 16:12:00,85.0,85.0,72.0,29.86,10.0,SE,13.0,0.0,Mostly Cloudy,False,False,False,False,False,False,False,False,False,False,False,False,False,Day,Day,Day,Day
C-489936,4,2020-07-12 03:52:30,2021-01-04 07:59:00,41.076654,-73.81906500000002,41.07362,-73.817805,0.219662417635,Bridge work on NY 100C Spur both directions ramp to/from (Greenburgh) D263671 - RAMP CLOSED UNTIL FURTHER NOTICE - Motorists are advised to follow posted detour. Plan travel accordingly delays may exist Continuous Sunday July 12th 2020 09:00 AM thru Sunday January 3rd 2021 11:59 PM all lanes closed,,Old Saw Mill River Rd,R,Tarrytown,Westchester,NY,10591,US,US/Eastern,KHPN,2020-07-12 03:56:00,69.0,69.0,84.0,29.19,10.0,W,7.0,0.0,Fair,False,False,False,False,False,False,False,False,False,False,False,False,False,Night,Night,Night,Day
C-489937,2,2021-12-14 15:24:05,2021-12-14 17:28:29,26.65064000000001,-80.205287,26.652055,-80.203263,0.1586825437879999,Slow traffic on FL-7 - US-441 N - FL-882 from Wellington Edge Blvd / Wellington Green Mall to Stonehaven Estates Dr due to roadwork.,10158.0,Forest Hill Blvd,L,Wellington,Palm Beach,FL,33414-6102,US,US/Eastern,KPBI,2021-12-14 15:53:00,77.0,77.0,79.0,30.19,10.0,ENE,12.0,0.0,Mostly Cloudy,False,False,False,False,False,False,False,False,False,False,False,False,False,Day,Day,Day,Day
C-489938,2,2019-09-08 17:59:21,2019-09-12 17:58:42,41.23201,-95.85747,41.23079,-95.84385,0.712724307092,Between 24th St/Exit 1 and I-29/I-80 Eastern Split - Construction work.,,I-29 S,R,Council Bluffs,Pottawattamie,IA,51501,US,US/Central,KOMA,2019-09-08 17:52:00,72.0,72.0,81.0,28.9,10.0,SSE,18.0,0.0,Cloudy,False,False,False,False,True,False,False,False,False,False,False,False,False,Day,Day,Day,Day
C-489939,2,2021-08-23 16:43:30,2021-08-23 17:17:30,39.445074,-83.81260999999998,39.44826,-83.807427,0.353457109305,Slow traffic on US-22 E - US-22 W - OH-3 from US-68/OH-134/South St (OH-3/Main St/Locust St/OH-73) to Progress Way (Rombach Ave/OH-73) due to roadwork.,598.0,E Side Dr,R,Wilmington,Clinton,OH,45177,US,US/Eastern,KILN,2021-08-23 16:54:00,90.0,90.0,52.0,28.85,10.0,WNW,9.0,0.0,Fair,False,False,True,True,False,False,False,False,False,False,False,True,False,Day,Day,Day,Day
C-489940,2,2021-05-25 00:00:00,2021-09-30 00:45:00,41.306841,-112.014807,41.306839,-112.011595,0.166709164459,Construction on UT-134 near 2700 N; U S 89 Allow extra time.,1479.0,W 2700 N,R,Ogden,Weber,UT,84404,US,US/Mountain,KOGD,2021-05-25 00:53:00,55.0,55.0,51.0,25.57,10.0,SSE,7.0,0.0,Mostly Cloudy,False,False,True,False,False,False,False,False,True,False,False,False,False,Night,Night,Night,Night
C-489941,2,2017-11-20 20:12:25,2017-11-21 02:12:25,38.986579,-76.533452,38.99269,-76.51861,0.901995186691,Between MD-2/Jennifer Rd/Exit 23 and MD-70/Rowe Blvd/Exit 24 - Construction work. Left lane blocked.,,John Hanson Hwy W,R,Annapolis,Anne Arundel,MD,21401,US,US/Eastern,KNAK,2017-11-20 20:54:00,45.0,,46.0,30.19,10.0,Calm,,,Clear,False,False,False,False,False,False,False,False,False,False,False,False,False,Night,Night,Night,Night
C-489942,4,2019-02-26 13:18:48,2019-02-26 18:18:37,40.47685,-80.60897,40.44714000000001,-80.61906,2.12018647539,Closed between OH-152 and Franklin St - Closed due to roadwork.,,OH-7 S,R,Toronto,Jefferson,OH,43964,US,US/Eastern,KPIT,2019-02-26 12:51:00,30.9,26.2,47.0,30.47,10.0,West,4.6,,Overcast,False,False,False,False,False,False,False,False,False,False,False,False,False,Day,Day,Day,Day
C-489943,2,2021-09-26 12:29:09,2021-09-26 14:46:01,41.154151,-73.424269,41.155428,-73.424846,0.0931985424726,Slow traffic on US-7 N - US-7 S from Valley View Rd / Merritt 7 to Glover Ave due to roadwork.,523.0,Main Ave,L,Norwalk,Fairfield,CT,06851-1004,US,US/Eastern,KBDR,2021-09-26 12:52:00,72.0,72.0,43.0,29.85,10.0,NW,15.0,0.0,Fair,False,False,False,False,False,False,False,False,False,False,False,False,False,Day,Day,Day,Day
C-489944,2,2021-06-11 11:36:02,2021-06-11 14:42:56,45.148092,-94.68974,45.081163,-94.324259,18.4105496809,Construction on US-12 EB near 515TH AVE Allow extra time.,54348.0,US Highway 12,L,Grove City,Meeker,MN,56243-5026,US,US/Central,KLJF,2021-06-11 13:45:00,82.0,82.0,62.0,28.59,10.0,W,7.0,0.0,Fair,False,False,False,False,False,False,False,False,False,False,False,False,False,Day,Day,Day,Day
C-489945,2,2021-11-29 12:00:30,2021-11-29 12:22:30,35.098814000000004,-92.085869,35.08238,-92.085754,1.13549987008,Stationary traffic on AR-5 from US-64 (AR-5) to AR-319 (AR-5) due to roadwork.,,Highway 5,R,El Paso,White,AR,72045,US,US/Central,KLRF,2021-11-29 11:56:00,58.0,58.0,37.0,29.81,10.0,S,10.0,0.0,Fair,False,False,False,False,False,False,False,False,False,False,False,False,False,Day,Day,Day,Day
C-489946,2,2021-02-09 14:01:30,2021-02-09 23:11:23,40.027723,-75.330496,40.02573,-75.327023,0.22962125772,Slow traffic on US-30 E - US-30 W from I-476 (E Lancaster Ave/US-30) to Railroad Ave (W Lancaster Ave/US-30) due to roadwork.,1046.0,E Lancaster Ave,R,Bryn Mawr,Delaware,PA,19010-1449,US,US/Eastern,KLOM,2021-02-09 13:55:00,32.0,32.0,91.0,29.76,10.0,CALM,0.0,0.0,Cloudy,False,False,False,False,False,False,False,False,False,False,False,False,False,Day,Day,Day,Day
C-489947,2,2021-07-10 12:52:30,2021-07-10 13:58:30,42.075851,-122.604248,42.060434,-122.607421,1.0775741491500002,Slow traffic on OR-99 S - Pacific Highway 1 S - I-5 S from OR-99/Exit 11 (I-5) to OR-99/Exit 1 (I-5) due to roadwork.,,I-5 S,R,Ashland,Jackson,OR,97520,US,US/Pacific,KMFR,2021-07-10 12:53:00,90.0,90.0,23.0,28.63,2.0,VAR,3.0,0.0,Smoke,False,False,False,False,False,False,False,False,False,False,False,False,False,Day,Day,Day,Day
C-489948,2,2020-12-21 19:23:53,2020-12-21 22:08:53,39.449297,-87.120369,39.449597,-87.131049,0.570186255985,Construction on I-70 WB near N COUNTY ROAD 200 Construction. Shoulder closed.,,I-70 W,R,Brazil,Clay,IN,47834,US,US/Eastern,KHUF,2020-12-21 19:53:00,46.0,40.0,47.0,29.27,10.0,WNW,14.0,0.0,Fair,False,False,False,False,True,False,False,False,False,False,False,False,False,Night,Night,Night,Night
C-489949,2,2019-03-28 00:01:00,2019-04-03 23:59:00,35.507671,-97.570976,,,0.0,Lane closed due to maintenance work on Linda Ave Southbound between 38th St and 36th St.,3133.0,NW 36th St,R,Oklahoma City,Oklahoma,OK,73112-6644,US,US/Central,KPWA,2019-03-28 00:53:00,61.0,,62.0,30.04,10.0,South,18.4,,Clear,False,False,False,False,False,False,False,False,False,False,False,False,False,Night,Night,Night,Night
C-489950,2,2019-04-03 08:55:17,2019-04-07 08:57:34,40.640021,-78.272589,40.682489,-78.229525,3.70193875422,Between PA-1008/Exit 41 and PA-350/Phillipsburg Pike/Exit 52 - Roadwork. Lane blocked.,,I-99 N,R,Tyrone,Blair,PA,16686,US,US/Eastern,KUNV,2019-04-03 08:53:00,45.0,40.0,53.0,28.7,10.0,W,9.0,0.0,Fair,False,False,False,False,False,False,False,False,False,False,False,False,False,Day,Day,Day,Day
C-489951,2,2021-02-12 05:42:00,2021-02-12 19:53:00,25.798807,-80.12937099999998,25.796673,-80.12868399999998,0.15351395346,Slow traffic on FL-A1A from Pine Tree Dr / Dade Blvd to 21st St due to roadwork.,324.0,23rd St,L,Miami Beach,Miami-Dade,FL,33139-1716,US,US/Eastern,KMIA,2021-02-12 05:53:00,73.0,73.0,87.0,29.97,10.0,SE,6.0,0.0,Fair,True,False,True,False,False,False,False,False,True,False,False,False,False,Night,Night,Night,Day
C-489952,4,2019-10-03 20:54:22,2019-10-04 01:52:18,34.435895,-119.644031,34.43595,-119.6416,0.138583687486,Closed at Ojai - Closed due to roadwork.,1251.0,E Valley Rd,R,Santa Barbara,Santa Barbara,CA,93108-2007,US,US/Pacific,KSBA,2019-10-03 20:53:00,59.0,59.0,83.0,29.89,8.0,CALM,0.0,0.0,Fair,False,False,True,False,False,False,False,False,False,True,False,False,False,Night,Night,Night,Night
C-489953,2,2021-10-11 07:01:00,2021-10-11 18:15:00,38.732261,-122.143272,38.722958,-122.139232,0.678661847021,One-Way Traffic closure due to Pavement Work between Indian Bingo East Entrance and Taylor Creek,14561.0,State Highway 16,L,Capay,Yolo,CA,95607,US,US/Pacific,KEDU,2021-10-11 06:55:00,57.0,57.0,29.0,29.89,10.0,NNW,18.0,0.0,Fair,False,False,False,False,False,False,False,False,False,False,False,False,False,Night,Day,Day,Day
C-489954,2,2020-12-23 15:10:00,2020-12-23 19:49:30,43.624853,-116.354623,43.619555,-116.3546,0.366058744412,Stationary traffic on ID-55 from E Ustick Rd (ID-55) to E Fairview Ave (ID-55) due to roadwork.,1749.0,N Eagle Rd,R,Meridian,Ada,ID,83646,US,US/Mountain,KMAN,2020-12-23 15:15:00,37.0,30.0,48.0,27.88,10.0,N,12.0,0.0,Fair,False,False,True,False,False,False,False,False,False,False,False,True,False,Day,Day,Day,Day
C-489955,2,2020-05-10 16:30:27,2020-05-16 11:53:55,35.13071,-80.92307,35.11293,-80.67524,14.0595418985,Between NC-49/Tryon St/Exit 1 and John St/Exit 52 - Construction work. Hard shoulder closed.,,I-485 S,R,Charlotte,Mecklenburg,NC,28273,US,US/Eastern,KCLT,2020-05-10 16:52:00,70.0,70.0,36.0,29.3,10.0,SW,12.0,0.0,Partly Cloudy,False,False,False,False,True,False,False,False,False,False,False,False,False,Day,Day,Day,Day
C-489957,2,2021-08-11 17:06:57,2021-08-11 17:37:57,40.65172000000001,-73.962542,40.652946,-73.959334,0.188292261883,Slow traffic from Caton Ave/Coney Island Ave (NY-27) to Flatbush Ave (NY-27) due to roadwork.,1834.0,Caton Ave,R,Brooklyn,Kings,NY,11226-2804,US,US/Eastern,KJRB,2021-08-11 16:51:00,87.0,87.0,67.0,29.86,10.0,CALM,0.0,0.0,Fair,False,False,False,False,False,False,False,False,False,False,False,True,False,Day,Day,Day,Day
C-489958,2,2020-11-03 12:59:30,2020-11-04 04:29:16,42.105584,-87.832677,42.105551,-87.828046,0.237401319763,Stationary traffic from Pfingsten Rd (Willow Rd) to Patriot Blvd (Willow Rd) due to roadwork.,,Lexington Ln,R,Glenview,Cook,IL,60026,US,US/Central,KPWK,2020-11-03 12:52:00,69.0,69.0,26.0,29.34,10.0,SSW,15.0,0.0,Fair,False,False,True,False,False,False,False,False,False,False,False,False,False,Day,Day,Day,Day
C-489959,2,2021-12-11 15:54:13,2021-12-11 16:17:16,27.342787,-82.546858,27.339052,-82.546962,0.2581428489739999,Stationary traffic on FL-45 - US-41 S from Dr Martin Luther King Way (US-41) to 3rd St/Fruitville Rd (US-41) due to roadwork.,709.0,N Tamiami Trl,L,Sarasota,Sarasota,FL,34236-4052,US,US/Eastern,KSRQ,2021-12-11 15:53:00,79.0,79.0,69.0,30.01,10.0,SSW,10.0,0.0,Fair,False,False,True,False,False,False,False,False,False,False,False,True,False,Day,Day,Day,Day
C-489960,2,2021-01-27 13:21:30,2021-01-28 01:53:07,25.928151,-80.200342,25.927882,-80.204369,0.250922075293,Slow traffic on FL-826 from FL-915/6th Ave (FL-826) to 2nd Ave (FL-826) due to roadwork.,16700.0,N Miami Ave,L,North Miami Beach,Miami-Dade,FL,33169-6033,US,US/Eastern,KHWO,2021-01-27 12:53:00,85.0,85.0,43.0,30.06,,SW,15.0,0.0,Fair,False,False,False,False,False,False,False,False,True,False,False,True,False,Day,Day,Day,Day
C-489961,2,2021-05-11 05:55:00,2021-05-11 09:29:42,28.321786,-82.501583,28.321229,-82.503132,0.1017718020119999,Stationary traffic on FL-52 from CR-583/Ehren Cutoff (FL-52) to US-41/FL-45/Land O Lakes Blvd (FL-52) due to roadwork.,18914.0,State Road 52,R,Land O Lakes,Pasco,FL,34637,US,US/Eastern,KBKV,2021-05-11 05:53:00,68.0,68.0,96.0,29.99,0.5,CALM,0.0,0.0,Fog,False,False,False,False,False,False,False,False,False,False,False,True,False,Night,Night,Day,Day
C-489962,4,2019-10-09 19:44:21,2019-10-09 21:44:04,35.23443,-111.81816,35.23911,-111.82803,0.644057662878,At Transwestern Rd/Exit 185 - Roadwork.,,I-40 W,R,Flagstaff,Coconino,AZ,86001,US,US/Mountain,KFLG,2019-10-09 19:57:00,56.0,56.0,37.0,23.1,10.0,SW,20.0,0.0,Fair,False,False,False,False,False,False,False,False,False,False,False,False,False,Night,Night,Night,Night
C-489963,2,2021-06-22 13:10:00,2021-07-22 17:36:46,25.79914,-80.127702,25.80587,-80.124578,0.503971309414,Slow traffic on FL-A1A from FL-A1A/5th St (FL-A1A) to Arthur Godfrey Rd/41st St (FL-A1A) due to roadwork.,2337.0,Collins Ave,R,Miami Beach,Miami-Dade,FL,33139-1608,US,US/Eastern,KMIA,2021-07-22 16:53:00,90.0,90.0,65.0,30.09,10.0,ESE,13.0,0.0,Partly Cloudy,False,False,False,False,False,False,False,False,True,False,False,True,False,Day,Day,Day,Day
C-489964,3,2018-10-30 06:00:00,2018-11-01 06:00:00,38.370388,-85.755966,,,0.0,Right lane closed due to construction on I-65 Northbound near Exit 7 IN-60.,,State Road 60,R,Sellersburg,Clark,IN,47172,US,US/Eastern,KLOU,2018-10-30 05:53:00,44.1,,89.0,30.12,10.0,Calm,,,Clear,False,False,False,False,False,False,False,False,False,False,False,False,False,Night,Night,Night,Night
C-489965,2,2021-09-09 07:34:08,2021-09-09 08:50:36,40.878852,-73.873488,40.880661,-73.877616,0.2492526093789999,Slow traffic from Bronx River Pkwy (E Gun Hill Rd) to Jerome Ave (Gun Hill Rd) due to roadwork.,328.0,E Gun Hill Rd,R,Bronx,Bronx,NY,10467-2208,US,US/Eastern,KLGA,2021-09-09 07:51:00,72.0,72.0,87.0,29.76,10.0,SE,5.0,0.01,Light Rain,False,False,False,False,False,False,False,False,False,False,False,True,False,Day,Day,Day,Day
C-489966,2,2020-11-05 23:42:27,2020-11-06 02:15:07,41.317222,-96.418515,41.318752,-96.408049,0.553305553841,Stationary traffic on NE-64 from County Road 7 to S 224th St due to roadwork.,,Ida St,R,Valley,Saunders,NE,68064,US,US/Central,KFET,2020-11-05 23:35:00,58.0,58.0,56.0,28.8,10.0,CALM,0.0,0.0,Fair,False,False,True,False,False,False,True,False,False,False,False,False,False,Night,Night,Night,Night
C-489967,2,2021-11-18 14:39:30,2021-11-18 18:46:00,40.003267,-75.222139,39.997069,-75.235299,0.8176533641429999,Slow traffic on US-1 N - US-1 S from Belmont Ave (E City Ave/US-1) to 54th St (Bala Cynwyd) (East) (W City Ave/US-1) due to roadwork.,4412.0,E City Ave,L,Philadelphia,Philadelphia,PA,19131-1508,US,US/Eastern,KPHL,2021-11-18 14:54:00,72.0,72.0,41.0,29.92,10.0,SSW,16.0,0.0,Fair,False,False,True,False,False,False,False,False,False,False,False,True,False,Day,Day,Day,Day
C-489968,3,2021-06-03 03:36:34,2021-06-03 06:01:00,34.065426,-117.805801,,,6.4600000381500005,Intermittent lane closures due to paving repairs on I-10 Eastbound from Exit 38A Grand Ave to CA-57.,,I-10 E,R,San Dimas,Los Angeles,CA,91773,US,US/Pacific,KPOC,2021-06-03 06:47:00,61.0,61.0,82.0,28.83,10.0,CALM,0.0,,Fair,False,False,False,False,False,False,False,False,False,False,False,False,False,Night,Night,Night,Night
C-489969,2,2021-09-05 14:33:10,2021-09-05 14:53:10,40.681815,-73.97582,40.686694,-73.97927800000002,0.382710354402,Slow traffic from Grand Army Plz (Grand Army Plz/Flatbush Ave) to Nevins St (Flatbush Ave) due to roadwork.,454.0,Dean St,R,Brooklyn,Kings,NY,11217-2118,US,US/Eastern,KJRB,2021-09-05 14:37:00,73.0,73.0,87.0,29.72,5.0,CALM,0.0,0.0,Light Rain,True,False,True,False,False,False,False,False,False,False,False,True,False,Day,Day,Day,Day
C-489970,2,2021-12-28 10:32:00,2021-12-28 13:26:23,29.529167,-95.808162,29.53173,-95.806587,0.200810717821,Slow traffic on TX-36 from Highway 36 S / Wehring Way to Fountains Dr due to roadwork.,3515.0,1st St,R,Rosenberg,Fort Bend,TX,77471-9156,US,US/Central,KSGR,2021-12-28 10:26:00,79.0,79.0,66.0,29.67,10.0,SSW,14.0,0.0,Mostly Cloudy,False,False,False,False,False,False,False,False,False,False,False,False,False,Day,Day,Day,Day
C-489971,3,2020-04-02 17:46:02,2020-04-11 09:39:57,42.34695,-87.89514,42.34836,-87.8951,0.0974431323327,At US-41/Skokie Hwy - Roadwork.,,Waukegan Rd,R,Waukegan,Lake,IL,60085,US,US/Central,KUGN,2020-04-02 17:55:00,47.0,44.0,61.0,29.33,10.0,E,7.0,0.0,Fair,False,False,False,False,False,False,False,False,False,False,False,False,False,Day,Day,Day,Day
C-489972,2,2021-10-08 11:16:30,2021-10-08 13:44:59,33.727246,-117.865191,33.726739,-117.867809,0.154466601404,Slow traffic from Orange Ave to E Stanford St due to roadwork.,1498.0,Orange Ave,R,Santa Ana,Orange,CA,92707-1840,US,US/Pacific,KSNA,2021-10-08 10:53:00,68.0,68.0,63.0,30.02,10.0,SSW,7.0,0.0,Mostly Cloudy,False,False,False,False,False,False,False,False,False,False,False,True,False,Day,Day,Day,Day
C-489973,2,2020-03-25 12:46:04,2020-03-25 17:30:00,42.36008,-73.42938000000002,42.39838,-73.505,4.67966108965,At Canaan Toll Barrier - Roadwork. Left lane closed.,,New York Trwy W,R,Canaan,Columbia,NY,12029,US,US/Eastern,KPSF,2020-03-25 12:54:00,40.0,36.0,65.0,28.81,10.0,E,6.0,0.0,Cloudy,False,False,False,False,False,False,False,False,False,False,False,False,False,Day,Day,Day,Day
C-489974,2,2020-11-25 21:06:50,2020-11-26 01:45:38,40.849324,-73.9389,40.849754,-73.94214000000002,0.171922983275,Stationary traffic from W 179th St / Fort Washington Ave to Manhattan due to roadwork.,717.0,W 179th St,R,New York,New York,NY,10033-6020,US,US/Eastern,KNYC,2020-11-25 20:51:00,53.0,53.0,59.0,30.11,10.0,VAR,3.0,0.0,Cloudy,False,False,False,False,False,False,False,False,True,False,False,True,False,Night,Night,Night,Night
C-489975,2,2021-02-23 00:00:00,2021-02-24 00:45:00,39.75646500000001,-105.00928,39.757388,-105.010524,0.0918324344355,Construction on 15TH ST WB near CENTRAL ST Expect delays.,1501.0,Platte St,L,Denver,Denver,CO,80202-1121,US,US/Mountain,KBJC,2021-02-23 00:15:00,48.0,42.0,24.0,24.35,10.0,WSW,16.0,0.0,Fair,True,False,True,False,False,False,False,False,False,False,False,True,False,Night,Night,Night,Night
C-489976,2,2021-07-21 01:45:00,2021-07-21 01:58:30,39.630468,-106.063068,39.618231,-106.07307,0.999099492304,Slow traffic on I-70 W - CO-9 S - US-6 W from US-6/Exit 216 (I-70) to CO-9/Exit 203 (I-70) due to roadwork.,,I-70 W,R,Dillon,Summit,CO,80435,US,US/Mountain,KCCU,2021-07-21 01:53:00,52.0,52.0,71.0,21.06,10.0,ENE,6.0,0.0,Fair,False,False,False,False,False,False,False,False,False,False,False,False,False,Night,Night,Night,Night
C-489977,2,2021-04-08 06:48:25,2021-05-22 06:56:02,41.658723,-74.67272700000002,41.657355,-74.670374,0.153908396752,Roadwork roadwork on NY 17 eastbound area of Exit 105B - NY 42 (Thompson) 1 Right lane and shoulder of 2 lanes closed for bridge work to occur from 4/8 through 10/29 during the hours of 7:00 AM to 5:00 PM. There will be daily lane closures in both directions wth no flagger personnel present. This work is not weather dependent. IR# 42113 D264091,,NY-17 E,R,Monticello,Sullivan,NY,12701,US,US/Eastern,KMSV,2021-04-08 06:56:00,39.0,39.0,86.0,28.61,10.0,CALM,0.0,0.0,Fair,False,False,False,False,False,False,False,False,False,False,False,False,False,Day,Day,Day,Day
C-489978,2,2020-11-20 02:06:28,2020-11-20 04:00:00,34.011936,-117.434059,,,7.630000114439999,Three lanes closed due to paving repairs on CA-60 Westbound from CA-91 to Valley Way.,,CA-60 E,R,Jurupa Valley,Riverside,CA,92509,US,US/Pacific,KRAL,2020-11-20 01:53:00,53.0,53.0,74.0,29.21,10.0,NE,5.0,0.0,Fair,False,False,False,False,False,False,False,False,False,False,False,False,False,Night,Night,Night,Night
C-489979,2,2021-04-22 07:00:00,2021-04-23 23:59:59,37.985105,-75.85279399999997,37.984718,-75.85324,0.0361232986698,Storm Water Management Work. SOMERSET COUNTY: MD-413 NORTH/SOUTH FROM COUNTY MILEPOINTS .71 TO COUNTY MILEPOINTS .71,206.0,Maryland Ave,L,Crisfield,Somerset,MD,21817-1109,US,US/Eastern,KWAL,2021-04-22 06:54:00,38.0,33.0,60.0,29.98,10.0,WNW,7.0,0.0,Fair,False,False,True,False,False,False,False,False,False,False,False,False,False,Day,Day,Day,Day
C-489980,2,2018-05-14 16:39:30,2018-05-31 06:10:15,35.309632,-89.821286,35.23452,-89.8959,6.68194676444,Between TN-205/Millington Arlington Rd and TN-204/WK Singleton Pky - Construction work. Lane blocked.,,Austin Peay Hwy,R,Arlington,Shelby,TN,38002,US,US/Central,KNQA,2018-05-14 16:50:00,91.4,,43.0,29.92,10.0,SSW,3.5,,Scattered Clouds,False,False,False,False,False,False,False,False,False,False,False,False,False,Day,Day,Day,Day
C-489982,2,2021-11-02 13:59:00,2021-11-11 16:48:19,32.954246000000005,-96.840212,32.954996,-96.838735,0.100090022442,Slow traffic from Oak St to Arapaho Rd due to roadwork.,4178.0,Belt Line Rd,R,Addison,Dallas,TX,75001-4354,US,US/Central,KADS,2021-11-02 13:47:00,54.0,54.0,94.0,29.57,7.0,NE,8.0,0.0,Light Rain,False,False,False,False,False,False,False,False,False,False,False,False,False,Day,Day,Day,Day
C-489983,4,2018-08-29 22:43:49,2018-08-30 00:43:49,39.997754,-82.929333,39.99775,-82.92934,0.000462235872908,At International Gtwy - Roadwork.,,I-670 W,R,Columbus,Franklin,OH,43219,US,US/Eastern,KCMH,2018-08-29 22:51:00,75.9,,91.0,30.06,10.0,SE,4.6,,Mostly Cloudy,False,False,False,False,False,False,False,False,False,False,False,False,False,Night,Night,Night,Night
C-489984,2,2017-11-20 11:07:54,2017-11-30 03:07:54,37.41109,-121.89087,37.412311,-121.886718,0.2429785680930001,At Landess Ave - Roadwork.,712.0,Montague Expy,R,Milpitas,Santa Clara,CA,95035-6816,US,US/Pacific,KSJC,2017-11-20 10:53:00,66.9,,45.0,30.1,10.0,SE,10.4,,Overcast,False,False,True,False,False,False,False,False,False,False,False,True,False,Day,Day,Day,Day
C-489985,4,2019-05-03 13:44:15,2019-05-03 18:43:58,38.43707,-87.09184,38.39168,-86.93915,8.84114565118,Closed between IN-257/IN-356 and US-231/IN-45 (Jasper) - Closed due to roadwork.,,N State Road 257,R,Otwell,Pike,IN,47564,US,US/Eastern,KHNB,2019-05-03 13:35:00,61.0,61.0,99.0,29.49,5.0,NW,6.0,0.0,Cloudy,False,False,False,False,False,False,False,False,False,False,False,True,False,Day,Day,Day,Day
C-489986,2,2018-07-06 11:03:38,2018-11-13 15:21:31,40.16205,-78.25578,40.14424,-78.295362,2.42562950319,Between Six Mile Run Rd and N Woodcock Valley Rd - Roadwork. Lane blocked.,,Six Mile Run Rd,R,Saxton,Bedford,PA,16678,US,US/Eastern,KAOO,2018-07-06 10:53:00,75.0,,82.0,30.17,10.0,NW,5.8,,Mostly Cloudy,False,False,False,False,False,False,False,False,False,True,False,False,False,Day,Day,Day,Day
C-489987,2,2021-07-21 16:42:26,2021-07-21 16:55:26,35.521367,-93.85972,35.518575,-93.847877,0.6933789131029999,Slow traffic on I-40 E from AR-23/Exit 35 (I-40) to AR-219/Exit 37 (I-40) due to roadwork.,,I-40 E,R,Ozark,Franklin,AR,72949,US,US/Central,KFSM,2021-07-21 16:53:00,88.0,88.0,45.0,29.55,10.0,E,6.0,0.0,Fair,False,False,False,False,False,False,False,False,False,False,False,False,False,Day,Day,Day,Day
C-489988,2,2021-12-21 14:20:30,2021-12-21 14:44:30,25.93059,-80.12645,25.930229,-80.130673,0.263589430392,Stationary traffic on FL-826 from FL-A1A/Collins Ave (FL-826) to US-1/FL-5/Biscayne Blvd (FL-826) due to roadwork.,,Sunny Isles Blvd,R,North Miami Beach,Miami-Dade,FL,33160,US,US/Eastern,KHWO,2021-12-21 13:53:00,74.0,74.0,79.0,29.76,10.0,SW,17.0,0.0,Partly Cloudy,False,False,False,False,False,False,False,False,False,False,False,False,False,Day,Day,Day,Day
C-489989,2,2021-12-04 22:22:30,2021-12-04 22:54:30,45.005669,-96.638627,45.087573,-96.639198,5.65909608365,Slow traffic on SD-15 - SD-20 from SD-20 (South) (SD-15) to SD-20 (North) (SD-15) due to roadwork.,47801.0,SD Highway 20,R,Revillo,Grant,SD,57259-6518,US,US/Central,KDXX,2021-12-04 22:15:00,30.0,18.0,86.0,28.92,10.0,ESE,18.0,0.0,Mostly Cloudy,False,False,False,False,False,False,False,False,False,False,False,False,False,Night,Night,Night,Night
C-489990,2,2020-03-12 06:01:00,2020-03-12 18:01:00,38.70694,-122.05746,38.70734,-122.04847,0.485503092666,Between Capay Canal Bridge No and Co Rd 85 - Lt - Maintenance work.,23974.0,State Highway 16,R,Capay,Yolo,CA,95607-9706,US,US/Pacific,KEDU,2020-03-12 05:55:00,48.0,46.0,87.0,29.87,10.0,NNW,5.0,0.0,Fair,False,False,False,False,False,False,False,False,False,False,False,False,False,Night,Night,Night,Day
C-489991,4,2020-06-19 10:50:46,2020-06-19 15:49:22,35.22172,-80.84858,35.22253,-80.84957,0.0790865099459,Closed between S College St and Tryon St - Closed due to roadwork.,631.0,E Hill St,L,Charlotte,Mecklenburg,NC,28202,US,US/Eastern,KCLT,2020-06-19 10:52:00,73.0,73.0,79.0,29.33,10.0,WSW,5.0,0.0,Mostly Cloudy,False,False,False,False,False,False,False,False,False,False,False,True,False,Day,Day,Day,Day
C-489992,2,2021-10-15 18:29:30,2021-10-15 21:50:44,39.873825,-75.57986600000002,39.870309000000006,-75.590112,0.595159120137,Stationary traffic on US-1 S - PA-100 from Ring Rd to Mill Rd due to roadwork.,1509.0,Baltimore Pike,L,Chadds Ford,Delaware,PA,19317-7370,US,US/Eastern,KOQN,2021-10-15 18:35:00,72.0,72.0,83.0,29.2,10.0,CALM,0.0,0.0,Fair,False,False,False,False,False,False,False,False,False,False,False,False,False,Night,Day,Day,Day
C-489993,4,2018-07-13 04:50:13,2018-07-13 06:50:12,39.747918,-84.2056,39.74201,-84.20491,0.4098465119389999,At US-35/Albany St/Exit 52 - Roadwork.,,I-75 S,R,Dayton,Montgomery,OH,45402,US,US/Eastern,KFFO,2018-07-13 04:56:00,63.0,,88.0,30.16,10.0,North,3.5,0.0,Clear,False,False,False,False,False,False,False,False,False,False,False,False,False,Night,Night,Night,Day
C-489994,2,2019-10-09 23:20:43,2019-10-10 05:01:00,32.873058,-117.22866100000002,,,0.8199999928470001,Entry ramp to I-5 Northbound from La Jolla Village Dr Westbound closed due to construction work.,,I-5 N,R,La Jolla,San Diego,CA,92037,US,US/Pacific,KMYF,2019-10-09 22:53:00,64.0,64.0,70.0,29.44,10.0,CALM,0.0,0.0,Cloudy,False,False,False,False,False,False,False,False,False,False,False,False,False,Night,Night,Night,Night
C-489995,2,2021-04-24 06:21:00,2021-04-24 13:50:33,26.031757,-80.143288,26.033633,-80.143839,0.134057217764,Slow traffic on US-1 N - FL-822 - US-1 S - FL-A1A - FL-5 from Thomas St to N 19th Ave due to roadwork.,2221.0,N Federal Hwy,R,Hollywood,Broward,FL,33020-2229,US,US/Eastern,KFLL,2021-04-24 05:53:00,76.0,76.0,79.0,29.99,10.0,ESE,15.0,0.0,Fair,False,False,False,False,False,False,False,False,False,False,False,False,False,Night,Night,Day,Day
C-489996,2,2020-11-17 12:55:30,2020-11-22 05:21:00,40.719918,-73.993002,40.719166,-73.990551,0.13846876119,Slow traffic from Bowery (Delancey St) to Allen St (Delancey St) due to roadwork.,,Chrystie St,R,New York,New York,NY,10002,US,US/Eastern,KJRB,2020-11-17 12:51:00,48.0,43.0,42.0,29.79,10.0,W,10.0,0.0,Cloudy,True,False,True,False,False,False,True,False,True,False,False,True,False,Day,Day,Day,Day
C-489997,2,2021-03-19 09:01:00,2021-03-19 15:46:00,37.311726,-122.276598,37.312246,-122.275898,0.0526364180906999,One-Way Traffic closure due to Utility Work between Pescadero Rd and Pescadero Rd,,La Honda Rd,R,La Honda,San Mateo,CA,94020,US,US/Pacific,KPAO,2021-03-19 08:47:00,52.0,52.0,94.0,30.19,10.0,CALM,0.0,,Mostly Cloudy,False,False,False,False,False,False,False,False,False,False,False,False,False,Day,Day,Day,Day
C-489998,2,2021-03-17 01:54:00,2021-04-27 15:48:34,30.145813,-82.035026,30.155129,-82.03157399999998,0.675908618084,Stationary traffic on US-301 N - FL-200 from FL-200/CR-225/Lake St (US-301) to Max Middleburg Rd (US-301) due to roadwork.,,FL-200,R,Jacksonville,Clay,FL,32234,US,US/Eastern,KVQQ,2021-04-27 03:35:00,,,,30.03,3.0,CALM,0.0,0.0,Fair,False,False,False,False,False,False,False,False,False,False,False,False,False,Night,Night,Night,Night
C-489999,1,2020-11-04 00:00:00,2020-11-13 00:00:00,47.91119000000001,-121.908234,,,10.6000003815,No through traffic allowed due to construction on Woods Creek Rd both ways between Wagner Rd and Bollenbaugh Hill Rd.,9574.0,Woods Creek Rd,L,Monroe,Snohomish,WA,98272-7840,US,US/Pacific,KPAE,2020-11-04 00:53:00,58.0,58.0,93.0,29.24,10.0,S,30.0,0.01,Cloudy / Windy,False,False,False,False,False,False,False,False,False,False,False,False,False,Night,Night,Night,Night
C-490000,2,2021-08-12 09:38:09,2021-08-29 19:36:00,40.716383,-73.980997,40.717776,-73.985541,0.256690460111,Stationary traffic from S 5th St/S 4th St/Roebling St (Williamsburg Bridge) to Delancey St (Williamsburg Bridge (Inner Lanes)) due to roadwork.,,Williamsburg Brg W,R,New York,New York,NY,10002,US,US/Eastern,KJRB,2021-08-29 18:51:00,74.0,74.0,82.0,30.01,10.0,CALM,0.0,0.0,Cloudy,True,False,True,False,False,False,True,False,False,False,False,True,False,Day,Day,Day,Day
C-490001,2,2021-06-25 21:37:00,2021-06-25 23:39:11,25.685213,-80.417862,25.686252,-80.416521,0.110116071152,Slow traffic on FL-825 - FL-94 from SW 139th Ave to SW 86th St due to roadwork.,13712.0,SW 88th St,L,Miami,Miami-Dade,FL,33186-1302,US,US/Eastern,KTMB,2021-06-25 21:53:00,82.0,82.0,76.0,30.04,10.0,ENE,6.0,0.0,Fair,False,False,True,False,False,False,False,False,True,False,False,False,False,Night,Night,Night,Day
C-490002,2,2021-03-30 05:28:05,2021-03-30 15:30:24,25.890907,-80.171654,25.890274,-80.186465,0.92166752177,Slow traffic on FL-922 from US-1/Biscayne Blvd (Connecting Road/123rd St/NE North Miami Blvd/FL-922) to FL-915/NE 6th Ave (NE 125th St/North Miami Blvd/FL-922) due to roadwork.,1313.0,NE 125th St,L,North Miami,Miami-Dade,FL,33161-5937,US,US/Eastern,KOPF,2021-03-30 05:05:00,75.0,75.0,82.0,30.1,10.0,ENE,6.0,0.0,Partly Cloudy,False,False,False,False,False,False,False,False,True,False,False,True,False,Night,Night,Night,Night
C-490003,4,2018-12-24 20:01:45,2019-06-03 05:30:00,30.31674000000001,-81.67647,30.31674000000001,-81.67647,0.0,At Fuller Warren Brg - Entry ramp closed. Construction work.,712.0,Riverside Ave,L,Jacksonville,Duval,FL,32204-3335,US,US/Eastern,KNIP,2018-12-24 19:53:00,57.0,,83.0,30.24,10.0,NE,3.5,,Scattered Clouds,False,False,False,False,False,False,False,False,False,False,False,False,False,Night,Night,Night,Night
C-490004,2,2021-05-07 09:40:00,2021-05-07 15:30:00,36.361456,-85.671802,36.361548,-85.672699,0.0503126081074,State Route 262 both directions in Jackson County - Between HIDDEN COVE LN. and SR-53 (GRANVILLE HWY.) RT. &amp; LT. resurfacing work will cause a reduction in lanes from two to one lane today from 9:40AM 05/07/2021 to 3:30PM 05/07/2021 (Central Time Zone).,470.0,Gladdice Hwy,R,Gainesboro,Jackson,TN,38562-7186,US,US/Central,KSRB,2021-05-07 09:35:00,54.0,54.0,67.0,29.06,10.0,NW,5.0,0.0,Fair,False,False,False,False,False,False,False,False,False,False,False,False,False,Day,Day,Day,Day
C-490005,2,2019-05-07 10:04:27,2019-05-11 10:03:47,40.713645,-74.013759,40.72583,-74.01093,0.854838080497,Between Brooklyn Battery Tunl and Canal St - Construction work.,138.0,West St,R,New York,New York,NY,10007,US,US/Eastern,KJRB,2019-05-07 10:06:00,61.0,61.0,63.0,30.05,10.0,CALM,0.0,0.0,Partly Cloudy,False,False,False,False,False,False,False,False,False,False,False,True,False,Day,Day,Day,Day
C-490006,2,2020-06-17 15:42:45,2020-06-19 03:42:45,41.94498,-71.43632,41.95049,-71.4064,1.58397718505,Between RI-146/Exit 9 and RI-114/Exit 11 - Roadwork. Roadway reduced to 2 lanes.,,I-295 N,R,Cumberland,Providence,RI,02864,US,US/Eastern,KSFZ,2020-06-17 15:56:00,81.0,81.0,45.0,29.75,10.0,SE,7.0,0.0,Fair,False,False,False,False,True,False,False,False,False,False,False,False,False,Day,Day,Day,Day
C-490007,2,2021-12-02 15:51:07,2021-12-02 18:25:58,27.163249,-80.300853,27.161441,-80.301698,0.135290544687,Stationary traffic on FL-714 - County Hwy-714 from SW High Meadows Ave (Massey Blvd/Massey Downs Blvd) to Florida's Tpke (Massey Blvd/Monterey Rd/Massey Downs Blvd) due to roadwork.,3499.0,SW Martin Downs Blvd,R,Palm City,Martin,FL,34990-8157,US,US/Eastern,KSUA,2021-12-02 15:47:00,73.0,73.0,57.0,30.08,7.0,NNE,10.0,0.0,Fair,False,False,False,False,False,False,False,False,False,False,False,False,False,Day,Day,Day,Day
C-490008,2,2021-12-03 12:00:00,2021-12-03 14:02:36,33.503967,-111.926181,33.50221,-111.925473,0.128066956871,Slow traffic from E Highland Ave to N Brown Ave due to roadwork.,4588.0,N Scottsdale Rd,L,Scottsdale,Maricopa,AZ,85251-7604,US,US/Mountain,KPHX,2021-12-03 11:51:00,73.0,73.0,27.0,28.83,10.0,SE,5.0,0.0,Fair,False,False,True,False,False,False,False,False,True,False,False,True,False,Day,Day,Day,Day
C-490009,2,2018-04-11 20:54:41,2018-04-12 02:54:41,33.58246,-111.88622,33.58238,-111.830701,3.1957397776,Between 90th St and 118th St - Roadwork.,10698.0,N 90th St,L,Scottsdale,Maricopa,AZ,85258,US,US/Mountain,KSDL,2018-04-11 20:53:00,84.9,,10.0,29.75,10.0,West,3.5,,Clear,False,False,True,False,False,False,False,False,False,False,False,True,False,Night,Night,Night,Night
C-490010,3,2018-11-24 16:30:00,2018-11-24 21:00:00,39.451332,-89.780579,,,12.0200004578,Road closed due to construction work on IL-4 3rd St both ways between Jackson St and Mound St.,598.0,N 3rd St,R,Girard,Macoupin,IL,62640-1155,US,US/Central,K3LF,2018-11-24 16:35:00,50.2,,76.0,29.72,10.0,SSW,4.6,,Clear,False,False,False,False,False,False,False,False,False,False,False,False,False,Day,Day,Day,Day
C-490011,2,2021-09-19 19:54:00,2021-09-19 21:59:37,40.920452,-73.86546,40.92106,-73.862246,0.172975508746,Slow traffic on County Hwy-471 from Clark St to Gaffney Pl due to roadwork.,572.0,Central Park Ave,R,Yonkers,Westchester,NY,10704,US,US/Eastern,KLGA,2021-09-19 19:51:00,73.0,73.0,44.0,30.15,10.0,N,8.0,0.0,Fair,False,False,True,False,False,False,False,False,False,False,False,False,False,Night,Night,Day,Day
C-490012,2,2021-09-29 16:16:30,2021-09-29 18:19:22,33.581972,-112.113245,33.582062,-112.117564,0.248685335326,Slow traffic from N 19th Ave (W Peoria Ave) to I-17/Black Canyon Fwy (W Peoria Ave) due to roadwork.,2488.0,W Peoria Ave,R,Phoenix,Maricopa,AZ,85029-4723,US,US/Mountain,KDVT,2021-09-29 15:53:00,83.0,83.0,36.0,28.2,10.0,VAR,5.0,0.0,Fair,False,False,True,False,False,False,False,False,False,False,False,True,False,Day,Day,Day,Day
C-490013,4,2019-07-03 11:49:50,2019-07-03 13:49:21,43.60812,-116.59906,43.610631,-116.595789,0.238491683026,At I-84/US-30 - Roadwork.,,ID-55,R,Nampa,Canyon,ID,83687,US,US/Mountain,KMAN,2019-07-03 11:55:00,70.0,,40.0,27.31,10.0,,,0.0,Fair,False,False,False,False,False,False,False,False,False,False,False,False,False,Day,Day,Day,Day
C-490014,4,2021-08-31 01:24:00,2021-09-07 23:59:00,32.771137,-96.758216,32.771273,-96.758052,0.0133819765623999,Closed road at Robert B Cullum Blvd due to roadwork.,,S Fitzhugh Ave,R,Dallas,Dallas,TX,75210,US,US/Central,KDAL,2021-08-31 01:53:00,85.0,85.0,63.0,29.27,10.0,SW,3.0,0.0,Fair,False,False,True,False,False,False,False,False,False,False,False,True,False,Night,Night,Night,Night
C-490015,2,2021-10-18 17:06:00,2021-10-18 17:47:30,42.074066,-88.335587,42.065133,-88.33572,0.617249212819,Stationary traffic on County Hwy-34 from I-90/Northwest Tollway (Randall Rd) to CR-21/Big Timber Rd (N Randall Rd) due to roadwork.,1646.0,N Randall Rd,R,Elgin,Kane,IL,60123-7800,US,US/Central,KDPA,2021-10-18 16:52:00,70.0,70.0,39.0,29.25,10.0,SW,7.0,0.0,Fair,False,False,False,False,False,False,False,False,False,False,False,True,False,Day,Day,Day,Day
C-490016,2,2021-02-23 04:52:57,2021-03-04 04:27:22,31.816941,-96.834318,31.814187,-96.837157,0.252964751329,Roadwork from NW 4th St / County Road 3360 to Hubbard-Mount Calm.,2432.0,State Highway 31,R,Hubbard,Hill,TX,76648,US,US/Central,KCNW,2021-02-23 06:55:00,41.0,35.0,81.0,29.6,10.0,S,9.0,,Fair,False,False,False,False,False,False,False,False,False,False,False,False,False,Night,Night,Night,Night
C-490017,2,2021-09-29 17:15:00,2021-10-06 17:50:30,40.760731,-111.885326,40.76001,-111.888302,0.163520728881,Slow traffic on UT-186 - US-89 N - US-89 S from S 200 E to E 500 S due to roadwork.,404.0,S 200 E,R,Salt Lake City,Salt Lake,UT,84111,US,US/Mountain,KSLC,2021-09-29 16:54:00,60.0,60.0,32.0,25.81,10.0,WNW,9.0,0.0,Mostly Cloudy,False,False,True,False,False,False,True,False,True,False,False,True,False,Day,Day,Day,Day
C-490018,3,2020-06-24 00:02:45,2020-07-02 00:00:33,25.88658,-80.13481,25.88949,-80.1518,1.07506436357,At 123rd St - Construction work. Lane blocked.,,E Broadview Dr,R,Miami Beach,Miami-Dade,FL,33154,US,US/Eastern,KOPF,2020-06-25 00:53:00,82.0,82.0,82.0,30.06,10.0,ESE,5.0,0.0,Fair,False,False,False,False,False,False,False,False,True,False,False,True,False,Night,Night,Night,Night
C-490019,2,2020-06-01 19:47:19,2020-06-16 12:13:13,42.03383,-76.38354,42.03372,-76.38033,0.164909719225,At RT-96/Susquehanna River Bridge Rd - Roadwork. Lane blocked.,2451.0,State Route 17C,L,Barton,Tioga,NY,13734-2005,US,US/Eastern,KELM,2020-06-01 19:53:00,66.0,66.0,32.0,29.08,10.0,WNW,9.0,0.0,Fair,False,False,False,False,False,False,False,False,False,False,False,False,False,Day,Day,Day,Day
C-490020,2,2019-04-01 05:36:00,2020-09-24 09:30:08,47.393699,-121.474124,47.428389,-121.419974,3.48648905492,I-90 milepost 34 to 136 North Bend to Vantage: There are a number of maintenance and construction work zones between North Bend and Vantage. Motorists will experience minor delays this week due to lane closures. Pay attention and slow down as you enter and exit our work zones.,,I-90 E,R,North Bend,King,WA,98045,US,US/Pacific,KRNT,2019-04-01 05:53:00,43.0,43.0,76.0,30.04,10.0,CALM,0.0,0.0,Mostly Cloudy,False,False,False,False,False,False,False,False,False,False,False,False,False,Night,Night,Night,Day
C-490021,2,2021-12-01 17:21:00,2021-12-01 17:41:30,41.647071,-91.538279,41.648923,-91.540149,0.1602977513189999,Slow traffic on US-6 W - IA-1 from CR-X16/American Legion Rd SE (US-6) to IA-1/W Burlington St (US-6) due to roadwork.,,US Highway 6,R,Iowa City,Johnson,IA,52246,US,US/Central,KIOW,2021-12-01 16:52:00,50.0,50.0,63.0,29.12,10.0,SSW,5.0,0.0,Fair,False,False,False,False,False,False,False,False,False,False,False,False,False,Night,Night,Day,Day
C-490022,2,2021-04-14 13:51:30,2021-04-14 18:01:25,25.891254,-80.186559,25.889942,-80.18644499999998,0.0909271000876,Slow traffic on FL-915 from FL-916/NE 135th St (NE 6th Ave/FL-915) to NE 115th St (NE 6th Ave/FL-915) due to roadwork.,12598.0,NE 6th Ave,L,North Miami,Miami-Dade,FL,33161-4709,US,US/Eastern,KOPF,2021-04-14 13:53:00,82.0,82.0,49.0,30.08,10.0,E,16.0,0.0,Fair,False,False,False,False,False,False,False,False,True,False,False,False,False,Day,Day,Day,Day
C-490023,2,2021-06-29 15:56:07,2021-06-29 19:11:54,26.255521,-80.186273,26.260823,-80.18628100000002,0.366333645838,Stationary traffic from Coconut Creek Pkwy (46th Ave/Lyons Rd) to FL-834/W Sample Rd/NW 36th St (Lyons Rd) due to roadwork.,2056.0,Lyons Rd,L,Pompano Beach,Broward,FL,33066,US,US/Eastern,KFXE,2021-06-29 15:53:00,80.0,80.0,81.0,30.1,10.0,E,6.0,0.05,Thunder in the Vicinity,False,False,False,False,False,False,False,False,False,False,False,False,False,Day,Day,Day,Day
C-490024,4,2020-11-09 16:00:00,2020-11-12 01:45:00,38.252896,-87.581183,38.252785,-87.580075,0.0606052114397,Construction on IN-168 EB near W ST Road closed. Take alternate route.,303.0,W Park St,L,Fort Branch,Gibson,IN,47648-8070,US,US/Central,KEVV,2020-11-09 15:54:00,76.0,76.0,58.0,29.66,10.0,SW,9.0,0.0,Mostly Cloudy,False,False,True,False,False,False,True,False,False,False,False,False,False,Day,Day,Day,Day
C-490025,2,2021-03-09 12:11:45,2021-03-10 12:59:46,39.164759,-76.724314,39.147666,-76.692755,2.06245327171,Construction on MD-100 EB near EXIT 8 Drive with caution.,,MD-100 E,R,Hanover,Anne Arundel,MD,21076,US,US/Eastern,KBWI,2021-03-09 11:54:00,69.0,69.0,23.0,30.2,10.0,W,17.0,0.0,Mostly Cloudy,False,False,False,False,False,False,False,False,False,False,False,False,False,Day,Day,Day,Day
C-490026,2,2021-10-05 11:32:30,2021-10-05 11:55:30,29.724636,-95.345806,29.726844,-95.342888,0.232224886461,Slow traffic from Holman St to State Highway 35 due to roadwork.,3319.0,Cullen Blvd,L,Houston,Harris,TX,77204,US,US/Central,KMCJ,2021-10-05 11:53:00,86.0,86.0,41.0,29.96,10.0,N,10.0,0.0,Fair,False,False,False,False,False,False,False,False,False,False,False,False,False,Day,Day,Day,Day
C-490027,2,2021-12-16 17:44:30,2021-12-16 19:57:46,41.483135,-81.645149,41.481629,-81.642224,0.183713072306,Stationary traffic on OH-8 - US-422 W - US-422 E from OH-87/Woodland Ave/E 55th St (US-422/Kinsman Rd/OH-8) to E 79th St (US-422/Kinsman Rd/OH-8) due to roadwork.,,E 68th St,R,Cleveland,Cuyahoga,OH,44104,US,US/Eastern,KBKL,2021-12-16 17:53:00,59.0,59.0,64.0,29.21,10.0,SW,24.0,0.0,Partly Cloudy / Windy,False,False,False,False,False,False,False,False,False,False,False,False,False,Night,Night,Day,Day
C-490028,2,2021-06-08 22:52:30,2021-06-08 23:31:30,32.840006,-97.329498,32.839109,-97.314075,0.89747490835,Stationary traffic on Loop 820 E - North Tarrant Express - I-820 E from Mark IV Pkwy exit [16C] to I-35W S due to roadwork.,,I-820 E,R,Fort Worth,Tarrant,TX,76106,US,US/Central,KFTW,2021-06-08 22:53:00,80.0,80.0,87.0,29.18,10.0,SSE,12.0,0.0,Fair,False,False,False,False,True,False,False,False,False,False,False,False,False,Night,Night,Night,Night
C-490030,2,2021-11-15 15:21:00,2021-11-15 17:43:43,41.720664,-87.70731500000002,41.720088,-87.701894,0.282387242343,Stationary traffic on US-12 E - US-20 W - US-12 W - US-20 E from S Trumbull Ave to W 96th St due to roadwork.,3412.0,W 95th St,R,Evergreen Park,Cook,IL,60805-2204,US,US/Central,KMDW,2021-11-15 15:16:00,34.0,30.0,70.0,29.41,9.0,S,5.0,0.0,Cloudy,False,False,False,False,False,False,False,False,False,False,False,False,False,Day,Day,Day,Day
C-490031,2,2021-11-02 15:37:30,2021-11-02 17:47:30,38.958126,-85.866065,38.957957,-85.85634399999998,0.52241554028,Slow traffic on US-50 W - US-50 E from IN-11/S Broadway St (US-50) to I-65 (US-50) due to roadwork.,1522.0,E Tipton St,L,Seymour,Jackson,IN,47274-3558,US,US/Eastern,KBAK,2021-11-02 15:50:00,46.0,41.0,37.0,29.58,10.0,NW,12.0,,Fair,False,False,False,False,False,False,False,False,False,False,False,True,False,Day,Day,Day,Day
C-490032,4,2017-07-27 10:06:46,2017-07-27 16:06:46,40.44285,-79.99094000000002,40.45905,-79.999131,1.19930483975,Between Bedford Ave/Mario Lemieux Pl and I-279 - Roadwork.,,Mario Lemieux Pl,R,Pittsburgh,Allegheny,PA,15219,US,US/Eastern,KAGC,2017-07-27 09:53:00,73.0,,73.0,29.99,10.0,Variable,4.6,,Clear,False,False,False,False,True,False,False,False,False,False,False,True,False,Day,Day,Day,Day
C-490034,2,2021-02-17 04:32:00,2021-02-17 18:37:46,33.479343,-112.169005,33.480468,-112.170965,0.137114866086,Slow traffic from W Cambridge Ave to N 52nd Ave due to roadwork.,2674.0,N 51st Ave,L,Phoenix,Maricopa,AZ,85035-2020,US,US/Mountain,KGEU,2021-02-17 04:58:00,48.0,46.0,30.0,28.68,10.0,NNE,5.0,0.0,Fair,False,False,False,False,False,False,False,False,False,False,False,False,False,Night,Night,Night,Night
C-490035,2,2020-09-21 13:30:00,2020-09-24 22:00:00,44.252811,-90.754269,44.291711,-90.817139,4.11075469563,Mainline Moving Lane Closure on I-94 Westbound from OFF RAMP TO COUNTY O to JACKSON - TREMPEALEAU CO LINE.,,I-94 W,R,Black River Falls,Jackson,WI,54615,US,US/Central,KBCK,2020-09-21 13:35:00,74.0,74.0,48.0,29.3,10.0,S,8.0,0.0,Fair,False,False,False,False,False,False,False,False,False,False,False,False,False,Day,Day,Day,Day
C-490036,2,2020-05-26 19:37:12,2020-05-30 19:33:55,37.98489,-98.74705,37.89786,-98.74711,6.01320119216,Between 20th St and Leesburg Rd/40th St - Construction work.,2.0,NE 20th St,R,St John,Stafford,KS,67576-8311,US,US/Central,KPTT,2020-05-26 19:35:00,69.0,69.0,53.0,27.86,10.0,NNE,7.0,0.0,Fair,False,False,False,False,False,False,False,False,False,False,False,False,False,Day,Day,Day,Day
C-490037,2,2021-03-15 08:58:00,2021-05-31 12:09:40,40.984356,-77.620906,40.957031,-77.68531899999998,3.85439179256,Roadwork on I-80 westbound between Exit 173: PA 64 - LAMAR and Exit 161: US 220 SOUTH/PA 26 - BELLEFONTE. There is a traffic disruption.,,I-80 W,R,Howard,Centre,PA,16841,US,US/Eastern,KUNV,2021-03-15 08:53:00,23.0,16.0,43.0,29.01,10.0,NNE,6.0,0.0,Fair,False,False,False,False,False,False,False,False,False,False,False,False,False,Day,Day,Day,Day
C-490038,2,2021-11-25 19:03:00,2021-11-25 19:24:00,35.940163,-78.293149,35.946887,-78.291673,0.4718636136729999,Stationary traffic from Medlin A Ln to Chickhouse Rd due to roadwork.,5651.0,Pearces Rd,L,Zebulon,Franklin,NC,27597-6030,US,US/Eastern,KLHZ,2021-11-25 18:55:00,46.0,44.0,50.0,29.64,10.0,S,6.0,0.0,Fair,False,False,False,False,False,False,False,False,False,False,False,False,False,Night,Night,Night,Night
C-490039,4,2020-06-16 10:50:06,2020-06-16 15:49:23,41.50408,-88.10536,41.49837,-88.1027,0.4178461276030001,Closed at Joliet - Closed due to roadwork.,1126.0,Channahon Rd,L,Joliet,Will,IL,60436,US,US/Central,KJOT,2020-06-16 10:55:00,79.0,79.0,50.0,29.69,10.0,ESE,5.0,0.0,Fair,False,False,True,False,False,False,True,False,False,False,False,True,False,Day,Day,Day,Day
C-490040,2,2021-04-02 09:07:00,2021-04-02 12:11:00,40.273209,-76.816406,40.285769,-76.821,0.900965884837,Slow traffic on US-322 W - I-83 N from US-322/Derry St/Exit 47 (I-83) to US-22/Jonestown Rd/Exit 50 (I-83) due to roadwork.,,I-83 N,R,Harrisburg,Dauphin,PA,17109,US,US/Eastern,KCXY,2021-04-02 08:56:00,32.0,21.0,40.0,29.91,10.0,NNW,16.0,0.0,Partly Cloudy,False,False,False,False,False,False,False,False,False,False,False,False,False,Day,Day,Day,Day
C-490041,2,2020-11-07 16:19:00,2020-11-07 19:18:06,26.259627,-80.187898,26.260823,-80.18628100000002,0.12987451611,Slow traffic from NW 48th Ter to NW 25th Ct due to roadwork.,4818.0,W Copans Rd,R,Coconut Creek,Broward,FL,33063-3879,US,US/Eastern,KFXE,2020-11-07 16:17:00,79.0,79.0,84.0,29.84,9.0,ENE,17.0,0.01,Light Rain,False,False,False,False,False,False,False,False,False,False,False,False,False,Day,Day,Day,Day
C-490042,2,2021-12-10 20:53:00,2021-12-10 22:55:18,25.846986,-80.211189,25.84707,-80.208574,0.162707904141,Slow traffic on FL-934 from FL-934/NW 13th Ct (FL-934) to I-95 (FL-934) due to roadwork.,7899.0,NW 8th Ave,R,Miami,Miami-Dade,FL,33150-3220,US,US/Eastern,KOPF,2021-12-10 20:53:00,75.0,75.0,79.0,30.13,10.0,E,3.0,0.0,Fair,False,False,True,False,False,False,False,False,True,True,False,False,False,Night,Night,Night,Night
C-490043,2,2021-06-29 16:58:35,2021-06-29 20:04:23,40.703397,-73.937678,40.701317,-73.936739,0.151897901147,Slow traffic from Grand St (Bushwick Ave) to Myrtle Ave (Bushwick Ave) due to roadwork.,140.0,Varet St,R,Brooklyn,Kings,NY,11206-3703,US,US/Eastern,KJRB,2021-06-29 16:51:00,90.0,90.0,57.0,30.01,10.0,VAR,5.0,0.0,Fair,False,False,False,False,False,False,False,False,False,False,False,True,False,Day,Day,Day,Day
C-490044,2,2020-08-25 15:00:00,2020-08-26 19:45:00,42.666279,-83.13317099999998,42.675725,-83.133585,0.652995227423,Construction on M-150 NB near AVON RD Left lane closed. Expect delays.,2.0,E Avon Rd,R,Rochester Hills,Oakland,MI,48307-3100,US,US/Eastern,KVLL,2020-08-25 14:55:00,86.0,86.0,30.0,29.27,10.0,NNW,9.0,0.0,Fair,False,False,True,False,False,False,False,False,False,False,False,True,False,Day,Day,Day,Day
C-490045,2,2020-09-25 11:00:00,2020-09-25 23:01:24,37.781401,-121.529446,37.78357800000001,-121.532927,0.2424020174509999,Queuing traffic from W Grant Line Rd (W Byron Rd) to Mountain House Rd (Byron Hwy) due to roadwork.,17893.0,W Byron Rd,R,Tracy,San Joaquin,CA,95391,US,US/Pacific,KLVK,2020-09-25 10:53:00,68.0,68.0,59.0,29.62,10.0,CALM,0.0,0.0,Fair,False,False,False,False,False,False,False,False,False,False,False,False,False,Day,Day,Day,Day
C-490046,2,2019-05-22 19:44:52,2019-05-26 20:01:58,41.2476,-75.821057,41.306332,-75.76576800000002,4.97086630916,Between Highland Parks Blvd/Exit 168 and PA-315/Exit 175B - Roadwork. Lane blocked.,,I-81 N,R,Wilkes Barre,Luzerne,PA,18702,US,US/Eastern,KAVP,2019-05-22 19:54:00,65.0,65.0,45.0,29.16,10.0,CALM,0.0,0.0,Fair,False,False,False,False,False,False,False,False,False,False,False,False,False,Day,Day,Day,Day
C-490047,2,2021-04-26 04:28:30,2021-12-20 16:23:16,40.848968,-73.93289200000002,40.849664,-73.93455300000002,0.0992409248275,Stationary traffic from 181st St/Amsterdam Ave (W 181st St) to US-9/Broadway (W 181st St) due to roadwork.,557.0,W 181st St,R,New York,New York,NY,10033-5002,US,US/Eastern,KNYC,2021-04-26 04:51:00,43.0,39.0,51.0,29.85,10.0,NNW,6.0,0.0,Fair,False,False,False,False,False,False,False,False,False,False,False,False,False,Night,Night,Night,Day
C-490048,2,2020-05-11 07:00:00,2020-07-18 12:22:16,46.791009,-89.028359,46.79907100000001,-89.01124,0.982853693661,Construction on MI-26 SB near FIRESTEEL RIVER WEST BRANCH Expect delays.,,M-26,R,Ontonagon,Ontonagon,MI,49953,US,US/Eastern,KCMX,2020-05-11 06:53:00,27.0,20.0,53.0,29.01,10.0,N,6.0,0.0,Fair,False,False,False,False,False,False,False,False,False,False,False,False,False,Day,Day,Day,Day
C-490049,2,2020-08-25 23:56:30,2020-08-26 02:57:58,28.034525,-82.451328,28.032765,-82.450086,0.143265603903,Queuing traffic on FL-580 - FL-45 - US-41 S from E Wilma St to N 12th St due to roadwork.,,E Wilma St,R,Tampa,Hillsborough,FL,33612,US,US/Eastern,KVDF,2020-08-25 23:55:00,79.0,79.0,94.0,30.0,10.0,E,3.0,0.0,Fair,False,False,False,False,False,False,False,False,False,False,False,False,False,Night,Night,Night,Night
C-490050,2,2020-07-19 03:00:00,2020-07-19 21:45:00,29.67427600000001,-95.156117,29.661426,-95.156137,0.887851253126,Construction on BELTWAY 8 FRONTAGE RD SB near SPENCER HWY Left lane closed. Expect delays.,,E Sam Houston Tollway S,R,Pasadena,Harris,TX,77503,US,US/Central,KEFD,2020-07-19 01:50:00,79.0,79.0,89.0,29.95,10.0,S,3.0,,Fair,False,False,False,False,True,False,False,False,False,False,False,False,False,Night,Night,Night,Night
C-490051,2,2021-05-04 05:17:00,2021-05-04 16:16:30,39.740292,-104.844088,39.739454,-104.84713,0.171678954736,Stationary traffic on US-40 W - I-70 Bus W - US-287 N from Scranton St to E 14th Ave due to roadwork.,,E Colfax Ave,R,Aurora,Arapahoe,CO,80011,US,US/Mountain,KBKF,2021-05-04 04:58:00,36.0,31.0,95.0,24.43,10.0,S,6.0,0.0,Mostly Cloudy,False,False,False,False,False,False,False,False,True,False,False,False,False,Night,Night,Day,Day
C-490052,2,2020-04-07 15:15:38,2020-10-22 11:35:26,46.213357,-111.457837,46.163197,-111.455014,3.4683554855300005,Construction on US-287 SB near TOSTON BRG Allow extra time.,,Lone Mountain Rd,R,Toston,Broadwater,MT,59643,US,US/Mountain,KBZN,2020-04-07 14:56:00,64.0,64.0,22.0,25.34,10.0,W,16.0,0.0,Mostly Cloudy,False,False,False,False,False,False,False,False,False,False,False,False,False,Day,Day,Day,Day
C-490053,2,2021-07-19 10:16:30,2021-07-19 11:28:00,45.029668,-110.708925,45.028903,-110.707521,0.0865689940088,Stationary traffic on US-89 N - US-89 S from Park St to Robert Reamer Ave due to roadwork.,,N Entrance Rd,R,Gardiner,Park,MT,59030,US,US/Mountain,KWYS,2021-07-19 09:56:00,69.0,69.0,42.0,22.79,,CALM,0.0,0.0,,False,False,False,False,False,False,False,False,False,False,False,False,False,Day,Day,Day,Day
C-490054,2,2019-10-31 21:03:49,2019-11-06 20:00:25,25.86725,-80.34031999999998,25.86694,-80.3399,0.0337727049461,At SR-932/103rd St - Construction work. Right lane blocked.,10336.0,W Okeechobee Rd,R,Hialeah,Miami-Dade,FL,33016,US,US/Eastern,KOPF,2019-11-02 20:53:00,80.0,80.0,76.0,29.99,10.0,ENE,5.0,0.0,Fair,False,False,False,False,False,False,False,False,False,False,False,False,False,Night,Night,Night,Night
C-490055,2,2021-09-12 17:15:00,2021-09-12 19:16:35,26.032559,-80.149535,26.03499200000001,-80.150072,0.171378261626,Slow traffic on FL-822 from FL-820/Hollywood Blvd (Dixie Hwy) to US-1/FL-5/S Federal Hwy (W Dixie Hwy) due to roadwork.,2400.0,N 21st Ave,L,Hollywood,Broward,FL,33020,US,US/Eastern,KFLL,2021-09-12 16:53:00,83.0,83.0,97.0,30.08,9.0,SE,13.0,0.01,Rain,False,False,False,False,False,False,False,False,False,False,False,False,False,Day,Day,Day,Day
C-490056,2,2020-04-06 21:03:14,2020-04-10 21:03:01,25.68888,-80.30842,25.68842,-80.32342,0.934507036542,Between Dixie Hwy US-1 and SW 79th Ave - Construction work.,,N Kendall Dr,R,Miami,Miami-Dade,FL,33156,US,US/Eastern,KTMB,2020-04-06 20:53:00,77.0,77.0,84.0,30.0,10.0,E,12.0,0.0,Mostly Cloudy,False,False,True,False,False,False,False,False,True,False,False,True,False,Night,Night,Night,Night
C-490057,2,2021-04-08 19:08:00,2021-04-09 20:22:08,27.410216,-80.40091,27.661037,-80.86875400000002,33.4949601868,Construction on FLORIDA'S TPKE NB near MM 154 Construction. Left lane closed.,,Florida's Tpke N,R,Fort Pierce,St. Lucie,FL,34945,US,US/Eastern,KFPR,2021-04-08 18:53:00,76.0,76.0,52.0,29.97,10.0,SE,14.0,0.0,Fair,False,False,False,False,False,False,False,False,False,False,False,False,False,Day,Day,Day,Day
C-490058,4,2019-03-24 11:32:42,2019-03-24 16:38:39,33.418562,-103.869248,33.41803,-103.81589,3.0773937845200003,Closed at Mathers Rd - Closed due to roadwork.,,US-380 E,R,Roswell,Chaves,NM,88201,US,US/Mountain,KROW,2019-03-24 11:51:00,66.9,,23.0,29.97,10.0,NE,8.1,,Clear,False,False,False,False,False,False,False,False,False,False,False,False,False,Day,Day,Day,Day
C-490059,2,2021-02-25 05:45:30,2021-02-25 13:45:00,26.25772000000001,-80.250298,26.259294,-80.250606,0.1104149076009999,Slow traffic on FL-817 from NW 20th St to NW 94th Ave due to roadwork.,2167.0,N University Dr,L,Coral Springs,Broward,FL,33071-6134,US,US/Eastern,KFXE,2021-02-25 05:53:00,67.0,67.0,97.0,30.12,6.0,CALM,0.0,0.0,Fair,False,False,False,False,False,False,False,False,False,False,False,False,False,Night,Night,Night,Day
C-490060,2,2021-09-12 01:41:00,2021-09-12 03:43:25,40.054203,-84.930245,40.054864,-84.933565,0.181425130686,Roadwork on IN-227 (US-36) from US-27/N Main St (US-36) to US-36 E - US-36 W.,2500.0,E US Highway 36,R,Lynn,Randolph,IN,47355,US,US/Eastern,KVES,2021-09-12 01:35:00,70.0,70.0,73.0,29.0,10.0,SW,8.0,0.0,Fair,False,False,False,False,False,False,False,False,False,False,False,False,False,Night,Night,Night,Night
C-490061,2,2020-09-15 16:09:00,2020-09-15 18:45:00,39.809035,-75.453618,39.80566500000001,-75.451368,0.2616848874269999,Construction on I-495 SB near NAAMANS RD Left lane closed. Expect delays.,,I-495 S,R,Claymont,New Castle,DE,19703,US,US/Eastern,KILG,2020-09-15 15:51:00,67.0,67.0,39.0,30.2,10.0,SE,5.0,0.0,Fair,False,False,False,False,False,False,False,False,False,False,False,False,False,Day,Day,Day,Day
C-490062,2,2019-06-05 08:54:13,2019-06-09 08:54:11,47.848813,-122.889187,47.821386,-122.880195,1.94037398604,Between Lords Lake Loop Rd and Quilcene Park Rd - Construction work.,2.0,Lords Lake Loop Rd,R,Quilcene,Jefferson,WA,98376-8559,US,US/Pacific,KPWT,2019-06-05 08:56:00,54.0,54.0,69.0,29.51,10.0,SSW,10.0,0.0,Mostly Cloudy,False,False,False,False,False,False,False,False,False,False,False,False,False,Day,Day,Day,Day
C-490063,2,2021-06-07 10:15:00,2021-06-07 17:00:53,40.21694,-74.788503,40.216545,-74.785556,0.157861521541,Utility work on PENNSYLVANIA AV / YARDLEY MORRISVILLE RD both directions between FAIRVIEW AV and LAFAYETTE AV RIDGE AV. There is a traffic disruption.,901.0,N Pennsylvania Ave,L,Yardley,Bucks,PA,19067-2023,US,US/Eastern,KTTN,2021-06-07 09:53:00,82.0,82.0,74.0,29.87,9.0,WSW,3.0,0.0,Fair,False,False,False,False,False,False,False,False,False,False,False,False,False,Day,Day,Day,Day
C-490064,2,2021-12-14 16:20:20,2021-12-14 18:47:55,29.528926,-95.808154,29.53173,-95.806587,0.215427268056,Slow traffic on TX-36 from Highway 36 S / Wehring Way to Fountains Dr due to roadwork.,3547.0,1st St,R,Rosenberg,Fort Bend,TX,77471-9155,US,US/Central,KSGR,2021-12-14 16:02:00,80.0,80.0,67.0,30.07,10.0,SSE,13.0,0.0,Cloudy,False,False,False,False,False,False,False,False,False,False,False,False,False,Day,Day,Day,Day
C-490065,2,2021-12-15 12:49:30,2021-12-15 14:54:06,28.805275,-81.887672,28.803173,-81.886954,0.151600625427,Stationary traffic on US-27 S - FL-25 - FL-44 from Sumter St to Pasa del Norte St due to roadwork.,,Sumter St,R,Leesburg,Lake,FL,34748,US,US/Eastern,KLEE,2021-12-15 12:53:00,79.0,79.0,62.0,30.18,10.0,E,14.0,0.0,Fair,False,False,False,False,False,False,False,False,False,False,False,True,False,Day,Day,Day,Day
C-490066,2,2021-10-29 20:01:00,2021-10-30 05:46:00,33.643695,-117.420587,33.644573,-117.41986599999998,0.0734849523071,Construction on CA-74 EB near COUNTY LINE RIV Expect long delays.,32864.0,Ortega Hwy,L,Lake Elsinore,Riverside,CA,92530-6559,US,US/Pacific,KF70,2021-10-29 19:55:00,66.0,66.0,46.0,28.51,10.0,SE,5.0,0.0,Fair,False,False,False,False,False,False,False,False,False,False,False,False,False,Night,Night,Night,Night
C-490067,2,2021-07-25 18:00:00,2021-08-15 18:45:00,39.85283,-85.11669499999998,39.85547,-85.056415,3.20254121627,Construction on I-70 EB near JACKSONBURG RD Construction. Left lane closed.,,I-70 E,R,Cambridge City,Wayne,IN,47327,US,US/Eastern,KAID,2021-07-25 17:55:00,86.0,86.0,50.0,28.93,10.0,N,6.0,0.0,Partly Cloudy,False,False,False,False,False,False,False,False,False,False,False,False,False,Day,Day,Day,Day
