ID,Severity,Start_Time,End_Time,Start_Lat,Start_Lng,End_Lat,End_Lng,Distance(mi),Description,Number,Street,Side,City,County,State,Zipcode,Country,Timezone,Airport_Code,Weather_Timestamp,Temperature(F),Wind_Chill(F),Humidity(%),Pressure(in),Visibility(mi),Wind_Direction,Wind_Speed(mph),Precipitation(in),Weather_Condition,Amenity,Bump,Crossing,Give_Way,Junction,No_Exit,Railway,Roundabout,Station,Stop,Traffic_Calming,Traffic_Signal,Turning_Loop,Sunrise_Sunset,Civil_Twilight,Nautical_Twilight,Astronomical_Twilight
C-1070333,2,2021-07-07 12:01:41,2021-07-07 15:59:00,36.26149,-121.179291,,,3.11999988556,One lane closed due to barrier repairs and drainage works on US-101 Northbound from Central Ave to Teague Ave.,49800.0,El Camino Real,L,King City,Monterey,CA,93930,US,US/Pacific,K87Q,2021-07-07 11:56:00,72.0,72.0,53.0,29.65,10.0,NW,22.0,0.0,Fair / Windy,False,False,False,False,False,False,False,False,False,False,False,False,False,Day,Day,Day,Day
C-1070334,2,2020-02-25 09:00:00,2020-02-25 15:00:00,39.98333,-105.2274,39.98333,-105.2274,0.0,At CO-157/Boulder Rd/Foothill Pky - Construction work.,,Denver Boulder Tpke W,R,Boulder,Boulder,CO,80303,US,US/Mountain,KBDU,2020-02-25 09:12:00,27.0,15.0,37.0,24.91,10.0,N,15.0,0.0,Cloudy,False,False,False,False,False,False,False,False,False,False,False,False,False,Day,Day,Day,Day
C-1070335,2,2021-05-12 07:14:30,2021-05-12 08:43:00,39.1306,-95.588205,39.138995,-95.57577,0.883502588219,Stationary traffic on KS-4 from US-24/NE Grantville Rd (KS-4) to KS-245/74th St (KS-4) due to roadwork.,4752.0,K4 Hwy,R,Topeka,Jefferson,KS,66617,US,US/Central,KTOP,2021-05-12 06:53:00,50.0,50.0,77.0,29.45,10.0,ENE,3.0,0.0,Cloudy,False,False,False,False,False,False,False,False,False,False,False,False,False,Day,Day,Day,Day
C-1070336,2,2018-12-06 08:24:53,2018-12-10 09:01:50,40.046138,-75.432879,40.044451,-75.427295,0.317525310716,At Waterloo Rd - Roadwork. Lane blocked.,455.0,Lancaster Ave,R,Berwyn,Chester,PA,19312-1676,US,US/Eastern,KOQN,2018-12-06 08:15:00,30.0,25.0,75.0,29.54,10.0,W,5.0,0.0,Cloudy,False,False,False,False,False,False,False,False,False,False,False,False,False,Day,Day,Day,Day
C-1070337,4,2021-11-08 06:38:20,2021-11-15 23:59:00,26.339849,-80.07861199999998,26.339642,-80.078644,0.0144389397193,Closed road at Royal Palm Way due to roadwork.,489.0,E Camino Real,R,Boca Raton,Palm Beach,FL,33432,US,US/Eastern,KBCT,2021-11-08 06:53:00,62.0,62.0,72.0,30.06,10.0,NW,9.0,0.0,Fair,True,False,False,True,False,False,False,False,False,False,False,False,False,Day,Day,Day,Day
C-1070338,4,2018-03-05 10:13:21,2018-03-05 15:00:00,34.159040000000005,-118.46614,34.15937,-118.46221,0.225845613058,Ramp closed to Exit 18 - Closed. Maintenance work.,4898.0,Sepulveda Blvd,R,Sherman Oaks,Los Angeles,CA,91403,US,US/Pacific,KVNY,2018-03-05 09:51:00,64.0,,17.0,30.14,10.0,NNW,13.8,,Clear,False,False,False,False,True,False,False,False,False,False,False,False,False,Day,Day,Day,Day
C-1070339,2,2021-07-22 06:53:30,2021-07-22 07:07:30,40.579249,-75.841853,40.579781,-75.82552,0.857890160791,Slow traffic on US-22 E - I-78 E from PA-143/Exit 35 (I-78) to PA-737/Exit 40 (I-78) due to roadwork.,,I-78 E,R,Lenhartsville,Berks,PA,19534,US,US/Eastern,KRDG,2021-07-22 06:54:00,62.0,62.0,86.0,29.72,10.0,CALM,0.0,0.0,Fair,False,False,False,False,False,False,False,False,False,False,False,False,False,Day,Day,Day,Day
C-1070340,2,2020-09-04 15:39:00,2020-09-04 22:03:44,39.615863,-86.479787,39.613435,-86.479761,0.167764530532,Stationary traffic on IN-39 from US-40/Cumberland St (Morgan St/IN-39) to I-70 (IN-39) due to roadwork.,10006.0,S State Road 39,L,Clayton,Hendricks,IN,46118,US,US/Eastern,KIND,2020-09-04 15:54:00,77.0,77.0,30.0,29.28,10.0,W,20.0,0.0,Partly Cloudy,False,False,False,False,False,False,False,False,False,False,False,False,False,Day,Day,Day,Day
C-1070341,3,2018-05-15 02:23:14,2018-05-15 06:31:00,41.424549,-73.35569,,,5.92999982834,Right lane closed due to construction work on I-84 Westbound from Exit 10 US-6 to Exit 9 CT-25 Hawleyville Rd.,,Hawleyville Rd,R,Newtown,Fairfield,CT,06470,US,US/Eastern,KOXC,2018-05-15 02:28:00,57.2,,100.0,29.92,1.5,SSW,4.6,,Overcast,False,False,False,False,False,False,False,False,False,False,False,False,False,Night,Night,Night,Night
C-1070342,2,2021-11-18 15:34:30,2021-11-18 17:36:24,39.636975,-75.653149,39.633916,-75.653712,0.213469259369,Stationary traffic on US-40 W from DE-1 N to DE-1 S due to roadwork.,,DE-1 N,R,Bear,New Castle,DE,19701,US,US/Eastern,KILG,2021-11-18 15:51:00,69.0,69.0,45.0,29.84,10.0,SSW,14.0,0.0,Fair,False,False,False,False,True,False,False,False,False,False,False,False,False,Day,Day,Day,Day
C-1070343,2,2021-11-08 03:23:00,2021-11-09 04:15:02,30.726689,-86.502732,30.732549,-86.35672199999998,8.68125625731,Construction on I-10 EB near MM 63 Construction. Right lane closed.,,FL-8 E,R,Crestview,Okaloosa,FL,32539,US,US/Central,KCEW,2021-11-08 02:53:00,38.0,38.0,93.0,30.01,10.0,CALM,0.0,0.0,Fair,False,False,False,False,False,False,False,False,False,False,False,False,False,Night,Night,Night,Night
C-1070344,4,2016-04-04 20:30:00,2016-04-05 05:00:00,40.63874000000001,-74.14359,40.64204,-74.14218000000002,0.239692834379,Closed between Innis St and New York/New Jersey State Line - Closed due to roadwork.,,Bayonne Brg N,R,Staten Island,Richmond,NY,10303,US,US/Eastern,KEWR,2016-04-04 20:37:00,33.8,23.5,87.0,29.98,10.0,North,16.1,,Overcast,False,False,False,False,False,False,False,False,False,False,False,False,False,Night,Night,Night,Day
C-1070345,2,2020-11-16 04:30:00,2020-11-16 05:48:00,39.245007,-104.88011000000002,39.219943,-104.878718,1.73335913893,Slow traffic on US-85 S - I-25 S - US-87 S from Spruce Mountain Rd/Exit 173 (I-25) to Greenland Rd/Exit 167 (I-25) due to roadwork.,,I-25 S,R,Larkspur,Douglas,CO,80118,US,US/Mountain,KMNH,2020-11-16 04:35:00,30.0,23.0,64.0,23.3,10.0,SSE,7.0,0.0,Fair,False,False,False,False,False,False,False,False,False,False,False,False,False,Night,Night,Night,Night
C-1070346,2,2021-08-29 12:16:30,2021-08-29 12:36:30,38.905647,-77.01413000000002,38.90397700000001,-77.018934,0.282901352775,Slow traffic on US-50 W from N Capitol St NE (New York Ave/US-50) to US-1 Alt/US-50/6th St (New York Ave/US-50) due to roadwork.,200.0,M St NW,R,Washington,District of Columbia,DC,20001,US,US/Eastern,KDCA,2021-08-29 11:52:00,79.0,79.0,72.0,30.19,10.0,CALM,0.0,0.0,Cloudy,True,False,True,False,False,False,False,False,False,False,False,True,False,Day,Day,Day,Day
C-1070347,2,2018-11-01 23:20:38,2018-11-02 05:01:00,34.057735,-118.241364,,,0.3700000047680001,Entry ramp to US-101 Northbound from N Broadway closed due to construction work.,505.0,N Broadway,L,Los Angeles,Los Angeles,CA,90012,US,US/Pacific,KCQT,2018-11-01 23:47:00,64.0,,63.0,30.06,10.0,Calm,,,Clear,False,False,True,False,False,False,False,False,False,False,False,False,False,Night,Night,Night,Night
C-1070348,2,2020-10-27 12:40:00,2020-10-27 21:29:00,42.669684,-83.017471,42.669754,-83.012087,0.273563520588,Stationary traffic from Van Dyke Ave (23 Mile Rd) to MI-53 (23 Mile Rd) due to construction work.,11498.0,23 Mile Rd,R,Utica,Macomb,MI,48317,US,US/Eastern,KVLL,2020-10-27 12:35:00,42.0,39.0,82.0,29.48,5.0,WNW,5.0,0.0,Light Rain,False,False,False,False,False,False,False,False,False,False,False,True,False,Day,Day,Day,Day
C-1070349,2,2021-10-31 12:52:02,2021-10-31 15:55:21,32.954265,-96.841437,32.953353,-96.838946,0.157568898706,Stationary traffic from Oak St to Beltway Dr due to roadwork.,4148.0,Belt Line Rd,R,Addison,Dallas,TX,75001-4354,US,US/Central,KADS,2021-10-31 12:48:00,75.0,75.0,29.0,29.4,10.0,ESE,7.0,0.0,Fair,False,False,False,False,False,False,False,False,False,False,False,False,False,Day,Day,Day,Day
C-1070350,4,2021-10-08 11:45:30,2021-12-31 02:00:20,31.069884,-97.5844,31.068625,-97.584932,0.0925110733728,Bridge closure at E Highway 190.,10710.0,Paddy Hamilton Rd,L,Belton,Bell,TX,76513,US,US/Central,KTPL,2021-10-08 11:51:00,85.0,85.0,48.0,29.37,10.0,SSW,12.0,0.0,Fair,False,False,False,False,False,False,False,False,False,False,False,False,False,Day,Day,Day,Day
C-1070351,2,2021-10-12 05:51:30,2021-10-12 09:09:30,41.984265,-87.82364799999998,41.984683,-87.831048,0.3811519589370001,Stationary traffic on Jane Addams Memorial Tollway W - I-90 W - Kennedy Expy W from Canfield Rd/Exit 80 (I-90) to IL-171/Cumberland Ave/Exit 79 (I-90) due to roadwork.,,I-90 W,R,Chicago,Cook,IL,60631,US,US/Central,KORD,2021-10-12 05:51:00,62.0,62.0,93.0,29.03,10.0,SW,15.0,0.0,Cloudy,False,False,True,False,True,False,False,False,False,False,False,True,False,Night,Night,Night,Day
C-1070352,3,2019-03-31 19:00:00,2019-04-05 06:00:00,40.580227,-75.708656,,,31.1100006104,Lane closed due to construction work on I-78 both ways between Exit 35 PA-143 and Exit 45 PA-863 Golden Key Rd.,,I-78 W,R,Kutztown,Lehigh,PA,19530,US,US/Eastern,KRDG,2019-03-31 18:54:00,46.0,37.8,39.0,29.91,10.0,WNW,23.0,,Mostly Cloudy,False,False,False,False,False,False,False,False,False,False,False,False,False,Day,Day,Day,Day
C-1070353,2,2020-09-17 19:53:30,2020-09-17 23:48:58,40.713132,-74.004067,40.714172,-74.00630699999998,0.13757004947,Queuing traffic from Centre St (Chambers St) to Broadway (Chambers St) due to major roadwork.,2.0,Chambers St,L,New York,New York,NY,10007-1214,US,US/Eastern,KJRB,2020-09-17 19:51:00,71.0,71.0,78.0,29.87,10.0,CALM,0.0,0.0,Fair,True,False,True,False,False,False,True,False,True,False,False,True,False,Night,Night,Day,Day
C-1070354,2,2021-09-23 14:34:30,2021-09-23 17:20:36,39.89202,-82.929971,39.888776,-82.930778,0.228185461673,Stationary traffic from Whimswillow Dr to Strack Rd due to roadwork.,3600.0,Alum Creek Dr,L,Columbus,Franklin,OH,43207-3425,US,US/Eastern,KLCK,2021-09-23 14:55:00,62.0,62.0,55.0,29.11,10.0,WSW,18.0,0.0,Mostly Cloudy,False,False,True,False,False,False,False,False,True,False,False,False,False,Day,Day,Day,Day
C-1070355,2,2019-04-25 00:00:01,2019-04-26 00:00:01,39.740401,-104.989569,39.74017,-104.989901,0.0237880866349999,At 14th St - Construction work.,215.0,W Colfax Ave,R,Denver,Denver,CO,80202-5304,US,US/Mountain,KBJC,2019-04-25 00:11:00,55.0,55.0,47.0,24.34,10.0,W,14.0,0.0,Mostly Cloudy,True,False,True,False,False,False,False,False,False,False,False,True,False,Night,Night,Night,Night
C-1070356,2,2020-10-16 12:41:00,2020-10-16 22:54:00,42.605874,-82.91905200000002,42.60281,-82.91385,0.338830137229,Stationary traffic from Romeo Plank Rd (Cass Ave) to Clinton River Rd (Cass Ave) due to bridge maintenance work.,,Normandy Forest St,R,Clinton Township,Macomb,MI,48038,US,US/Eastern,KMTC,2020-10-16 12:56:00,53.0,53.0,44.0,29.51,10.0,WSW,14.0,0.0,Partly Cloudy,False,False,True,False,False,False,False,False,False,False,False,True,False,Day,Day,Day,Day
C-1070357,2,2021-09-18 15:06:00,2021-09-18 17:11:44,26.115492,-80.13707099999998,26.123252,-80.137229,0.536254525442,Slow traffic on US-1 N - FL-5 from FL-736/Davie Blvd (US-1) to 6th St (Fort Lauderdale) (US-1) due to roadwork.,,S Federal Hwy,R,Fort Lauderdale,Broward,FL,33301,US,US/Eastern,KFLL,2021-09-18 14:53:00,88.0,88.0,72.0,30.0,10.0,SE,9.0,0.0,Mostly Cloudy,True,False,True,False,False,False,False,False,False,False,False,False,False,Day,Day,Day,Day
C-1070358,2,2021-09-07 16:04:09,2021-09-07 16:27:36,40.743363,-73.915127,40.74446500000001,-73.911505,0.2043200180599999,Slow traffic from NY-25/49th St/Queens Blvd (Roosevelt Ave) to 58th St (Roosevelt Ave) due to roadwork.,4972.0,Roosevelt Ave,R,Woodside,Queens,NY,11377,US,US/Eastern,KLGA,2021-09-07 15:51:00,83.0,83.0,37.0,29.9,10.0,W,10.0,0.0,Fair,True,False,False,False,False,False,True,False,True,False,False,True,False,Day,Day,Day,Day
C-1070359,2,2020-01-30 21:00:00,2020-01-31 06:00:00,37.773102,-122.157417,,,0.7699999809270001,Entry ramp to I-580 Westbound from Maynard Ave Westbound closed due to construction work.,,I-580 W,R,Oakland,Alameda,CA,94605,US,US/Pacific,KOAK,2020-01-30 20:53:00,52.0,52.0,93.0,30.27,10.0,CALM,0.0,0.0,Partly Cloudy,False,False,False,False,False,False,False,False,False,False,False,False,False,Night,Night,Night,Night
C-1070360,2,2021-12-22 15:21:06,2021-12-22 15:44:50,27.851093,-82.692289,27.839731,-82.684213,0.927210343361,Slow traffic on US-19 S from CR-611/49th St (US-19) to FL-694/Gandy Blvd/Park Blvd (US-19) due to roadwork.,8602.0,US Highway 19 N,L,Pinellas Park,Pinellas,FL,33782-5804,US,US/Eastern,KPIE,2021-12-22 14:53:00,63.0,63.0,63.0,29.96,10.0,NW,16.0,0.0,Fair,False,False,True,False,False,False,False,False,False,False,False,True,False,Day,Day,Day,Day
C-1070361,2,2020-08-05 15:30:00,2020-08-05 22:45:00,37.889517,-84.347459,37.878967,-84.333729,1.04495890669,Construction on I-75 SB near MM 98 Left lane blocked. Expect delays.,,I-75 S,R,Lexington,Fayette,KY,40515,US,US/Eastern,KLEX,2020-08-05 15:54:00,79.0,79.0,56.0,29.04,10.0,N,7.0,0.0,Cloudy,False,False,False,False,True,False,False,False,False,False,False,False,False,Day,Day,Day,Day
C-1070362,2,2020-09-03 12:55:30,2020-09-04 01:08:08,26.10211,-80.136912,26.100218,-80.135918,0.144543256273,Queuing traffic on US-1 S - FL-A1A - FL-5 from SE 16th St to Miami Rd due to roadwork.,562.0,SE 16th St,R,Fort Lauderdale,Broward,FL,33316-2532,US,US/Eastern,KFLL,2020-09-03 12:53:00,90.0,90.0,73.0,29.97,10.0,E,14.0,0.0,Partly Cloudy,False,False,True,False,False,False,False,False,False,False,False,False,False,Day,Day,Day,Day
C-1070363,2,2021-05-21 05:17:30,2021-05-21 18:10:22,25.761051,-80.480324,25.760192,-80.481348,0.0870794704468,Stationary traffic on FL-997 - US-41 N from Kendale Lakes-Tamiami to SW 12th St due to roadwork.,17679.0,SW 8th St,R,Miami,Miami-Dade,FL,33194-2704,US,US/Eastern,KTMB,2021-05-21 04:53:00,74.0,74.0,73.0,30.13,10.0,E,13.0,0.0,Cloudy,False,False,True,False,False,False,False,False,False,False,False,False,False,Night,Night,Night,Day
C-1070364,2,2021-02-10 14:28:00,2021-02-11 03:41:48,26.284744,-80.186275,26.285776,-80.18740799999998,0.100053656743,Stationary traffic from NW 42nd Dr to N State Road 7 due to roadwork.,4474.0,Lyons Rd,L,Pompano Beach,Broward,FL,33073,US,US/Eastern,KPMP,2021-02-10 14:53:00,79.0,79.0,72.0,30.07,10.0,SE,10.0,0.0,Partly Cloudy,False,False,False,False,False,False,False,False,False,False,False,False,False,Day,Day,Day,Day
C-1070365,2,2019-07-03 05:18:20,2019-07-09 23:59:00,35.531818,-85.468903,,,3.8499999046300006,Intermittent lane closures due to road marking work on TN-111 both ways between Old State Highway 111 and TN-8.,11998.0,State Highway 8,R,Dunlap,Sequatchie,TN,37327,US,US/Eastern,KCHA,2019-07-03 04:53:00,75.0,75.0,82.0,29.24,10.0,SW,3.0,0.0,Fair,False,False,False,False,False,False,False,False,False,False,False,False,False,Night,Day,Day,Day
C-1070366,3,2020-06-23 01:05:58,2020-06-23 05:00:00,38.567638,-121.512642,,,0.6399999856949999,Entry ramp to I-5 Southbound at Exit 4A from US-50 Eastbound closed due to construction.,2421.0,Front St,L,Sacramento,Sacramento,CA,95818,US,US/Pacific,KSAC,2020-06-23 00:53:00,67.0,67.0,68.0,29.83,10.0,S,5.0,0.0,Fair,False,False,False,False,False,False,False,False,False,False,False,False,False,Night,Night,Night,Night
C-1070367,2,2021-11-03 09:28:30,2021-11-03 09:48:30,40.692074,-74.012176,40.708516,-74.015199,1.14701704316,Slow traffic on I-478 E - NY-9A from I-478 W to Canal St (I-78) exit [3] due to roadwork.,,Brooklyn Battery Tunl,R,New York,New York,NY,10004,US,US/Eastern,KJRB,2021-11-03 09:51:00,44.0,41.0,63.0,30.16,10.0,VAR,6.0,0.0,Fair,False,False,False,False,False,False,False,False,False,False,False,False,False,Day,Day,Day,Day
C-1070368,2,2019-06-23 20:14:45,2019-09-22 11:57:21,40.986,-78.184934,41.01411,-78.310907,6.850024855909999,At PA-970/Exit 123 - Roadwork. Lane blocked.,,I-80 W,R,Morrisdale,Clearfield,PA,16858,US,US/Eastern,KFIG,2019-06-23 19:54:00,75.0,75.0,44.0,28.36,10.0,WSW,5.0,0.0,Fair,False,False,False,False,False,False,False,False,False,False,False,False,False,Day,Day,Day,Day
C-1070369,2,2021-05-20 21:01:00,2021-05-21 05:46:00,38.001192,-122.052825,38.00105,-122.053401,0.0328595432344,Construction on CA-4 WB near CA-242 Drive with caution.,,CA-4 W,R,Concord,Contra Costa,CA,94520,US,US/Pacific,KCCR,2021-05-20 20:53:00,59.0,59.0,49.0,29.91,10.0,SW,5.0,0.01,Mostly Cloudy,False,False,False,False,False,False,False,False,False,False,False,False,False,Night,Night,Day,Day
C-1070370,2,2019-09-24 06:04:33,2019-09-30 06:02:23,38.292133,-121.250992,38.33606,-121.15926,5.82601249527,Between Borden Rd and Clay East Rd - Construction work. Single alternate lane traffic.,,Borden Rd,R,Galt,Sacramento,CA,95632,US,US/Pacific,KSAC,2019-09-26 05:53:00,64.0,64.0,84.0,29.75,10.0,CALM,0.0,0.0,Fair,False,False,False,False,False,False,False,False,False,False,False,False,False,Night,Night,Day,Day
C-1070371,2,2021-01-18 15:41:00,2021-01-19 00:45:00,39.730027,-75.556143,39.727907,-75.556023,0.1466167783019999,Construction on S MARKET ST SB near NEW SWEDEN ST Right lane closed. Expect delays.,531.0,S Market St,R,Wilmington,New Castle,DE,19801-5212,US,US/Eastern,KILG,2021-01-18 15:51:00,42.0,34.0,47.0,29.76,10.0,W,16.0,0.0,Cloudy,False,False,False,False,False,False,False,False,False,False,False,True,False,Day,Day,Day,Day
C-1070372,2,2021-11-09 01:22:30,2021-11-09 01:44:30,40.579829,-111.977231,40.573258,-111.977278,0.454019559728,Stationary traffic on UT-154 from W 9000 S (Bangerter Hwy/UT-154) to W 9800 S (Bangerter Hwy/UT-154) due to roadwork.,9418.0,Bangerter Hwy,R,South Jordan,Salt Lake,UT,84009,US,,,,,,,,,,,,,False,False,False,False,False,False,False,False,False,False,False,True,False,Night,Night,Night,Night
C-1070373,2,2020-12-21 16:00:00,2020-12-22 01:00:00,38.952616,-77.381354,38.947756,-77.301684,4.29409378828,On VA-90004 (Dulles Access Rd) in the County of Fairfax at the ramp motorists can expect potential delays in this area from 12/21/20 at 8:00 AM until 12/21/20 at 5:00 PM due to construction activities. The east left shoulder is closed.,,Dulles Access Rd E,R,Reston,Fairfax County,VA,20191,US,US/Eastern,KIAD,2020-12-21 15:52:00,44.0,44.0,79.0,29.44,10.0,CALM,0.0,0.0,Mostly Cloudy,False,False,False,False,False,False,True,False,False,False,False,False,False,Day,Day,Day,Day
C-1070374,2,2020-09-25 11:04:00,2020-09-26 02:59:43,40.746451,-73.97466800000002,40.746092,-73.978959,0.2259808032009999,Stationary traffic from Queens Midtown Tunl W to Park Ave due to resurfacing work.,,2nd Ave,R,New York,New York,NY,10016,US,US/Eastern,KNYC,2020-09-25 10:51:00,71.0,71.0,66.0,30.02,6.0,W,3.0,0.0,Haze,True,False,True,False,False,False,False,False,True,False,False,True,False,Day,Day,Day,Day
C-1070375,2,2021-04-07 07:22:11,2021-04-07 13:17:16,31.46431,-89.527842,31.492258000000003,-89.524485,1.94112836967,Slow traffic on MS-589 from Bishop Dr to Herrin Rd due to roadwork.,2850.0,Highway 589,R,Sumrall,Covington,MS,39482,US,US/Central,KPIB,2021-04-07 07:23:00,59.0,59.0,100.0,29.73,1.0,SE,3.0,0.0,Fog,False,False,False,False,False,False,False,False,False,True,False,False,False,Day,Day,Day,Day
C-1070376,2,2020-09-16 14:00:00,2020-09-17 00:45:00,40.27252,-86.337529,40.27259,-86.318359,1.01059191975,Construction on IN-28 EB near US-421 Allow extra time.,9001.0,E State Road 28,R,Frankfort,Clinton,IN,46041,US,US/Eastern,KTYQ,2020-09-16 13:55:00,76.0,76.0,38.0,29.09,10.0,CALM,0.0,0.0,Fair,False,False,False,False,False,False,False,False,False,False,False,False,False,Day,Day,Day,Day
C-1070377,2,2021-11-14 08:33:00,2021-11-15 01:59:55,30.276773,-93.030947,30.276773,-93.031796,0.0506590470005,Roadwork on N Jeff Davis Ward Line Rd from Parish Barn Rd / Denison Rd to LA-3059.,7198.0,Highway 3059,R,Iowa,Calcasieu,LA,70647,US,US/Central,KCWF,2021-11-14 08:48:00,54.0,54.0,72.0,30.21,10.0,CALM,0.0,0.0,Fair,False,False,False,False,False,False,False,False,False,False,False,False,False,Day,Day,Day,Day
C-1070378,2,2021-04-16 04:03:30,2021-05-14 14:30:00,36.961619,-120.064798,36.972825,-120.073995,0.925879443412,Slow traffic on CA-99 N from CA-145/Madera Ave (CA-99) to Cleveland Ave (CA-99) due to roadwork.,,CA-99 N,R,Madera,Madera,CA,93637,US,US/Pacific,KMAE,2021-05-14 12:53:00,84.0,84.0,27.0,29.6,10.0,VAR,3.0,0.0,Fair,False,False,False,False,False,False,False,False,False,False,False,False,False,Night,Night,Night,Night
C-1070379,2,2021-09-01 09:23:00,2021-09-01 11:30:11,32.783158,-96.73547,32.782293,-96.737623,0.138612077651,Slow traffic from Forney Rd to Detonte St due to roadwork.,4841.0,Military Pkwy,L,Dallas,Dallas,TX,75223-3128,US,US/Central,KDAL,2021-09-01 09:53:00,88.0,88.0,61.0,29.32,10.0,VAR,3.0,0.0,Fair,False,False,False,False,False,False,False,False,False,False,False,False,False,Day,Day,Day,Day
C-1070380,2,2021-07-26 14:28:00,2021-07-26 15:02:30,39.956546,-79.001666,39.962831,-79.017717,0.954554790068,Slow traffic from Main St (Broadway St/US-219) to Berlin Plank Rd (US-219) due to roadwork.,129.0,Cinder Rd,L,Berlin,Somerset,PA,15530-9660,US,US/Eastern,KCBE,2021-07-26 14:35:00,85.0,85.0,58.0,29.15,10.0,E,9.0,0.0,Mostly Cloudy,False,False,False,False,False,False,False,False,False,False,False,False,False,Day,Day,Day,Day
C-1070381,2,2021-07-29 17:24:05,2021-07-29 17:54:00,39.998906,-86.004226,39.985118,-86.004037,0.952712601064,Slow traffic on IN-37 from E 146th St (IN-37) to I-69 (IN-37) due to roadwork.,,State Road 37 N,R,Fishers,Hamilton,IN,46038,US,US/Eastern,KMQJ,2021-07-29 17:35:00,86.0,86.0,89.0,29.0,10.0,WSW,14.0,,Mostly Cloudy,False,False,False,False,False,False,False,False,False,False,False,True,False,Day,Day,Day,Day
C-1070382,4,2019-04-23 21:00:00,2019-04-24 05:00:00,29.83146,-95.3831,29.83146,-95.3831,0.0,At Crosstimbers Rd/Exit 52 - Exit ramp closed. Construction work.,,I-45 S,R,Houston,Harris,TX,77022,US,US/Central,KMCJ,2019-04-23 20:53:00,72.0,72.0,78.0,29.91,10.0,SE,12.0,0.0,Cloudy,False,False,False,False,True,False,False,False,False,False,False,False,False,Night,Night,Night,Day
C-1070383,2,2021-09-14 08:05:24,2021-09-14 08:26:05,40.764107,-73.968765,40.767245,-73.966491,0.2473250034919999,Slow traffic from E 57th St (Park Ave) to E 66th St (Park Ave) due to roadwork.,533.0,Park Ave,R,New York,New York,NY,10022-1110,US,US/Eastern,KNYC,2021-09-14 07:51:00,70.0,70.0,81.0,29.98,10.0,CALM,0.0,0.0,Fair,False,False,False,False,False,False,False,False,False,False,False,True,False,Day,Day,Day,Day
C-1070384,2,2021-11-13 18:04:30,2021-11-13 20:13:35,32.954294,-96.836663,32.954388,-96.839548,0.167388502171,Slow traffic from Addison Rd (8th St/Belt Line Rd) to Marsh Ln (8th St/Belt Line Rd) due to roadwork.,4423.0,Belt Line Rd,L,Addison,Dallas,TX,75001-4514,US,US/Central,KADS,2021-11-13 17:49:00,59.0,59.0,34.0,29.42,13.0,SE,9.0,0.0,Partly Cloudy,False,False,False,False,False,False,False,False,False,False,False,False,False,Night,Night,Day,Day
C-1070385,2,2021-12-03 08:22:00,2021-12-03 15:15:00,37.37612100000001,-77.224503,37.376432,-77.222174,0.129669357566,On Rt. 607 (Wayside Rd) in the County of Charles City from John Tyler Memorial Hwy to Barnetts Rd; Rt. 609N/S (Charles City County) motorists can expect potential delays in this area from 12/03/21 at 8:22 AM until 12/03/21 at 2:30 PM due to guardrail repairs. The east right shoulder is an alternating closure. The west right shoulder is an alternating closure.,2400.0,Wayside Rd,L,Charles City,Charles City,VA,23030-2613,US,US/Eastern,KRIC,2021-12-03 07:54:00,47.0,45.0,68.0,29.84,10.0,NNE,5.0,0.0,Partly Cloudy,False,False,False,False,False,False,False,False,False,False,False,False,False,Day,Day,Day,Day
C-1070386,2,2021-12-17 12:22:00,2021-12-17 14:25:29,33.495778,-112.073923,33.494795,-112.073064,0.0840399230893,Slow traffic from W Monterosa St to N 2nd St due to roadwork.,4154.0,N Central Ave,L,Phoenix,Maricopa,AZ,85013,US,US/Mountain,KPHX,2021-12-17 12:51:00,57.0,57.0,37.0,28.84,10.0,CALM,0.0,0.0,Fair,True,False,False,False,False,True,True,False,True,False,False,False,False,Day,Day,Day,Day
C-1070387,2,2021-12-22 16:57:00,2021-12-22 17:23:30,42.719678,-84.603036,42.714843,-84.60301700000002,0.334068075871,Stationary traffic from W St Joseph St (S Waverly Rd) to Moores River Dr (S Waverly Rd) due to roadwork.,904.0,S Waverly Rd,R,Lansing,Eaton,MI,48917,US,US/Eastern,KLAN,2021-12-22 16:53:00,26.0,13.0,60.0,29.12,10.0,W,17.0,0.0,Cloudy,False,False,False,False,False,False,False,False,False,False,False,False,False,Day,Day,Day,Day
C-1070388,2,2019-08-16 09:04:36,2019-08-20 09:04:23,37.549427,-77.47017199999998,37.549367,-77.470003,0.0101435106161,At Shields Ave - Construction work. Lane blocked.,99.0,S Addison St,L,Richmond,Richmond City,VA,23220-5214,US,US/Eastern,KRIC,2019-08-16 08:54:00,79.0,79.0,88.0,29.81,10.0,N,5.0,0.0,Mostly Cloudy,True,False,False,False,False,False,False,False,True,False,False,False,False,Day,Day,Day,Day
C-1070389,2,2021-11-11 18:56:30,2021-11-11 19:25:30,34.206074,-86.850971,34.206487,-86.86036899999998,0.537774070163,Stationary traffic on AL-157 from CR-1435/Eva Rd (AL-157) to I-65 (AL-157) due to roadwork.,4697.0,AL Highway 157,L,Cullman,Cullman,AL,35058-5909,US,US/Central,K3A1,2021-11-11 18:53:00,57.0,57.0,96.0,29.33,10.0,WNW,8.0,0.0,Mostly Cloudy,False,False,False,False,False,False,False,False,False,False,False,False,False,Night,Night,Night,Night
C-1070390,2,2017-09-15 17:03:59,2017-09-16 04:00:00,47.587957,-122.231613,47.58921,-122.23526,0.190730611983,At 80th Ave SE - Construction work. Right lane closed.,,80th Ave SE,R,Mercer Island,King,WA,98040,US,US/Pacific,KBFI,2017-09-15 16:53:00,75.0,,31.0,30.04,10.0,Variable,4.6,,Clear,False,False,False,False,False,False,False,False,False,True,False,False,False,Day,Day,Day,Day
C-1070391,2,2019-01-26 21:32:16,2019-02-01 21:30:54,26.09627,-80.23952,26.08958,-80.21249,1.7397816037599998,Between University Dr/Exit 5 and Florida's Tpke/Exit 8A - Construction work.,,I-595 E,R,Fort Lauderdale,Broward,FL,33317,US,US/Eastern,KFLL,2019-01-28 21:53:00,52.0,,89.0,30.03,10.0,West,4.6,,Clear,False,False,False,False,False,False,False,False,False,False,False,False,False,Night,Night,Night,Night
C-1070392,2,2019-06-25 09:00:00,2019-06-25 19:00:00,32.981449,-96.32309,,,27.7299995422,Intermittent lane closures due to construction work on TX-66 both ways between John King Blvd and County Line Rd.,896.0,E County Line Rd,R,Royse City,Collin,TX,75189,US,US/Central,KF46,2019-06-25 08:55:00,75.0,75.0,91.0,29.36,10.0,SSE,3.0,0.0,Fair,False,False,False,False,False,False,False,False,False,False,False,False,False,Day,Day,Day,Day
C-1070393,4,2021-06-25 09:00:00,2021-06-25 16:30:00,32.803735,-81.94515899999998,32.803727,-81.946101,0.0547096153023,GA-23 - GA-67 - GA-17 is closed from E Winthrope Ave (GA-23) to US-25/GA-17/GA-121/Statesboro Rd (GA-23) due to roadwork.,293.0,E Winthrope Ave,R,Millen,Jenkins,GA,30442-1660,US,US/Eastern,KJYL,2021-06-25 08:55:00,71.0,71.0,70.0,30.04,10.0,ENE,6.0,0.0,Fair,False,False,True,False,False,False,True,False,False,False,False,False,False,Day,Day,Day,Day
C-1070394,2,2016-07-31 08:01:17,2016-07-31 14:01:17,40.08556,-83.03496,40.11497,-83.0346,2.03212654016,Between OH-161 and I-270 - Construction work.,,Olentangy Fwy N,R,Columbus,Franklin,OH,43085,US,US/Eastern,KOSU,2016-07-31 07:53:00,71.1,,93.0,29.99,6.0,Calm,,,Overcast,False,False,False,False,True,False,False,False,False,False,False,False,False,Day,Day,Day,Day
C-1070395,3,2019-10-10 20:00:00,2019-10-11 06:00:00,35.64617,-82.03183,35.64595,-82.03797,0.3450809695049999,At Sugar Hill Rd - Roadwork during the night. One lane closed.,,I-40 W,R,Marion,McDowell,NC,28752,US,US/Eastern,KFQD,2019-10-10 19:55:00,64.0,64.0,83.0,28.99,10.0,CALM,0.0,0.0,Fair,False,False,False,False,True,False,False,False,False,False,False,False,False,Night,Night,Night,Day
C-1070396,2,2020-12-11 14:24:30,2020-12-11 22:52:30,40.091233,-75.15863399999998,40.093105,-75.161948,0.21774659579,Stationary traffic on PA-73 from PA-73/Washington Ln (Church Rd) to S Easton Rd (Church Rd) due to roadwork.,698.0,Mulford Rd,R,Wyncote,Montgomery,PA,19095-1110,US,US/Eastern,KLOM,2020-12-11 14:15:00,56.0,56.0,57.0,29.77,10.0,SSW,10.0,0.0,Fair,False,False,True,False,False,False,False,False,False,False,False,True,False,Day,Day,Day,Day
C-1070397,2,2021-06-18 10:30:00,2021-06-18 11:30:00,41.726719,-70.948921,,,0.0,Left lane closed due to construction work on MA-140 Northbound at Braley Rd.,,Theodore Rice Blvd,R,New Bedford,Bristol,MA,02745,US,US/Eastern,KEWB,2021-06-18 10:53:00,78.0,78.0,31.0,29.9,10.0,W,13.0,0.0,Fair,False,False,False,False,False,False,False,False,False,False,False,False,False,Day,Day,Day,Day
C-1070398,2,2021-05-28 15:08:00,2021-05-28 19:06:25,33.475619,-112.203321,33.481027000000005,-112.203275,0.373666616883,Slow traffic from W McDowell Rd (N 67th Ave) to W Indian School Rd (N 67th Ave) due to roadwork.,5827.0,W Wilshire Dr,L,Phoenix,Maricopa,AZ,85035-2942,US,US/Mountain,KGEU,2021-05-28 14:58:00,97.0,97.0,6.0,28.68,10.0,SW,6.0,0.0,Fair,False,False,False,False,False,False,False,False,True,False,False,False,False,Day,Day,Day,Day
C-1070399,2,2021-05-13 06:27:30,2021-05-13 18:58:07,33.582753000000004,-111.974111,33.582772,-111.978813,0.270654429202,Slow traffic from 56th St (E Shea Blvd) to 40th St (E Shea Blvd) due to roadwork.,,E Shea Blvd,R,Scottsdale,Maricopa,AZ,85254,US,US/Mountain,KSDL,2021-05-13 06:53:00,69.0,69.0,25.0,28.32,10.0,CALM,0.0,0.0,Fair,True,False,False,False,False,False,False,False,True,False,False,False,False,Day,Day,Day,Day
C-1070400,2,2021-09-25 12:24:30,2021-09-25 14:45:32,26.166089000000003,-80.15580600000001,26.165584,-80.154657,0.0793373602541,Stationary traffic on FL-816 - FL-845 from I-95 N to NW 30th Ct due to roadwork.,978.0,W Oakland Park Blvd,L,Wilton Manors,Broward,FL,33311-1602,US,US/Eastern,KFXE,2021-09-25 12:53:00,84.0,84.0,76.0,29.99,10.0,ESE,3.0,0.0,Rain,False,False,True,False,False,False,False,False,True,False,False,False,False,Day,Day,Day,Day
C-1070401,2,2019-02-13 21:03:42,2019-02-18 21:02:41,25.84099800000001,-80.184371,25.84246,-80.18442900000002,0.101078946411,At 73rd St - Construction work. Lane blocked.,7131.0,Biscayne Blvd,L,Miami,Miami-Dade,FL,33138-5701,US,US/Eastern,KOPF,2019-02-13 21:12:00,61.0,,87.0,30.05,10.0,North,12.7,,Scattered Clouds,False,False,False,False,False,False,False,False,False,False,False,False,False,Night,Night,Night,Night
C-1070402,2,2019-08-16 19:02:26,2019-08-20 19:02:05,39.90572,-75.19391,39.912105,-75.192589,0.446682349376,Between Penrose Ave and Hartranft St - Roadwork. Lane blocked.,,Penrose Ave,R,Philadelphia,Philadelphia,PA,19145,US,US/Eastern,KPHL,2019-08-16 18:54:00,82.0,82.0,69.0,29.96,10.0,SSE,8.0,0.0,Mostly Cloudy,False,False,False,False,False,False,False,False,False,False,False,True,False,Day,Day,Day,Day
C-1070403,2,2021-12-16 00:56:30,2021-12-16 01:10:30,40.0912,-77.824744,40.087358,-77.833952,0.5544118493600001,Slow traffic on Pennsylvania Tpke W - I-76 W from PA-75/Exit 189 (I-76) to Waters Dr (Pennsylvania Tpke/I-76) due to roadwork.,,I-76 W,R,Fannettsburg,Franklin,PA,17221,US,US/Eastern,KHGR,2021-12-16 00:53:00,48.0,44.0,77.0,29.45,10.0,S,9.0,0.0,Cloudy,False,False,False,False,False,False,False,False,False,False,False,False,False,Night,Night,Night,Night
C-1070404,2,2021-08-29 11:43:30,2021-08-29 12:13:30,42.737749,-86.082977,42.734949,-86.131687,2.47949521728,Stationary traffic on I-196 W from MI-40/Exit 49 (I-196) to US-31/Exit 44 (I-196) due to roadwork.,,I-196 W,R,Holland,Allegan,MI,49423,US,US/Eastern,KBIV,2021-08-29 11:53:00,87.0,87.0,57.0,29.23,10.0,SSW,17.0,0.0,Fair,False,False,False,False,False,False,False,False,False,False,False,False,False,Day,Day,Day,Day
C-1070405,2,2021-10-20 08:55:23,2021-10-20 09:09:23,40.746954,-73.83517900000002,40.753625,-73.837343,0.474635854513,Slow traffic on I-678 N from I-495/Long Island Expy/Exit 12B (I-678) to NY-25A/Exit 13 (I-678) due to roadwork.,,Van Wyck Expy N,R,Flushing,Queens,NY,11355,US,US/Eastern,KLGA,2021-10-20 08:51:00,63.0,63.0,52.0,29.99,10.0,W,12.0,0.0,Mostly Cloudy,False,False,True,False,False,False,False,False,False,False,False,False,False,Day,Day,Day,Day
C-1070406,2,2020-04-01 07:00:00,2020-05-05 19:00:00,39.72264000000001,-85.89728000000002,39.72169,-85.89271,0.251578910486,At Bittner Rd/S 450 - Roadwork.,5046.0,W US Highway 52,L,New Palestine,Hancock,IN,46163-9770,US,US/Eastern,KMQJ,2020-04-01 18:30:00,,,,29.13,,NNW,7.0,,,False,False,True,False,False,False,False,False,False,False,False,False,False,Night,Day,Day,Day
C-1070407,3,2021-10-27 20:00:00,2021-10-28 06:00:00,44.261261,-88.46534,,,1.15999996662,Exit ramp from I-41 Northbound at Exit 137 to W College Ave Eastbound intermittent ramp closures due to construction work.,,W College Ave,R,Appleton,Outagamie,WI,54914,US,US/Central,KATW,2021-10-27 19:45:00,46.0,41.0,76.0,28.92,10.0,ESE,10.0,0.0,Cloudy,False,False,False,False,False,False,False,False,False,False,False,False,False,Night,Night,Night,Night
C-1070408,2,2021-11-29 09:53:00,2021-11-29 10:13:00,25.927906,-80.136162,25.929805,-80.130423,0.379983705909,Stationary traffic on FL-826 from US-1/FL-5/Biscayne Blvd (FL-826) to FL-A1A/Collins Ave (FL-826) due to roadwork.,,NE 34th Ave,R,North Miami Beach,Miami-Dade,FL,33160,US,US/Eastern,KHWO,2021-11-29 09:53:00,67.0,67.0,42.0,30.07,10.0,N,14.0,0.0,Fair,False,False,True,False,False,False,False,False,False,False,False,True,False,Day,Day,Day,Day
C-1070409,2,2021-11-03 07:15:00,2021-11-04 02:00:37,42.570443,-91.721199,42.563957,-91.726366,0.519577832242,Roadwork on 150th St from Sergeant Ave to County Hwy-W45.,2516.0,150th St,L,Aurora,Buchanan,IA,50607,US,US/Central,,,,,,,,,,,,False,False,False,False,False,False,False,False,False,False,False,False,False,Night,Day,Day,Day
C-1070410,2,2021-06-08 23:26:30,2021-06-09 00:19:00,42.08844600000001,-122.603379,42.049976,-122.607421,2.6660965556400003,Slow traffic on OR-99 S - Pacific Highway 1 S - I-5 S from OR-99/Exit 11 (I-5) to OR-99/Exit 1 (I-5) due to roadwork.,,I-5 S,R,Ashland,Jackson,OR,97520,US,US/Pacific,KMFR,2021-06-08 23:53:00,56.0,56.0,44.0,28.69,10.0,NW,7.0,0.0,Cloudy,False,False,False,False,False,False,False,False,False,False,False,False,False,Night,Night,Night,Night
C-1070411,2,2020-06-01 06:04:51,2020-06-01 16:30:00,43.06041,-76.56788,43.10626,-76.2905,14.3514673661,Between Port Byron Service Area and I-690/RT-690/Exit 39 - Roadwork. Left lane closed.,,I-90 E,R,Weedsport,Cayuga,NY,13166,US,US/Eastern,KFZY,2020-06-01 05:54:00,45.0,45.0,86.0,29.7,10.0,CALM,0.0,0.0,Cloudy,False,False,False,False,True,False,False,False,False,False,False,False,False,Day,Day,Day,Day
C-1070413,2,2021-03-26 04:35:00,2021-11-13 13:41:30,32.864233,-96.661474,32.871468,-96.67733,1.04719316338,Slow traffic on I-635 W - LBJ Fwy W from W Centerville Rd/Ferguson Rd/Exit 11 (I-635) to Jupiter Rd/Exit 13 (I-635) due to roadwork.,,I-635 W,R,Garland,Dallas,TX,75041,US,US/Central,KHQZ,2021-03-26 04:35:00,49.0,47.0,95.0,29.43,10.0,E,5.0,0.0,Fair,False,False,False,False,False,False,False,False,False,False,False,False,False,Night,Night,Night,Night
C-1070414,2,2019-09-16 09:03:02,2019-09-22 09:01:33,38.00039,-122.606714,38.008572,-122.617504,0.815276317355,At Sir Francis Drake Blvd - Construction work.,2854.0,Sir Francis Drake Blvd,R,Fairfax,Marin,CA,94930,US,US/Pacific,KDVO,2019-09-18 08:55:00,66.0,66.0,100.0,29.86,7.0,CALM,0.0,0.0,Cloudy,True,False,False,False,False,False,False,False,False,False,False,False,False,Day,Day,Day,Day
C-1070415,2,2020-03-16 07:03:32,2020-03-23 07:01:29,38.89927,-76.98549,38.89404,-76.99842,0.783593850696,Between Bladensburg Rd NE/H St NE and 6th St NE - Construction work.,,14th St NE,R,Washington,District of Columbia,DC,20002,US,US/Eastern,KDCA,2020-03-16 07:01:00,39.0,32.0,65.0,30.49,10.0,NNE,10.0,0.0,Mostly Cloudy,False,False,True,False,False,False,False,False,False,False,False,True,False,Night,Day,Day,Day
C-1070416,2,2021-06-28 12:00:00,2021-06-28 12:20:00,39.960919,-75.394471,39.953442,-75.39315500000002,0.5212918706549999,Stationary traffic on PA-252 from PA-3/W Chester Pike (Newtown Street Rd/PA-252) to US-1/Media Byp (N Providence Rd/PA-252) due to roadwork.,,Newtown Street Rd,R,Media,Delaware,PA,19063,US,US/Eastern,KPHL,2021-06-28 11:54:00,88.0,88.0,59.0,30.23,10.0,W,13.0,0.0,Fair,False,False,False,False,False,False,False,False,False,False,False,False,False,Day,Day,Day,Day
C-1070417,2,2019-05-09 07:04:15,2019-05-13 07:03:53,39.71693,-75.55739,39.71696,-75.55049,0.366722857799,At US-13/Dupont Pky/Exit 1 - Construction work.,,S Heald St,R,New Castle,New Castle,DE,19720,US,US/Eastern,KILG,2019-05-09 06:51:00,59.0,59.0,83.0,30.17,10.0,ENE,10.0,0.0,Cloudy,False,False,False,False,False,False,False,False,False,False,False,False,False,Day,Day,Day,Day
C-1070418,2,2020-10-05 17:07:30,2020-10-05 20:28:00,39.840257,-77.911177,39.83353,-77.904023,0.60007715813,Stationary traffic on PA-16 from PA-456/Little Cove Rd (Buchanan Trl/PA-16) to PA-75/PA-416/Fort Loudon Rd (Buchanan Trl/N Main St/PA-16) due to roadwork.,5899.0,Oakwood Dr,L,Mercersburg,Franklin,PA,17236-9401,US,US/Eastern,KHGR,2020-10-05 16:53:00,63.0,63.0,45.0,29.41,10.0,WNW,8.0,0.0,Mostly Cloudy,False,False,True,False,False,False,False,False,False,True,False,True,False,Day,Day,Day,Day
C-1070419,2,2021-12-14 07:08:30,2021-12-14 07:51:00,27.174567,-80.318596,27.161576,-80.318076,0.898161586804,Stationary traffic on FL-714 - County Hwy-714 from SW Boatramp Ave to Florida's Turnpike S due to roadwork.,,SW Citrus Blvd,R,Palm City,Martin,FL,34990,US,US/Eastern,KSUA,2021-12-14 06:50:00,70.0,70.0,94.0,30.25,7.0,CALM,0.0,0.0,Partly Cloudy,False,False,False,False,False,False,False,False,False,False,False,False,False,Day,Day,Day,Day
C-1070420,3,2017-06-06 09:25:35,2018-07-01 00:00:00,33.519825,-86.81633000000002,,,0.709999978542,Exit ramp from I-59 Northbound to 17th St closed due to bridge maintenance work and long-term construction.,869.0,16th St N,R,Birmingham,Jefferson,AL,35203,US,US/Central,KBHM,2017-06-06 09:53:00,70.0,,93.0,29.83,7.0,ENE,4.6,0.11,Light Rain,False,False,False,False,False,False,False,False,False,False,False,False,False,Day,Day,Day,Day
C-1070421,4,2021-09-24 14:45:01,2021-10-01 23:59:00,30.282589,-97.740875,30.282502,-97.739852,0.0613331553381999,Closed road from Guadalupe St to University Ave due to roadwork.,298.0,W 20th St,R,Austin,Travis,TX,78705,US,US/Central,KATT,2021-09-24 15:51:00,88.0,88.0,21.0,29.32,10.0,VAR,3.0,0.0,Fair,True,False,False,False,False,False,False,False,False,False,False,False,False,Day,Day,Day,Day
C-1070422,2,2021-12-20 17:00:30,2021-12-20 19:02:41,32.781886,-96.737632,32.783615999999995,-96.737512,0.119734695765,Slow traffic from Hatcher St/Spring Ave (Dolphin Rd) to I-30/US-67/R L Thornton Fwy (Dolphin Rd) due to roadwork.,3401.0,Detonte St,L,Dallas,Dallas,TX,75223-3511,US,US/Central,KDAL,2021-12-20 16:53:00,50.0,50.0,54.0,29.63,10.0,E,5.0,0.0,Mostly Cloudy,False,False,False,False,False,False,False,False,False,False,False,False,False,Day,Day,Day,Day
C-1070423,4,2021-06-26 07:00:00,2021-06-26 17:45:00,39.869996,-82.28385300000002,39.870686,-82.268863,0.7963330455329999,Construction on OH-204 EB near OH-757 Expect delays.,12198.0,Gower Rd,R,Glenford,Perry,OH,43739-9722,US,US/Eastern,KVTA,2021-06-26 06:54:00,72.0,72.0,78.0,29.13,10.0,SSE,8.0,0.0,Fair,False,False,False,False,False,False,False,False,False,False,False,False,False,Day,Day,Day,Day
C-1070424,3,2020-04-13 03:06:45,2020-04-17 03:04:24,39.89875,-75.17026,39.90255,-75.15086,1.06129742239,At I-76/Packer Ave/Exit 19 - Bridge maintenance work. Lane blocked. Traffic problem.,3987.0,S 11th St,L,Philadelphia,Philadelphia,PA,19148,US,US/Eastern,KPHL,2020-04-13 02:54:00,57.0,57.0,87.0,29.94,5.0,S,15.0,0.06,Light Rain,False,False,False,False,False,False,False,False,False,False,False,False,False,Night,Night,Night,Night
C-1070425,2,2020-07-22 03:06:44,2020-07-22 05:59:00,34.29533,-118.84214,,,0.6100000143050001,Entry ramp to CA-118 Westbound from Collins Dr closed due to emergency repairs.,6597.0,Collins Dr,L,Moorpark,Ventura,CA,93021-1487,US,US/Pacific,KCMA,2020-07-22 03:07:00,60.0,60.0,86.0,29.78,8.0,CALM,0.0,0.0,Cloudy,False,False,False,False,False,False,False,False,False,False,False,False,False,Night,Night,Night,Night
C-1070426,2,2020-09-26 03:06:29,2020-09-26 05:16:12,41.163936,-73.376795,41.163966,-73.379915,0.162301731115,Road Work on RT15 Southbound between Exits 41 and 40A (3.0 miles) in effect today until Saturday September 26 at 6:00 am. The right lane is closed. Reported Friday September 25 at 8:07 pm.,,CT-15 S,R,Westport,Fairfield,CT,06880,US,US/Eastern,KBDR,2020-09-26 02:52:00,67.0,67.0,90.0,30.1,8.0,S,5.0,0.0,Cloudy,False,False,False,False,True,False,False,False,False,False,False,False,False,Night,Night,Night,Night
C-1070427,2,2019-06-18 22:02:09,2019-06-22 22:02:03,33.773856,-84.38731999999997,33.77682,-84.3873,0.204796116769,At 5th St - Construction work.,1.0,3rd St NE,R,Atlanta,Fulton,GA,30308,US,US/Eastern,KFTY,2019-06-18 22:04:00,72.0,72.0,93.0,29.04,10.0,CALM,0.0,0.0,Partly Cloudy,False,False,True,False,False,False,False,False,False,False,False,True,False,Night,Night,Night,Day
C-1070428,2,2021-09-18 11:22:30,2021-12-22 19:15:15,32.964218,-97.687922,32.962563,-97.681073,0.413179591784,Slow traffic on TX-199 from W 1st St (TX-199) to Harms Rd (TX-199) due to roadwork.,326.0,W State Highway 199,L,Springtown,Parker,TX,76082-2631,US,US/Central,KXBP,2021-09-18 11:15:00,86.0,86.0,50.0,29.21,10.0,WNW,3.0,0.0,Fair,False,False,False,False,False,False,False,False,False,False,False,True,False,Day,Day,Day,Day
C-1070429,3,2020-06-09 00:00:00,2020-12-30 00:00:00,47.126308,-122.544418,,,0.7300000190729999,Entry ramp to I-5 Southbound from N Thorne Ln Sw Southbound intermittent ramp closures due to long-term construction.,,I-5 S,R,Lakewood,Pierce,WA,98439,US,US/Pacific,KTCM,2020-06-09 00:58:00,51.0,51.0,93.0,29.8,10.0,CALM,0.0,0.0,Cloudy,False,False,False,False,False,False,False,False,False,False,False,True,False,Night,Night,Night,Night
C-1070430,2,2021-09-07 11:27:00,2021-09-07 11:53:00,31.882755,-106.488959,31.88024,-106.500397,0.6932025324259999,Stationary traffic on TX-375 Loop from US-54/Gateway Blvd (TX-375 Loop/Woodrow Bean Transmountain Dr) to Tom Mays Park Access Rd (TX-375 Loop/Woodrow Bean Transmountain Dr) due to roadwork.,,Woodrow Bean Transmountain Dr,R,El Paso,El Paso,TX,79924,US,US/Mountain,KBIF,2021-09-07 11:51:00,88.0,88.0,36.0,26.01,10.0,S,6.0,0.0,Fair,False,False,False,False,False,False,False,False,False,False,False,False,False,Day,Day,Day,Day
C-1070431,2,2021-11-04 22:09:00,2021-11-05 00:13:06,30.248457,-81.75632900000002,30.248459000000004,-81.758461,0.127251236213,Stationary traffic on FL-134 from Wesconnett Blvd (FL-134) to I-295 (FL-134) due to roadwork.,6827.0,103rd St,R,Jacksonville,Duval,FL,32210-6855,US,US/Eastern,KNIP,2021-11-04 21:53:00,63.0,63.0,84.0,30.09,10.0,NNE,15.0,0.0,Mostly Cloudy,False,False,True,False,False,False,False,False,False,False,False,True,False,Night,Night,Night,Night
C-1070432,2,2021-11-16 07:44:00,2021-11-16 09:48:26,33.508105,-112.047535,33.509223,-112.04808,0.0833835810047,Stationary traffic from E Pierson St to N 15th St due to roadwork.,4874.0,N 16th St,L,Phoenix,Maricopa,AZ,85016-4606,US,US/Mountain,KPHX,2021-11-16 07:51:00,60.0,60.0,30.0,28.79,10.0,ESE,5.0,0.0,Mostly Cloudy,True,False,False,False,False,False,False,False,False,False,False,False,False,Day,Day,Day,Day
C-1070433,2,2021-04-26 04:48:00,2021-04-26 09:41:22,33.468175,-112.151772,33.464872,-112.151828,0.228238389274,Slow traffic from W Thomas Rd (N 43rd Ave) to I-10/Papago Fwy (N 43rd Ave) due to roadwork.,1847.0,N 43rd Ave,R,Phoenix,Maricopa,AZ,85009,US,US/Mountain,KPHX,2021-04-26 04:51:00,69.0,69.0,18.0,28.53,10.0,E,5.0,0.0,Partly Cloudy,False,False,False,False,False,False,False,False,False,False,False,False,False,Night,Night,Day,Day
C-1070434,2,2020-12-09 13:01:00,2020-12-09 13:42:00,40.186583,-77.22104300000002,40.187127,-77.208632,0.656173543029,Slow traffic on I-81 N from PA-465/Exit 44 (I-81) to Walnut Bottom Rd/Exit 45 (I-81) due to roadwork.,,I-81 N,R,Carlisle,Cumberland,PA,17013,US,US/Eastern,KCXY,2020-12-09 12:56:00,42.0,36.0,51.0,29.39,10.0,WSW,12.0,0.0,Cloudy,False,False,False,False,False,False,False,False,False,False,False,False,False,Day,Day,Day,Day
C-1070435,2,2018-06-27 10:34:00,2018-06-27 16:34:00,39.51431,-76.76821,39.502145,-76.780505,1.06585740763,At Belmont Ave - Construction work.,3498.0,Butler Rd,R,Reisterstown,Baltimore,MD,21136-3856,US,US/Eastern,KDMW,2018-06-27 10:15:00,73.4,,83.0,30.06,10.0,SSW,4.6,,Overcast,False,False,False,False,False,False,False,False,False,True,False,False,False,Day,Day,Day,Day
C-1070436,3,2018-11-30 08:00:00,2018-11-30 17:00:00,34.621353000000006,-88.594093,,,3.7699999809300007,Road closed due to construction work on MS-145 Second St both ways between County Road 7090 and Elder Lake Rd.,2501.0,S Second St,L,Booneville,Prentiss,MS,38829,US,US/Central,KCRX,2018-11-30 07:55:00,62.6,,100.0,29.95,7.0,South,5.8,0.01,Overcast,False,False,False,False,False,False,False,False,False,False,False,False,False,Day,Day,Day,Day
C-1070437,2,2018-06-18 05:22:27,2018-06-18 05:51:17,38.054867,-84.47879,,,1.46000003815,Intermittent lane closures due to electricity work on Loudon Ave both ways between US-68 Broadway and Maple Ave.,,Maple Ave,R,Lexington,Fayette,KY,40505,US,US/Eastern,KLEX,2018-06-18 04:54:00,73.0,,84.0,30.08,10.0,SSE,4.6,,Clear,False,False,False,False,False,False,False,False,False,False,False,False,False,Night,Night,Day,Day
C-1070438,2,2020-08-26 20:26:12,2020-09-02 20:19:57,42.466716,-96.897938,42.466721,-96.8966,0.0681962171582,Construction on US-20 EB near 576 AVE Construction. Expect long delays.,580.0,Ave,R,Allen,Dixon,NE,68710,US,US/Central,KLCG,2020-08-26 20:35:00,76.0,76.0,71.0,28.27,10.0,S,7.0,0.0,Fair,False,False,False,False,False,False,False,False,False,False,False,False,False,Night,Day,Day,Day
C-1070439,2,2021-11-01 07:35:17,2021-11-01 07:57:30,31.014725,-89.48095699999998,31.021872,-89.49194,0.81657209145,Stationary traffic on MS-13 from US-11 (MS-13) to Purvis Baxterville Rd (MS-13) due to roadwork.,3859.0,Highway 13,L,Lumberton,Lamar,MS,39455-5921,US,US/Central,KHBG,2021-11-01 07:53:00,49.0,49.0,86.0,30.08,10.0,CALM,0.0,0.0,Fair,False,False,False,False,False,False,False,False,False,False,False,False,False,Day,Day,Day,Day
C-1070440,2,2021-11-17 16:37:10,2021-11-17 16:58:15,36.703673,-95.935133,36.713542,-95.935127,0.681883038524,Stationary traffic on US-75 S - US-75 N from E0220 Rd/Rice Creek Rd (SE Washington Blvd/US-75) to US-60/Nowata Rd/Limestone Rd (SE Washington Blvd/US-75) due to roadwork.,3056.0,SE Washington Blvd,R,Bartlesville,Washington,OK,74006-7629,US,US/Central,KBVO,2021-11-17 16:53:00,53.0,53.0,27.0,29.4,10.0,N,16.0,0.0,Cloudy,False,False,True,False,False,False,False,False,False,False,False,True,False,Day,Day,Day,Day
C-1070441,2,2021-03-24 21:34:07,2021-11-19 22:12:29,41.52572,-74.213914,41.525783,-74.222235,0.4304451197950001,Construction on NY-17K NB near BAILEY RD Construction. Shoulder closed.,2.0,McGowan Dr,L,Montgomery,Orange,NY,12549-2517,US,US/Eastern,KMGJ,2021-06-08 06:54:00,72.0,72.0,97.0,29.65,7.0,CALM,0.0,0.0,Fair,False,False,False,False,False,False,False,False,False,False,False,False,False,Night,Night,Night,Night
C-1070442,2,2021-02-11 05:57:00,2021-02-11 10:38:44,33.552908,-112.081709,33.551404999999995,-112.082569,0.115050012759,Stationary traffic from N 5th Ave to W Augusta Ave due to roadwork.,474.0,W Northern Ave,R,Phoenix,Maricopa,AZ,85021-7217,US,US/Mountain,KDVT,2021-02-11 05:53:00,46.0,46.0,51.0,28.34,10.0,CALM,0.0,0.0,Fair,False,False,False,False,False,False,False,False,False,True,False,False,False,Night,Night,Night,Day
C-1070443,2,2020-10-30 09:39:00,2020-10-31 01:55:07,41.003468,-73.650464,40.988076,-73.671441,1.5256721379700002,Slow traffic on I-95 S - I-287 W from Delavan Ave exit [2] to exit [21] due to roadwork.,,I-95 S,R,Greenwich,Fairfield,CT,06830,US,US/Eastern,KHPN,2020-10-30 09:56:00,35.0,26.0,92.0,29.35,1.0,N,14.0,0.07,Wintry Mix,False,False,False,False,False,False,False,False,False,False,False,False,False,Day,Day,Day,Day
C-1070444,2,2020-10-23 08:44:30,2020-10-23 10:32:30,39.414254,-86.43445899999998,39.415302,-86.433285,0.0957622714301,Stationary traffic on IN-39 from IN-37 (Morton Ave/IN-39) to Morton Ave (S Harriet St/IN-39) due to construction work.,499.0,Morton Ave,R,Martinsville,Morgan,IN,46151-2757,US,US/Eastern,KIND,2020-10-23 08:34:00,64.0,64.0,90.0,29.13,10.0,SSE,10.0,0.0,Light Rain,False,False,False,False,False,False,False,False,False,False,False,True,False,Day,Day,Day,Day
C-1070445,2,2021-12-19 17:21:00,2021-12-19 19:22:48,29.723509000000004,-95.427775,29.72529500000001,-95.42773,0.123430383769,Slow traffic from W Holcombe Blvd (Buffalo Speedway) to Bissonnet St (Buffalo Speedway) due to roadwork.,5457.0,Buffalo Speedway,L,Houston,Harris,TX,77005-2123,US,US/Central,KMCJ,2021-12-19 16:53:00,58.0,58.0,46.0,30.15,10.0,N,8.0,0.0,Mostly Cloudy,False,False,False,False,False,False,False,False,False,False,False,True,False,Day,Day,Day,Day
C-1070446,2,2018-11-14 03:26:35,2018-11-18 03:26:06,40.767638,-73.901759,40.767641,-73.901774,0.00081184046527,At I-278 - Construction work.,,Grand Central Pkwy W,R,Astoria,Queens,NY,11103,US,US/Eastern,KLGA,2018-11-14 03:51:00,39.0,29.9,50.0,30.22,10.0,NW,17.3,,Mostly Cloudy,False,False,True,False,False,False,False,False,True,False,False,True,False,Night,Night,Night,Night
C-1070447,2,2021-09-10 14:32:36,2021-09-10 14:53:03,30.545065,-84.22685899999998,30.541851,-84.227262,0.223357358528,Stationary traffic on US-319 S - FL-61 from Roanoke Trl to Saint Ives Ln due to roadwork.,5648.0,Thomasville Rd,L,Tallahassee,Leon,FL,32312-3816,US,US/Eastern,KTLH,2021-09-10 14:53:00,86.0,86.0,38.0,29.92,10.0,VAR,5.0,0.0,Partly Cloudy,False,False,False,False,False,False,False,False,False,False,False,False,False,Day,Day,Day,Day
C-1070448,2,2021-02-04 15:00:00,2021-02-05 01:45:00,40.78788,-81.38606700000003,40.80088,-81.39689,1.06173885909,Construction on I-77 NB near OH-800 Allow extra time.,,I-77 N,R,Canton,Stark,OH,44706,US,US/Eastern,KCAK,2021-02-04 14:51:00,35.0,26.0,48.0,28.51,10.0,SE,13.0,0.0,Mostly Cloudy,False,False,False,False,True,False,False,False,False,False,False,False,False,Day,Day,Day,Day
C-1070449,4,2021-02-02 18:44:00,2021-02-23 09:43:14,29.38273,-90.713757,29.382890000000003,-90.715957,0.132912237062,Bridge closure from Grand Caillou Rd to Shrimpers Row.,7813.0,Grand Caillou Rd,R,Dulac,Terrebonne,LA,70353-2000,US,US/Central,KHUM,2021-02-02 18:55:00,52.0,52.0,44.0,30.17,7.0,NNW,6.0,0.0,Fair,False,False,False,False,False,False,False,False,False,False,False,False,False,Night,Night,Night,Day
C-1070450,2,2019-06-18 12:00:00,2020-07-02 06:58:12,46.408513,-122.93693600000002,46.411603,-122.92793600000002,0.478969828276,Beginning at 7 a.m. on Tuesday June 18 until further notice: Both directions of SR 506 between Telegraph Road and the end of the Lacamas Creek Bridge will be fully closed for bridge replacement work. Note: During construction travelers will follow a signed detour using South Military Road and SR 505. The bridge closure and detour will remain in place until construction of the new bridge is complete.,970.0,State Route 506,R,Vader,Lewis,WA,98593-9720,US,US/Pacific,KTDO,2019-06-18 11:55:00,64.0,64.0,64.0,30.06,10.0,VAR,5.0,0.0,Cloudy,False,False,False,False,False,False,False,False,False,False,False,False,False,Day,Day,Day,Day
C-1070451,2,2021-12-20 12:10:30,2021-12-20 12:32:30,48.476385,-122.326306,48.477711,-122.322709,0.188515256035,Stationary traffic on WA-20 from E Fairhaven Ave / S Cherry St to Avon Ave due to roadwork.,217.0,N Pine St,L,Burlington,Skagit,WA,98233-1361,US,US/Pacific,KBVS,2021-12-20 12:15:00,36.0,30.0,65.0,29.94,10.0,NW,7.0,0.0,Fair,False,False,False,False,False,False,False,False,False,True,False,False,False,Day,Day,Day,Day
C-1070452,2,2018-03-03 21:00:58,2018-03-04 03:00:58,35.59593,-80.53619,35.4956,-80.566,7.13183704406,Between Webb Rd/Exit 70 and Lane St/Exit 63 - Construction work.,,US-601 S,R,Salisbury,Rowan,NC,28146,US,US/Eastern,KRUQ,2018-03-03 20:55:00,47.1,,25.0,30.2,10.0,North,10.4,,Clear,False,False,False,False,False,False,False,False,False,False,False,False,False,Night,Night,Night,Night
C-1070453,2,2020-04-10 06:36:00,2020-04-13 06:36:00,32.2213,-110.95943,32.22148,-110.92663,1.91728659928,Between AZ-210/E Barraza-Aviation Pky and Country Club Rd - Roadwork. Roadway reduced to 1 lane.,798.0,E Broadway Blvd,R,Tucson,Pima,AZ,85719-5724,US,US/Mountain,KDMA,2020-04-10 06:58:00,43.0,40.0,57.0,27.19,10.0,SE,5.0,0.0,Fair,False,False,True,False,False,False,False,False,False,False,False,True,False,Day,Day,Day,Day
C-1070454,2,2020-05-02 06:00:00,2020-05-02 19:00:00,38.33599,-85.81814,38.33599,-85.81814,0.0,At IN-111/Grant Line Rd/Exit 3 - Construction work. Right lane closed.,,Grant Line Rd,R,New Albany,Floyd,IN,47150,US,US/Eastern,KLOU,2020-05-02 05:53:00,54.0,54.0,64.0,29.46,10.0,S,8.0,0.0,Fair,False,False,False,False,False,False,False,False,False,False,False,False,False,Night,Night,Day,Day
C-1070455,2,2020-11-10 15:10:00,2020-11-10 15:59:00,40.714635,-80.303514,40.71668,-80.30881099999998,0.311314697776,Stationary traffic on PA-51 from Veterans Memorial Bridge (PA-51) to Darlington Rd (Constitution Blvd/PA-51) due to roadwork.,1680.0,Riverside Dr,R,Beaver,Beaver,PA,15009-3139,US,US/Eastern,KBVI,2020-11-10 15:15:00,77.0,77.0,47.0,28.6,10.0,S,8.0,,Partly Cloudy,False,False,False,False,False,False,False,False,False,False,False,False,False,Day,Day,Day,Day
C-1070456,2,2021-03-19 04:01:30,2021-03-20 16:24:29,25.686059,-80.39741500000002,25.685959,-80.400752,0.207895845918,Stationary traffic on FL-94 from 122nd Ave (FL-94) to 127th Ave (FL-94) due to roadwork.,12519.0,SW 88th St,L,Miami,Miami-Dade,FL,33186-1829,US,US/Eastern,KTMB,2021-03-19 03:53:00,73.0,73.0,90.0,29.96,8.0,SSW,6.0,0.0,Partly Cloudy,False,False,True,False,False,False,False,False,False,False,False,True,False,Night,Night,Night,Night
C-1070457,2,2021-03-30 11:16:30,2021-03-30 12:15:30,33.626028000000005,-111.979018,33.626098,-111.977688,0.076670232868,Stationary traffic from N 47th St to N Tatum Blvd due to roadwork.,4747.0,E Greenway Rd,L,Phoenix,Maricopa,AZ,85032-4818,US,US/Mountain,KSDL,2021-03-30 10:53:00,73.0,73.0,14.0,28.26,10.0,VAR,3.0,0.0,Fair,False,False,True,False,False,False,False,False,False,False,False,True,False,Day,Day,Day,Day
C-1070458,2,2021-12-22 08:11:00,2021-12-22 08:43:30,35.160452,-101.883853,35.163826,-101.883902,0.233137627698,Stationary traffic from Canyon Dr (N Western St) to SW 45th Ave (N Western St) due to roadwork.,4615.0,S Western St,L,Amarillo,Randall,TX,79109-6024,US,US/Central,KAMA,2021-12-22 07:53:00,27.0,22.0,47.0,26.29,10.0,SSE,5.0,0.0,Fair,False,False,False,False,False,False,False,False,False,False,False,True,False,Day,Day,Day,Day
C-1070459,2,2021-08-10 07:32:42,2021-08-10 16:39:00,41.670177,-72.776154,,,0.959999978542,Right hand shoulder closed due to construction work on CT-9 Northbound between Exit 26 Columbus Blvd and Exit 28 CT-72 Exit 9.,271.0,E Main St,R,New Britain,Hartford,CT,06051-2062,US,US/Eastern,KHFD,2021-08-10 07:53:00,72.0,72.0,87.0,30.16,5.0,ESE,3.0,0.0,Cloudy,False,False,False,False,False,False,False,False,False,False,False,False,False,Day,Day,Day,Day
C-1070460,2,2021-03-07 12:57:00,2021-03-07 13:52:37,28.808793,-98.881443,28.795047,-98.912,2.07964312551,Slow traffic on TX-85 from CR-349/Davis Switch Rd (TX-85) to CR-3501/Keystone Rd (TX-85) due to roadwork.,20913.0,E State Highway 85,R,Pearsall,Frio,TX,78061,US,US/Central,KCOT,2021-03-07 12:53:00,69.0,69.0,39.0,29.8,10.0,ESE,9.0,0.0,Mostly Cloudy,False,False,False,False,False,False,False,False,False,False,False,False,False,Day,Day,Day,Day
C-1070461,2,2020-04-01 20:10:47,2020-04-01 22:10:47,39.37574,-74.47891,39.37574,-74.47891,0.0,At US-40/US-322/Black Horse/Exit 2 - Roadwork. Hard shoulder closed.,,Atlantic City Expy E,R,Atlantic City,Atlantic,NJ,08401,US,US/Eastern,KACY,2020-04-01 22:54:00,41.0,37.0,70.0,29.69,10.0,WNW,6.0,0.0,Fair,False,False,False,False,False,False,False,False,False,False,False,False,False,Night,Night,Day,Day
C-1070462,2,2019-03-06 12:03:10,2019-03-10 13:02:43,26.586771,-80.053042,26.58675,-80.05226,0.048339465973,At US-1/SR-5/SR-805/N Dixie Hwy - Construction work. Lane blocked.,302.0,Lantana Rd,L,Lantana,Palm Beach,FL,33462-1734,US,US/Eastern,KPBI,2019-03-06 11:53:00,64.0,,46.0,30.3,10.0,NNE,17.3,,Partly Cloudy,False,False,True,False,False,False,True,False,False,False,False,True,False,Day,Day,Day,Day
C-1070463,4,2018-07-22 10:16:31,2018-07-22 15:16:06,40.24372,-76.03844000000002,40.21843,-76.08508,3.01761156536,Closed between PA-272/PA-568/Reading Rd and I-76/Pennsylvania Tpke - Closed due to roadwork.,,Lancaster Pike S,R,Reinholds,Berks,PA,17569,US,US/Eastern,KRDG,2018-07-22 10:02:00,73.0,,84.0,29.84,10.0,SSE,11.5,,Mostly Cloudy,False,False,False,False,False,False,False,False,False,False,False,False,False,Day,Day,Day,Day
C-1070464,2,2018-08-30 09:00:00,2018-08-30 15:00:00,38.028099,-84.510674,,,0.0,Right lane closed due to emergency repairs on US-27 Limestone Southbound at Waller Ave.,1299.0,S Limestone,R,Lexington,Fayette,KY,40503-1061,US,US/Eastern,KLEX,2018-08-30 08:54:00,73.9,,87.0,30.12,10.0,North,5.8,,Scattered Clouds,False,False,False,False,False,False,False,False,False,False,False,True,False,Day,Day,Day,Day
C-1070465,2,2021-02-19 05:43:00,2021-02-19 17:17:03,28.078586,-80.62296500000002,28.079306,-80.621478,0.1034024364509999,Slow traffic on US-192 E - FL-507 - County Hwy-507 from Greenway Dr to W Strawbridge Ave / E Strawbridge Ave due to roadwork.,85.0,W New Haven Ave,L,Melbourne,Brevard,FL,32901,US,US/Eastern,KMLB,2021-02-19 05:53:00,73.0,73.0,100.0,29.99,10.0,SSW,10.0,0.0,Mostly Cloudy,False,False,False,False,False,False,False,False,False,False,False,False,False,Night,Night,Night,Day
C-1070466,2,2021-10-19 12:39:00,2021-10-19 13:21:00,37.48371,-97.323256,37.53945,-97.324616,3.8519884383,Slow traffic on Kansas Tpke N - I-35 N from KS-53/Exit 33 (I-35) to Grand Ave/71st St/Exit 39 (I-35) due to roadwork.,,I-35 N,R,Peck,Sedgwick,KS,67120,US,US/Central,KIAB,2021-10-19 12:56:00,73.0,73.0,50.0,28.45,10.0,SSW,26.0,0.0,Fair / Windy,False,False,False,False,False,False,False,False,False,False,False,False,False,Day,Day,Day,Day
C-1070467,2,2021-10-11 19:00:00,2021-10-12 06:45:00,41.309225,-72.747721,41.311879,-72.742579,0.323794332606,Construction on US-1 NB near CT-22 Drive with caution.,824.0,E Main St,L,Branford,New Haven,CT,06405-2920,US,US/Eastern,KHVN,2021-10-11 18:53:00,69.0,69.0,84.0,30.09,10.0,CALM,0.0,0.0,Mostly Cloudy,False,False,False,False,False,False,False,False,False,False,False,False,False,Night,Night,Day,Day
C-1070468,2,2020-11-18 04:38:00,2020-11-18 14:45:00,48.050301,-122.957475,48.050301,-122.95898400000002,0.0696968257733999,Construction on US-101 NB near MP 274 Allow extra time.,274323.0,Highway 101,R,Sequim,Clallam,WA,98382-9685,US,US/Pacific,KCLM,2020-11-18 04:53:00,45.0,45.0,90.0,29.25,10.0,CALM,0.0,0.0,Light Rain,False,False,False,False,False,False,False,False,False,False,False,False,False,Night,Night,Night,Night
C-1070469,2,2021-01-23 14:10:30,2021-01-23 20:09:30,40.551789,-75.99210699999998,40.555779,-75.996669,0.365180575626,Stationary traffic on PA-61 from Hughes Hill Rd (Pottsville Pike/PA-61) to I-78/US-22 (PA-61) due to roadwork.,,Pottsville Pike,R,Hamburg,Berks,PA,19526,US,US/Eastern,KRDG,2021-01-23 13:54:00,32.0,19.0,40.0,29.77,10.0,NW,24.0,0.0,Partly Cloudy / Windy,False,False,True,False,False,False,False,False,False,False,False,True,False,Day,Day,Day,Day
C-1070470,2,2021-11-30 17:15:47,2021-11-30 17:47:35,35.94097,-78.426126,35.950096,-78.42174200000002,0.676553168387,Stationary traffic on US-401 N - US-401 S from US-401/Rolesville Byp (US-401) to Barham Siding Rd/Moores Pond Rd (US-401) due to roadwork.,1300.0,Louisburg Rd,R,Wake Forest,Wake,NC,27587-6892,US,US/Eastern,KLHZ,2021-11-30 17:15:00,50.0,50.0,37.0,29.68,10.0,SSW,6.0,0.0,Fair,False,False,False,False,False,False,False,False,False,False,False,False,False,Night,Day,Day,Day
C-1070471,2,2021-12-27 20:00:00,2021-12-28 05:45:00,29.92555,-94.276307,29.89449,-94.314483,3.13577507232,Construction on I-10 WB near FM-365 Drive with caution.,,I-10 W,R,Beaumont,Jefferson,TX,77705,US,US/Central,KBMT,2021-12-27 20:10:00,72.0,72.0,77.0,29.81,10.0,SSE,8.0,0.0,Cloudy,False,False,False,False,False,False,False,False,False,False,False,False,False,Night,Night,Night,Night
C-1070472,2,2021-05-09 06:14:00,2021-05-09 16:08:53,28.054485,-82.390862,28.05351,-82.393782,0.190365977947,Slow traffic on FL-583 - FL-582 from N 60th St to Grandville Dr due to roadwork.,,E Fowler Ave,R,Tampa,Hillsborough,FL,33617,US,US/Eastern,KVDF,2021-05-09 06:15:00,64.0,64.0,83.0,30.07,10.0,CALM,0.0,0.0,Fair,True,False,False,False,False,False,False,False,True,False,False,False,False,Night,Night,Day,Day
C-1070473,2,2021-09-16 17:58:30,2021-09-16 20:08:55,33.465946,-112.15507,33.466515,-112.151793,0.192929416113,Stationary traffic from N 45th Ave to W Granada Rd due to roadwork.,4522.0,W McDowell Rd,R,Phoenix,Maricopa,AZ,85035-4109,US,US/Mountain,KGEU,2021-09-16 17:58:00,103.0,103.0,14.0,28.55,10.0,SW,7.0,0.0,Fair,False,False,False,False,False,False,False,False,True,False,False,False,False,Day,Day,Day,Day
C-1070474,2,2021-12-11 16:31:07,2021-12-11 18:38:56,29.670879,-98.450701,29.677894,-98.452928,0.50279030352,Slow traffic on US-281 N from Oakland Bnd to Overlook Pkwy due to roadwork.,24884.0,US Highway 281 N,L,San Antonio,Bexar,TX,78258,US,US/Central,KSAT,2021-12-11 16:51:00,55.0,55.0,25.0,29.36,10.0,N,13.0,0.0,Mostly Cloudy,False,False,False,False,False,False,False,False,False,False,False,False,False,Day,Day,Day,Day
C-1070475,2,2020-12-03 04:00:00,2020-12-03 13:45:00,29.516841,-95.122171,29.526631,-95.128521,0.7767281931319999,Construction on I-45 NB near NASA BYPASS Expect long delays.,,I-45 S,R,Webster,Harris,TX,77598,US,US/Central,KEFD,2020-12-03 03:50:00,48.0,42.0,66.0,30.1,10.0,NNW,16.0,,Cloudy,False,False,False,False,False,False,False,False,False,False,False,False,False,Night,Night,Night,Night
C-1070476,2,2021-12-01 09:00:00,2021-12-01 16:00:00,33.817699,-84.312108,33.816033000000004,-84.334055,1.26509860988,Lane closed on GA-236 from US-23/GA-155/Clairmont Rd (Lavista Rd/GA-236) to GA-42/Briarcliff Rd (Lavista Rd/GA-236) due to roadwork.,2850.0,N Druid Hills Rd NE,L,Atlanta,DeKalb,GA,30329-3926,US,US/Eastern,KPDK,2021-12-01 08:53:00,44.0,44.0,85.0,29.15,6.0,CALM,0.0,0.0,Fair,False,False,False,False,False,False,False,False,False,False,False,True,False,Day,Day,Day,Day
C-1070477,2,2021-09-09 12:59:00,2021-09-09 15:03:17,28.997287,-81.30242700000002,28.998892,-81.304351,0.16067509272,Stationary traffic on FL-15A - US-92 E - US-17 N from Golf Club Dr to S Clara Ave due to roadwork.,1799.0,S Woodland Blvd,L,Deland,Volusia,FL,32724,US,US/Eastern,KDED,2021-09-09 12:50:00,77.0,77.0,94.0,29.85,10.0,WSW,8.0,0.0,Light Rain,False,False,False,False,False,False,False,False,False,False,False,False,False,Day,Day,Day,Day
C-1070478,4,2018-12-22 16:16:01,2018-12-22 18:15:22,42.37475,-88.16915,42.38086,-88.17196,0.445858813844,At Grand Ave - Roadwork.,35213.0,N State Route 59,L,Ingleside,Lake,IL,60041-9498,US,US/Central,KUGN,2018-12-22 16:19:00,30.9,,72.0,29.94,10.0,Calm,,,Scattered Clouds,False,False,False,False,False,False,False,False,False,False,False,False,False,Day,Day,Day,Day
C-1070479,2,2020-01-25 21:06:24,2020-05-25 14:22:18,40.51868,-75.52162,40.52822000000001,-75.5076,0.988269597463,Between PA-100/Kings Hwy N and Chestnut St/12th St - Roadwork. Traffic problem.,4098.0,Chestnut St,R,Emmaus,Lehigh,PA,18049-1012,US,US/Eastern,KXLL,2020-01-25 21:15:00,39.0,35.0,87.0,29.4,10.0,WSW,6.0,0.0,Fair,True,False,False,False,False,False,False,False,False,False,False,True,False,Night,Night,Night,Night
C-1070480,2,2021-09-07 22:29:00,2021-09-07 23:09:00,42.08844600000001,-122.603379,42.064042,-122.602615,1.68661098584,Slow traffic on OR-99 S - Pacific Highway 1 S - I-5 S from OR-99/Exit 11 (I-5) to OR-99/Exit 1 (I-5) due to roadwork.,,I-5 S,R,Ashland,Jackson,OR,97520,US,US/Pacific,KMFR,2021-09-07 22:53:00,75.0,75.0,28.0,28.59,8.0,SSW,6.0,0.0,Cloudy,False,False,False,False,False,False,False,False,False,False,False,False,False,Night,Night,Night,Night
C-1070481,2,2021-04-23 07:01:00,2021-04-23 17:46:00,37.77477800000001,-121.179283,37.785329,-121.188026,0.871438495152,Lane closure due to Survey Work between Austin Road Over-Crossing and Route 120/Manteca Bypass,,S Austin Rd,R,Manteca,San Joaquin,CA,95336,US,US/Pacific,KSCK,2021-04-23 06:55:00,44.0,44.0,96.0,29.93,8.0,CALM,0.0,0.0,Fair,False,False,False,False,False,False,False,False,False,False,False,False,False,Day,Day,Day,Day
C-1070482,2,2021-04-01 15:44:00,2021-04-01 17:57:30,40.493709,-104.991624,40.519367,-104.992018,1.77291978688,Slow traffic on US-87 N - I-25 N from CO-392/Exit 262 (I-25) to CO-68/Harmony Rd/Exit 265 (I-25) due to roadwork.,,I-25 N,R,Fort Collins,Larimer,CO,80528,US,US/Mountain,KFNL,2021-04-01 15:56:00,68.0,68.0,13.0,25.03,10.0,SSW,6.0,0.0,Fair,False,False,False,False,True,False,False,False,False,False,False,False,False,Day,Day,Day,Day
C-1070483,3,2017-06-14 09:00:00,2017-06-14 15:00:00,42.165516,-83.388039,,,0.0,Right lane closed due to construction during off-peak periods on I-275 Southbound at Pennsylvania Rd.,,I-275 S,R,New Boston,Wayne,MI,48164,US,US/Eastern,KDTW,2017-06-14 08:53:00,73.0,,73.0,30.01,10.0,SE,5.8,,Mostly Cloudy,False,False,False,False,False,False,False,False,False,False,False,False,False,Day,Day,Day,Day
C-1070484,2,2021-12-06 16:57:28,2021-12-06 17:23:15,28.01864500000001,-81.63836500000002,28.01952600000001,-81.63257800000002,0.35818860269,Slow traffic on FL-25 - US-27 N - FL-542 from Cypresswood Blvd / Monterey Cypress Blvd to Lemon Ave due to roadwork.,1193.0,Dundee Rd,R,Winter Haven,Polk,FL,33884,US,US/Eastern,KGIF,2021-12-06 16:53:00,77.0,77.0,54.0,29.9,10.0,W,8.0,0.0,Fair,False,False,True,False,False,False,False,False,False,False,False,False,False,Day,Day,Day,Day
C-1070485,2,2021-01-27 17:34:00,2021-01-28 01:45:00,39.529463,-75.737031,39.529773,-75.73660100000002,0.0313669253824,Construction on BETHEL CHURCH RD near DE-896 Right lane closed. Expect delays.,900.0,Bethel Church Rd,R,Middletown,New Castle,DE,19709-9545,US,US/Eastern,KILG,2021-01-27 17:51:00,36.0,29.0,55.0,30.03,10.0,NNE,9.0,0.0,Cloudy,False,False,False,True,False,False,False,False,False,False,False,True,False,Night,Day,Day,Day
C-1070486,2,2021-11-09 12:22:30,2021-11-09 14:46:13,42.154313,-87.956479,42.154859,-87.95474,0.0967335785102,Stationary traffic on County Hwy-W17 - County Hwy-73 from S McHenry Rd to Armstrong Dr due to roadwork.,121.0,E Lake Cook Rd,L,Buffalo Grove,Lake,IL,60089-2261,US,US/Central,KPWK,2021-11-09 12:12:00,56.0,56.0,69.0,29.46,10.0,NNE,10.0,0.0,Cloudy,False,False,False,False,False,False,False,False,False,False,False,False,False,Day,Day,Day,Day
C-1070487,2,2021-03-15 07:58:00,2021-11-23 17:39:09,42.040975,-87.70963499999998,42.040213,-87.710786,0.0791217904867,Slow traffic from McDaniel Ave to Main St due to roadwork.,,Dempster St,R,Evanston,Cook,IL,60201,US,US/Central,KPWK,2021-06-30 16:52:00,82.0,82.0,67.0,29.33,10.0,E,3.0,0.0,Mostly Cloudy,False,False,False,False,False,False,False,False,False,False,False,False,False,Day,Day,Day,Day
C-1070488,2,2021-12-31 16:52:30,2021-12-31 18:54:54,30.478977,-91.114424,30.479837,-91.116269,0.124901227378,Stationary traffic on US-190 W - US-61 N from Greenwell Springs Rd to Victoria Dr due to roadwork.,,Airline Hwy,R,Baton Rouge,East Baton Rouge,LA,70805,US,US/Central,KBTR,2021-12-31 16:53:00,77.0,77.0,69.0,29.79,10.0,S,15.0,0.0,Partly Cloudy,False,False,False,False,False,False,False,False,False,False,False,False,False,Day,Day,Day,Day
C-1070489,3,2016-11-15 07:55:09,2016-11-15 13:55:09,32.93036,-96.38486,32.97043,-96.32929,4.2480177227099984,Between FM-551/Exit 73 and FM-548/Exit 77 - Roadwork.,,I-30 E,R,Rockwall,Rockwall,TX,75087,US,US/Central,KF46,2016-11-15 07:55:00,51.6,,97.0,30.06,10.0,NNE,5.8,,Clear,False,False,False,False,False,False,False,False,False,False,False,False,False,Day,Day,Day,Day
C-1070490,2,2021-07-08 02:01:00,2021-07-08 02:30:00,40.61718,-75.503777,40.611939,-75.517973,0.8279572109819999,Slow traffic on US-22 W from 15th St (US-22) to Cedar Crest Blvd (US-22) due to roadwork.,,US-22 W,R,Allentown,Lehigh,PA,18104,US,US/Eastern,KXLL,2021-07-08 01:55:00,77.0,77.0,65.0,29.54,10.0,CALM,0.0,0.0,Partly Cloudy,False,False,False,False,False,False,False,False,False,False,False,False,False,Night,Night,Night,Night
C-1070491,2,2021-07-12 14:51:30,2021-07-12 17:58:30,41.624422,-86.11928,41.624387,-86.138927,1.01473866906,Slow traffic on US-20 W from IN-19/S Nappanee St (US-20) to Elm Rd (US-20) due to roadwork.,,Saint Joseph Valley Pkwy,R,Mishawaka,St. Joseph,IN,46544,US,US/Eastern,KSBN,2021-07-12 14:54:00,78.0,78.0,71.0,29.21,10.0,E,8.0,0.0,Mostly Cloudy,False,False,False,False,False,False,False,False,False,False,False,False,False,Day,Day,Day,Day
C-1070492,2,2019-10-15 21:02:02,2019-10-19 21:01:35,33.8019,-84.40383,33.80381,-84.4097,0.361934879543,At US-41/Northside Dr/Exit 252 - Construction work. Right lane blocked.,,GA-401 N,R,Atlanta,Fulton,GA,30309,US,US/Eastern,KFTY,2019-10-15 20:53:00,66.0,66.0,90.0,29.05,10.0,ENE,7.0,0.0,Cloudy,False,False,False,False,True,False,False,False,False,False,False,False,False,Night,Night,Night,Night
C-1070493,2,2021-05-28 15:54:39,2021-05-28 16:15:43,40.709394,-73.921898,40.71350200000001,-73.91568199999998,0.4319100377679999,Slow traffic from Bushwick Ave (Flushing Ave) to Metropolitan Ave (Flushing Ave) due to roadwork.,1300.0,Flushing Ave,R,Brooklyn,Kings,NY,11237-2303,US,US/Eastern,KJRB,2021-05-28 15:51:00,62.0,62.0,53.0,29.87,10.0,ESE,8.0,0.0,Light Rain,False,False,False,False,False,False,False,False,True,False,False,True,False,Day,Day,Day,Day
C-1070494,2,2018-05-21 22:01:05,2018-05-22 04:01:05,40.76697,-73.898273,40.76775,-73.903147,0.2606836208699999,At 49th - Construction work.,,Grand Central Pkwy W,R,East Elmhurst,Queens,NY,11370,US,US/Eastern,KLGA,2018-05-21 21:51:00,66.0,,54.0,30.16,10.0,South,8.1,,Mostly Cloudy,False,False,False,False,False,False,False,False,False,False,False,False,False,Night,Night,Night,Day
C-1070495,2,2021-05-07 17:06:35,2021-05-07 18:08:00,39.198432,-104.854912,39.186327,-104.850435,0.870057513985,Slow traffic on US-85 S - I-25 S - US-87 S from Upper Lake Gulch Rd/Exit 172 (I-25) to Greenland Rd/Exit 167 (I-25) due to roadwork.,,I-25 S,R,Larkspur,Douglas,CO,80118,US,US/Mountain,KMNH,2021-05-07 17:15:00,68.0,68.0,23.0,23.1,10.0,CALM,0.0,0.0,Fair,False,False,False,False,True,False,False,False,False,False,False,False,False,Day,Day,Day,Day
C-1070496,2,2021-05-03 08:58:30,2021-05-03 12:27:00,40.679014,-80.104247,40.65583400000001,-80.076787,2.15316727545,Slow traffic on Pennsylvania Tpke E - I-76 E from US-19/Exit 77 (I-76) to Butler Toll Plaza (I-76) due to roadwork.,,I-76 E,R,Cranberry Township,Butler,PA,16066,US,US/Eastern,KBTP,2021-05-03 08:56:00,56.0,56.0,97.0,28.48,10.0,SE,6.0,0.03,Light Rain,False,False,False,False,False,False,False,False,False,False,False,False,False,Day,Day,Day,Day
C-1070497,4,2021-02-24 08:17:51,2021-03-03 23:59:00,33.600719,-112.042025,33.600478,-112.04203,0.0166540000992,Closed road from N 18th Pl to E Larkspur Dr due to roadwork.,12604.0,N 19th St,R,Phoenix,Maricopa,AZ,85022,US,US/Mountain,KDVT,2021-02-24 07:53:00,54.0,54.0,28.0,28.39,10.0,NE,3.0,0.0,Fair,False,False,False,False,False,False,False,False,False,False,False,False,False,Day,Day,Day,Day
C-1070498,2,2021-05-07 21:45:30,2021-05-07 22:10:30,32.948577,-97.039913,32.956295000000004,-97.03976,0.533336786429,Slow traffic on TX-121 N from TX-114/International Pkwy (TX-121) to TX-26/E Grapevine Mills Pkwy (TX-121) due to roadwork.,,TX-121 N,R,Dallas,Tarrant,TX,75261,US,US/Central,KDFW,2021-05-07 21:53:00,75.0,75.0,53.0,29.3,10.0,SSE,9.0,0.0,Mostly Cloudy,False,False,False,False,True,False,False,False,False,False,False,False,False,Night,Night,Night,Day
C-1070499,2,2021-12-06 08:03:33,2021-12-06 08:24:00,33.296926,-96.928042,33.296791,-96.9258,0.129812994958,Stationary traffic on FM-428 from FM-2931 (Spring Hill Rd/FM-428) to FM-1385 (Pilot Point) (FM-428) due to roadwork.,11892.0,FM 428,R,Aubrey,Denton,TX,76227-6481,US,US/Central,KDTO,2021-12-06 07:53:00,48.0,41.0,36.0,29.51,10.0,N,22.0,0.0,Cloudy / Windy,False,False,False,False,False,False,False,False,False,False,False,False,False,Day,Day,Day,Day
C-1070500,2,2019-08-10 00:00:01,2019-08-11 00:00:01,38.464049,-105.857321,38.462992,-105.850189,0.392695214483,At CO-69 - Construction work.,6627.0,US Highway 50,R,Howard,Fremont,CO,81233,US,US/Mountain,KANK,2019-08-10 00:15:00,63.0,63.0,55.0,22.98,10.0,CALM,0.0,,Fair,False,False,False,False,False,False,False,False,False,False,False,False,False,Night,Night,Night,Night
C-1070501,2,2021-08-22 20:11:18,2021-08-23 20:59:53,39.563601,-77.61581600000002,39.564534,-77.616393,0.0714156919977,Construction on I-70 WB near CRYSTAL FALLS DR Expect delays.,,I-70 W,R,Hagerstown,Washington,MD,21740,US,US/Eastern,KHGR,2021-08-22 19:53:00,77.0,77.0,79.0,29.15,10.0,S,5.0,0.0,Fair,False,False,False,False,False,False,False,False,False,False,False,False,False,Night,Day,Day,Day
C-1070502,2,2019-07-30 09:30:00,2019-07-30 14:30:00,40.983231,-73.866547,,,3.49000000954,Right lane closed due to construction work on Saw Mill Pkwy Southbound between Exit 17 Ashford Ave and Farragut Ave.,,Saw Mill River Pkwy S,R,Hastings on Hudson,Westchester,NY,10706,US,US/Eastern,KHPN,2019-07-30 09:56:00,85.0,85.0,65.0,29.55,10.0,SE,5.0,0.0,Fair,False,False,True,False,False,False,False,False,False,False,False,False,False,Day,Day,Day,Day
C-1070503,2,2021-08-31 18:20:30,2021-08-31 20:23:47,34.007428000000004,-118.081829,34.010481,-118.080857,0.218164868267,Slow traffic on CA-19 from CA-72/Whittier Blvd (Rosemead Blvd) to Beverly Blvd (Rosemead Blvd) due to roadwork.,4620.0,Rosemead Blvd,L,Pico Rivera,Los Angeles,CA,90660-2045,US,US/Pacific,KEMT,2021-08-31 17:53:00,76.0,76.0,60.0,29.62,10.0,VAR,5.0,0.0,Fair,False,False,True,False,False,False,False,False,True,False,False,True,False,Day,Day,Day,Day
C-1070504,4,2021-10-19 04:38:57,2021-10-21 23:59:00,40.428742,-79.98642,40.428445,-79.986408,0.0205304490175999,Closed road from E Carson St to Sarah St due to roadwork.,99.0,S 12th St,L,Pittsburgh,Allegheny,PA,15203-1130,US,US/Eastern,KAGC,2021-10-19 04:53:00,44.0,42.0,76.0,28.8,10.0,S,5.0,0.0,Fair,True,False,False,False,False,False,False,False,False,False,False,True,False,Night,Night,Night,Night
C-1070505,2,2021-11-15 14:40:00,2021-11-15 15:25:30,35.944732,-78.904849,35.939619,-78.90691899999999,0.371767440278,Slow traffic from Riddle Rd (Fayetteville St) to Martin Luther King Pkwy (Fayetteville St) due to roadwork.,4220.0,Fayetteville Rd,R,Durham,Durham,NC,27713-1108,US,US/Eastern,KRDU,2021-11-15 14:51:00,53.0,53.0,32.0,29.69,10.0,WNW,8.0,0.0,Fair,False,False,True,False,False,False,False,False,False,False,False,True,False,Day,Day,Day,Day
C-1070506,2,2021-08-06 00:01:00,2021-08-30 23:59:00,42.843182,-71.61700400000002,,,20.8700008392,Intermittent lane closures due to paving repairs on NH-101 both ways between NH-101 Elm StA Elm St and NH-122 Ponemah Rd.,75.0,State Route 101,R,Amherst,Hillsborough,NH,03031,US,US/Eastern,KASH,2021-08-06 00:56:00,63.0,63.0,,29.89,10.0,CALM,0.0,0.0,Fair,False,False,False,False,False,False,False,False,False,False,False,False,False,Night,Night,Night,Night
C-1070507,2,2020-11-06 13:29:00,2020-11-07 03:42:50,26.1912,-80.251902,26.194406,-80.251984,0.221571834477,Stationary traffic on FL-817 from 44th St (FL-817) to McNab Rd (FL-817) due to roadwork.,5416.0,N University Dr,R,Lauderhill,Broward,FL,33351-5022,US,US/Eastern,KFXE,2020-11-06 13:53:00,81.0,81.0,74.0,29.92,10.0,ENE,18.0,0.0,Mostly Cloudy,False,False,False,False,False,False,False,False,False,False,False,False,False,Day,Day,Day,Day
C-1070508,2,2018-03-31 09:00:00,2018-03-31 16:00:00,34.061462,-84.729347,,,0.0,Intermittent lane closures due to construction on Cedarcrest Rd both ways between Paulding County Line and Governors Towne Dr.,6189.0,Cedarcrest Rd NW,L,Acworth,Cobb,GA,30101-4208,US,US/Eastern,KRYY,2018-03-31 08:48:00,44.1,,82.0,29.51,10.0,Calm,,,Clear,False,False,False,False,False,False,False,False,False,False,False,False,False,Day,Day,Day,Day
C-1070509,2,2021-08-06 12:35:00,2021-08-06 14:07:30,33.494715,-112.061011,33.494719,-112.065038,0.2320340481349999,Stationary traffic from AZ-51 (E Indian School Rd) to N 7th St (E Indian School Rd) due to roadwork.,999.0,E Indian School Rd,R,Phoenix,Maricopa,AZ,85014-4745,US,US/Mountain,KPHX,2021-08-06 12:51:00,101.0,101.0,31.0,28.7,10.0,WNW,7.0,0.0,Partly Cloudy,False,False,True,False,False,False,False,False,False,True,False,True,False,Day,Day,Day,Day
C-1070510,2,2021-12-04 13:24:35,2021-12-04 15:27:26,25.850268,-80.180396,25.849671,-80.18471,0.271396835539,Slow traffic on US-1 N - FL-934 - US-1 S - FL-5 from US Highway 165 W to NE 81st St due to roadwork.,788.0,NE 82nd St,R,Miami,Miami-Dade,FL,33138-4161,US,US/Eastern,KOPF,2021-12-04 13:53:00,78.0,78.0,54.0,30.1,10.0,SE,6.0,0.0,Mostly Cloudy,False,False,True,False,False,False,False,False,True,False,False,True,False,Day,Day,Day,Day
C-1070511,2,2020-03-30 00:24:15,2020-08-15 06:13:06,41.49421,-81.68579,41.48611,-81.69896999999997,0.88234465787,At US-42/OH-3/W 25th St - Roadwork. Roadway reduced to 1 lane.,,Ontario St,R,Cleveland,Cuyahoga,OH,44115,US,US/Eastern,KBKL,2020-04-12 13:53:00,62.0,62.0,37.0,29.22,10.0,S,14.0,0.0,Cloudy,False,False,True,False,False,False,False,False,False,False,False,True,False,Night,Night,Night,Night
C-1070512,2,2016-08-17 09:48:29,2016-08-17 15:48:29,42.08853,-83.37704000000002,42.39371,-83.43236,21.2749511214,Between Will Carleton Rd/Exit 8 and I-96/M-14/Exit 29 - Roadwork.,,I-275 N,R,Carleton,Monroe,MI,48117,US,US/Eastern,KTTF,2016-08-17 09:54:00,72.5,,95.0,30.1,10.0,Calm,,,Clear,False,False,False,False,False,False,False,False,False,False,False,False,False,Day,Day,Day,Day
C-1070513,2,2021-09-15 07:28:01,2021-09-15 09:29:50,40.722332,-73.83595799999998,40.716451,-73.820476,0.906871450006,Slow traffic on Grand Central Pkwy E from 78 Ave (NY-25) exit [12] to Union Tpke exit [14] due to roadwork.,,Grand Central Pkwy E,R,Forest Hills,Queens,NY,11375,US,US/Eastern,KLGA,2021-09-15 07:51:00,75.0,75.0,82.0,29.94,10.0,CALM,0.0,0.0,Mostly Cloudy,False,False,False,False,True,False,False,False,False,False,False,False,False,Day,Day,Day,Day
C-1070514,2,2021-12-08 07:46:30,2021-12-08 10:10:18,33.494675,-112.2183,33.494170000000004,-112.220564,0.135036840463,Stationary traffic from N 73rd Ave to W Clarendon Ave due to roadwork.,7395.0,W Indian School Rd,L,Phoenix,Maricopa,AZ,85033-3137,US,US/Mountain,KGEU,2021-12-08 07:58:00,55.0,55.0,51.0,28.82,10.0,NNW,7.0,0.0,Cloudy,False,False,False,False,False,False,False,False,True,True,False,False,False,Day,Day,Day,Day
C-1070515,2,2021-02-09 14:20:30,2021-02-10 02:21:09,33.465119,-112.250923,33.465964,-112.255245,0.255865653093,Stationary traffic from N 89th Ave to W Granada Rd due to roadwork.,1600.0,N 89th Ave,R,Phoenix,Maricopa,AZ,85037-4049,US,US/Mountain,KGEU,2021-02-09 13:58:00,71.0,71.0,17.0,28.76,10.0,ESE,6.0,0.0,Fair,False,False,False,False,False,False,False,False,False,True,False,False,False,Day,Day,Day,Day
C-1070516,3,2021-10-05 21:00:00,2021-10-06 05:00:00,32.289341,-111.02507,,,1.83000004292,Exit ramp from I-10 Westbound to Ruthrauff Rd closed due to maintenance work.,,I-10 W,R,Tucson,Pima,AZ,85705,US,US/Mountain,KDMA,2021-10-05 20:58:00,74.0,74.0,65.0,27.15,10.0,WSW,3.0,0.0,Partly Cloudy,False,False,False,False,False,False,False,False,False,False,False,False,False,Night,Night,Night,Night
C-1070517,4,2021-10-28 08:01:00,2021-10-28 13:46:00,33.928489,-118.24458,33.927027,-118.239159,0.326788715095,Construction on I-105 EB near WILMINGTON AVE Use alternate exit ramp.,,Glenn Anderson Fwy E,R,Los Angeles,Los Angeles,CA,90059,US,US/Pacific,KHHR,2021-10-28 07:53:00,61.0,61.0,64.0,29.98,10.0,CALM,0.0,0.0,Fair,False,False,False,False,True,False,False,False,False,False,False,True,False,Day,Day,Day,Day
C-1070518,4,2020-02-22 07:06:42,2020-02-22 12:00:00,39.56415,-105.02765,39.56488,-105.03584,0.439143748425,Closed at US-85/Santa Fe Dr - Closed due to roadwork.,,CO-470 W,R,Littleton,Douglas,CO,80129,US,US/Mountain,KAPA,2020-02-22 06:53:00,43.0,36.0,31.0,24.19,10.0,SW,13.0,0.0,Mostly Cloudy,False,False,False,False,False,False,False,False,False,False,False,True,False,Day,Day,Day,Day
C-1070519,2,2021-02-20 07:14:30,2021-02-22 01:57:10,32.926021,-96.818966,32.926038,-96.828215,0.536398444672,Roadwork on Montfort Dr from Welch Rd to LBJ Express.,,LBJ Express,R,Dallas,Dallas,TX,75240,US,US/Central,KADS,2021-02-20 06:47:00,28.0,21.0,86.0,29.62,10.0,SE,7.0,0.0,Fair,False,False,False,False,True,False,False,False,False,False,False,False,False,Day,Day,Day,Day
C-1070520,2,2019-09-24 22:02:58,2019-09-28 22:02:14,42.41649,-71.10382,42.439397,-71.103762,1.5827257257299998,Between RT-60/Exit 32 and RT-28/Main St/Exit 34 - Construction work. Lane blocked.,,I-93 N,R,Medford,Middlesex,MA,02155,US,US/Eastern,KBOS,2019-09-24 21:54:00,67.0,67.0,57.0,29.78,10.0,NW,12.0,0.0,Mostly Cloudy,False,False,False,False,True,False,False,False,False,False,False,False,False,Night,Night,Night,Night
C-1070521,2,2021-10-10 09:40:00,2021-10-10 11:43:01,29.540386,-95.14149,29.542468,-95.143426,0.185031792219,Roadwork on Bay Area Blvd exit [26] from El Dorado Blvd to I-45 N - I-45 S.,,I-45 N,R,Webster,Harris,TX,77598,US,US/Central,KEFD,2021-10-10 09:50:00,82.0,82.0,79.0,29.83,10.0,SE,17.0,,Partly Cloudy,False,False,False,False,False,False,False,False,False,False,False,False,False,Day,Day,Day,Day
C-1070522,2,2021-06-17 07:22:00,2021-06-17 18:09:49,41.16115,-79.09136,41.165938,-79.105367,0.80017454779,Roadwork on US 322 both directions between ZITZELBERGER RD and WATERFORD PK. There is a lane restriction.,,W Main St,R,Brookville,Jefferson,PA,15825,US,US/Eastern,KDUJ,2021-06-17 06:53:00,48.0,48.0,74.0,28.14,10.0,CALM,0.0,0.0,Fair,False,False,False,False,False,False,False,False,False,False,False,False,False,Day,Day,Day,Day
C-1070523,3,2020-05-19 19:01:23,2020-05-23 19:00:58,43.66501,-116.66528999999998,43.59946,-116.5085,9.05492144344,Between US-20/US-26/Franklin Rd/Exit 29 and I-84-BL/Garrity Blvd/Exit 38 - Construction work. Roadway reduced to 1 lane. Traffic problem.,,Vietnam Veterans Memorial Hwy,R,Caldwell,Canyon,ID,83605,US,US/Mountain,KEUL,2020-05-19 18:56:00,53.0,53.0,89.0,27.27,9.0,W,6.0,0.02,Rain,False,False,False,False,True,False,False,False,False,False,False,False,False,Day,Day,Day,Day
C-1070524,2,2021-09-24 17:15:48,2021-09-24 20:24:07,40.665369,-73.733034,40.66535,-73.72923,0.199369392336,Slow traffic on NY-27 from Francis Lewis Blvd (NY-27) to Mill Rd (NY-27) due to roadwork.,24493.0,139th Ave,R,Rosedale,Queens,NY,11422,US,US/Eastern,KJFK,2021-09-24 16:51:00,73.0,73.0,46.0,30.02,10.0,WSW,12.0,0.0,Partly Cloudy,False,False,False,False,False,False,False,False,False,True,False,False,False,Day,Day,Day,Day
C-1070525,2,2021-08-31 17:45:30,2021-08-31 17:59:00,39.786682,-86.134907,39.790994,-86.126199,0.5500062838040001,Slow traffic on I-70 E from I-65/Exit 83 (I-70) to Rural St/Keystone Way/Exit 85 (I-70) due to roadwork.,,I-70 E,R,Indianapolis,Marion,IN,46201,US,US/Eastern,KEYE,2021-08-31 17:53:00,79.0,79.0,66.0,28.87,10.0,E,12.0,0.0,Fair,False,False,False,False,False,False,False,False,False,False,False,False,False,Day,Day,Day,Day
C-1070526,2,2021-08-07 12:15:44,2021-08-07 14:18:31,27.91572,-82.796442,27.916664,-82.795813,0.0756898030229999,Slow traffic on FL-686 from Cleveland Ave to Ridge Rd SW due to roadwork.,152.0,Clearwater Largo Rd S,L,Largo,Pinellas,FL,33770-3233,US,US/Eastern,KPIE,2021-08-07 11:53:00,87.0,87.0,72.0,30.09,10.0,E,7.0,0.0,Mostly Cloudy,False,False,False,False,False,False,False,False,True,False,False,False,False,Day,Day,Day,Day
C-1070527,2,2021-09-24 17:34:48,2021-09-24 19:46:03,33.212857,-96.819609,33.219241,-96.820659,0.445248607022,Stationary traffic from Dallas North Tollway N to E University Dr / US Highway 380 W due to roadwork.,,Dallas North Tollway N,R,Frisco,Collin,TX,75033,US,US/Central,KADS,2021-09-24 17:47:00,84.0,84.0,23.0,29.32,10.0,SSE,7.0,0.0,Fair,False,False,False,False,False,False,False,False,False,False,False,True,False,Day,Day,Day,Day
C-1070528,2,2021-09-03 06:52:23,2021-10-06 17:40:48,45.709329,-121.529341,45.709023,-121.5266,0.133927095109,Flaggers directing traffic due to road work. Use caution.,1799.0,Cascade Ave,L,Hood River,Hood River,OR,97031-1165,US,US/Pacific,KCZK,2021-09-03 06:53:00,49.0,49.0,80.0,30.01,10.0,CALM,0.0,0.0,Fair,False,False,False,False,False,False,False,False,False,False,False,False,False,Day,Day,Day,Day
C-1070529,2,2017-04-20 09:02:03,2017-04-20 15:02:03,40.631384,-74.099419,40.631393,-74.09935,0.00367113373462,At Randall Ave - Construction work.,311.0,Forest Ave,R,Staten Island,Richmond,NY,10301-2730,US,US/Eastern,KEWR,2017-04-20 08:51:00,52.0,,93.0,30.12,9.0,Calm,,0.01,Overcast,False,False,False,False,False,False,False,False,True,False,False,False,False,Day,Day,Day,Day
C-1070530,4,2021-06-04 07:40:18,2021-06-11 23:59:00,38.792294,-77.050165,38.792042,-77.050289,0.018648176711,Closed road from Alexandria to S Alfred St due to roadwork.,1187.0,S Washington St,R,Alexandria,Alexandria,VA,22314-4407,US,US/Eastern,KDCA,2021-06-04 07:44:00,70.0,70.0,93.0,29.94,10.0,S,5.0,0.0,Mostly Cloudy,False,False,True,False,False,False,False,False,True,False,False,False,False,Day,Day,Day,Day
C-1070531,2,2021-08-20 12:16:14,2021-08-20 16:00:00,43.13375900000001,-77.572762,,,0.0,Right lane closed due to construction work on NY-31 Monroe Ave Eastbound at Sylvan Rd.,1475.0,Monroe Ave,R,Rochester,Monroe,NY,14618-1007,US,US/Eastern,KROC,2021-08-20 11:54:00,81.0,81.0,67.0,29.38,10.0,NW,5.0,0.0,Mostly Cloudy,False,False,False,False,False,False,False,False,False,False,False,False,False,Day,Day,Day,Day
C-1070532,2,2020-07-15 14:16:00,2020-07-15 23:45:00,37.635948,-79.566135,37.634439,-79.567479,0.127587066335,Construction on I-81 SB near MM 177 Construction. Shoulder closed.,,I-81 S,R,Natural Bridge,Rockbridge,VA,24578,US,US/Eastern,KHSP,2020-07-15 14:15:00,79.0,79.0,57.0,26.38,10.0,ESE,9.0,0.0,Mostly Cloudy,False,False,False,False,False,False,False,False,False,False,False,False,False,Day,Day,Day,Day
C-1070533,2,2021-02-19 15:04:05,2021-02-19 16:00:27,33.471160999999995,-90.136308,33.490558,-90.153358,1.6618044602700002,Slow traffic on MS-430 from County Road 43 to Orchard Dr due to roadwork.,16393.0,Highway 430 S,R,Greenwood,Leflore,MS,38930,US,US/Central,KGWO,2021-02-19 14:53:00,34.0,28.0,64.0,30.26,10.0,NNW,7.0,0.0,Fair,False,False,False,False,False,False,False,False,False,False,False,False,False,Day,Day,Day,Day
C-1070534,2,2021-10-21 14:43:00,2021-10-21 18:36:42,39.827289,-84.89157,39.829037,-84.890354,0.136930187454,Stationary traffic on US-40 E - US-27 N - IN-227 from S 8th St to N 9th St / E Main St due to roadwork.,779.0,S A St,L,Richmond,Wayne,IN,47374-5447,US,US/Eastern,KVES,2021-10-21 14:35:00,64.0,64.0,45.0,28.78,10.0,WNW,17.0,0.0,Partly Cloudy,False,False,True,False,False,False,False,False,False,False,False,False,False,Day,Day,Day,Day
C-1070535,2,2021-07-29 16:12:04,2021-07-29 18:15:55,40.629485,-73.928005,40.628289,-73.925931,0.136589199838,Stationary traffic from Avenue I to Flatlands Ave due to roadwork.,1755.0,Utica Ave,L,Brooklyn,Kings,NY,11234-2120,US,US/Eastern,KJRB,2021-07-29 15:51:00,75.0,75.0,82.0,29.77,9.0,VAR,3.0,0.0,Cloudy,False,False,True,False,False,False,False,False,False,True,False,False,False,Day,Day,Day,Day
C-1070536,2,2020-05-03 20:43:18,2020-05-03 21:43:18,41.70476,-72.64453,41.73155,-72.66214000000002,2.06181550841,Between CT-99/Exit 24 and Airport Rd/Exit 27 - Roadwork. Right lane closed.,,I-91 N,R,Wethersfield,Hartford,CT,06109,US,US/Eastern,KHFD,2020-05-03 20:53:00,68.0,68.0,56.0,29.6,10.0,S,7.0,0.0,Fair,False,False,False,False,False,False,False,False,False,False,False,False,False,Night,Night,Day,Day
C-1070537,2,2020-07-22 03:30:00,2020-07-22 06:59:00,33.781296000000005,-117.879534,33.778156,-117.876624,0.2738566380689999,Lane closure due to Electrical Work between Orange Frwy N-Rte 57 CONNECTOR and Main St,,I-5 S,R,Orange,Orange,CA,92868,US,US/Pacific,KSNA,2020-07-22 03:53:00,66.0,66.0,78.0,29.79,10.0,SSE,3.0,0.0,Cloudy,False,False,False,False,True,False,False,False,False,False,False,False,False,Night,Night,Night,Night
C-1070538,2,2021-10-15 08:39:30,2021-10-15 11:35:24,26.275222,-80.115601,26.276297,-80.119429,0.2485198856019999,Stationary traffic on FL-834 from N Dixie Hwy to NE 38th St due to roadwork.,577.0,E Sample Rd,L,Pompano Beach,Broward,FL,33064-4425,US,US/Eastern,KPMP,2021-10-15 08:53:00,81.0,81.0,77.0,29.91,10.0,NW,5.0,0.0,Mostly Cloudy,False,False,False,False,False,False,False,False,False,False,False,False,False,Day,Day,Day,Day
C-1070539,2,2019-06-06 09:00:00,2019-06-06 15:00:00,37.349007,-77.074409,,,0.0,Intermittent lane closures due to construction work on VA-155 Courthouse Rd both ways at VA-5 John Tyler Memorial Hwy.,10145.0,Courthouse Rd,L,Charles City,Charles City,VA,23030-3437,US,US/Eastern,KRIC,2019-06-06 08:54:00,77.0,77.0,79.0,29.63,9.0,WSW,8.0,0.0,Mostly Cloudy,False,False,False,False,False,False,False,False,False,False,False,False,False,Day,Day,Day,Day
C-1070540,2,2021-03-18 13:26:44,2021-03-18 14:40:30,45.635672,-118.680227,45.583452,-118.640747,4.0815923029800025,Slow traffic on Old Oregon Trail Hwy No 6 - I-84 E - US-30 E - Old Oregon Trl from OR-331/Market Rd/Exit 216 (I-84) to Poverty Flat Rd/Exit 224 (I-84) due to roadwork.,,Old Oregon Trail Hwy No 6,R,Pendleton,Umatilla,OR,97801,US,US/Pacific,KPDT,2021-03-18 13:53:00,68.0,68.0,21.0,28.24,10.0,SSW,20.0,0.0,Fair,False,False,False,False,False,False,False,False,False,False,False,False,False,Day,Day,Day,Day
C-1070541,2,2021-04-02 08:44:30,2021-04-02 16:57:58,31.608021,-97.104845,31.588912,-97.10968,1.35061851396,Slow traffic on US-77 S - I-35 S from Meyers Ln/Exit 340 (I-35) to US-84/Waco Dr/Exit 338A (I-35) due to roadwork.,,I-35 S,R,Waco,McLennan,TX,76705,US,US/Central,KCNW,2021-04-02 08:55:00,50.0,50.0,62.0,29.93,10.0,SE,10.0,,Fair,False,False,False,False,False,False,False,False,False,False,False,False,False,Day,Day,Day,Day
C-1070542,2,2021-08-12 00:01:00,2021-08-12 05:44:00,34.077732,-118.284411,34.072723,-118.268764,0.960034075881,Construction on US-101 SB near VERMONT AVE Expect delays.,372.0,N Hoover St,R,Los Angeles,Los Angeles,CA,90004-3614,US,US/Pacific,KCQT,2021-08-12 00:52:00,71.0,71.0,68.0,29.75,8.0,CALM,0.0,0.0,Fair,False,False,False,False,False,False,False,False,False,False,False,False,False,Night,Night,Night,Night
C-1070543,3,2018-12-16 17:13:45,2018-12-20 17:11:37,39.452483,-76.63140600000001,39.490229,-76.647879,2.75202000624,Between Timonium Rd and MD-145/Ashland Rd - Construction work. Lane blocked.,2341.0,York Rd,R,Lutherville Timonium,Baltimore County,MD,21093-2217,US,US/Eastern,KDMH,2018-12-16 16:54:00,43.0,,80.0,29.86,,North,,,,False,False,True,False,False,False,False,False,False,False,False,False,False,Night,Day,Day,Day
C-1070544,2,2016-09-27 00:01:42,2016-09-27 06:06:54,45.85161,-112.676216,45.82724,-112.689903,1.80810982934,At MT-43/Exit 102 - Construction work.,,I-15 S,R,Divide,Silver Bow,MT,59727,US,US/Mountain,KBTM,2016-09-27 00:53:00,43.0,,80.0,30.18,10.0,Calm,,,Clear,False,False,False,False,False,False,False,False,False,False,False,False,False,Night,Night,Night,Night
C-1070545,2,2021-01-21 14:57:30,2021-01-22 02:00:17,33.276536,-111.85771499999998,33.275657,-111.858753,0.0853444358743,Stationary traffic from S 105th St to W Kingbird Dr due to roadwork.,980.0,W Germann Rd,L,Chandler,Maricopa,AZ,85286-7011,US,US/Mountain,KCHD,2021-01-21 14:47:00,70.0,70.0,46.0,28.63,10.0,VAR,5.0,,Fair,False,False,False,False,False,False,False,False,False,True,False,False,False,Day,Day,Day,Day
C-1070546,2,2021-12-10 22:47:00,2021-12-11 01:14:15,33.414658,-111.93036200000002,33.415341999999995,-111.926275,0.24039882103,Stationary traffic from S McAllister Ave to E Lemon St due to roadwork.,631.0,E Apache Blvd,R,Tempe,Maricopa,AZ,85281-6714,US,US/Mountain,KPHX,2021-12-10 22:51:00,54.0,54.0,66.0,28.93,10.0,SW,5.0,0.0,Mostly Cloudy,False,False,False,False,False,False,True,False,True,False,False,True,False,Night,Night,Night,Night
C-1070547,2,2021-05-20 09:25:30,2021-05-20 17:04:50,34.740165000000005,-92.261911,34.749249,-92.262649,0.629041587742,Stationary traffic on I-30 E - US-65 N - US-167 N from 9th St exit [140] to Cantrell Rd (AR-10) exit [141A] due to roadwork.,,Interstate 30,R,Little Rock,Pulaski,AR,72202,US,US/Central,KLIT,2021-05-20 09:53:00,76.0,76.0,67.0,29.78,10.0,ESE,18.0,0.0,Cloudy,False,False,False,False,False,False,False,False,False,False,False,False,False,Day,Day,Day,Day
C-1070548,4,2021-09-18 07:26:30,2021-09-25 23:59:00,41.931562,-87.64894699999998,41.93158,-87.64835500000002,0.0304551495820999,Closed road from N Halsted St to N Burling St due to roadwork.,2699.0,N Halsted St,R,Chicago,Cook,IL,60614-2301,US,US/Central,KMDW,2021-09-18 07:53:00,71.0,71.0,70.0,29.52,10.0,NE,9.0,0.0,Mostly Cloudy,True,False,False,False,False,False,False,False,True,False,False,False,False,Day,Day,Day,Day
C-1070549,2,2021-09-23 07:52:58,2021-09-23 08:34:24,40.785198,-73.953399,40.787192,-73.951964,0.156897574244,Slow traffic from E 79th St (Park Ave) to E 97th St (Park Ave) due to roadwork.,1197.0,Park Ave,R,New York,New York,NY,10128-1741,US,US/Eastern,KNYC,2021-09-23 07:51:00,76.0,,79.0,29.85,10.0,,,0.0,Cloudy,True,False,True,False,False,False,False,False,False,False,False,True,False,Day,Day,Day,Day
C-1070550,2,2021-03-30 19:00:00,2021-04-01 06:00:00,36.131447,-86.818009,36.125097,-86.81361899999996,0.502510077205,Interstate 440 westbound in Davidson County - At MILE MARKER 2 (Mile Marker: 2) construction work will result in lane closures at night. This work is expected to be completed by 04/15/2021.,,I-440 E,R,Nashville,Davidson,TN,37215,US,US/Central,KBNA,2021-03-30 18:53:00,69.0,69.0,53.0,29.35,10.0,SSW,8.0,0.0,Light Rain,False,False,False,False,True,False,False,False,False,False,False,False,False,Day,Day,Day,Day
C-1070551,2,2021-01-26 17:49:04,2021-01-26 23:45:00,40.738018,-73.76871700000002,40.737656,-73.768547,0.0265480541543,Construction construction on I-295 southbound between 73rd Avenue (New York) and Union Turnpike (New York) 1 Left lane of 3 lanes closed from 10:00 A.M. until 3:00 P.M.,,Clearview Expy S,R,Oakland Gardens,Queens,NY,11364,US,US/Eastern,KLGA,2021-01-26 17:51:00,35.0,26.0,85.0,29.88,2.0,NE,13.0,0.0,Fog,False,False,False,False,False,False,False,False,True,False,False,False,False,Night,Night,Day,Day
C-1070552,2,2021-06-16 15:32:55,2021-06-16 17:35:56,25.884934,-80.210718,25.883143,-80.210623,0.123887141711,Slow traffic on US-441 S from North Miami Blvd/125th St (US-441) to FL-932/103rd St (US-441) due to roadwork.,12030.0,NW 7th Ave,L,North Miami,Miami-Dade,FL,33168-2525,US,US/Eastern,KOPF,2021-06-16 15:53:00,83.0,83.0,69.0,30.0,10.0,SE,13.0,0.0,Partly Cloudy,True,False,False,False,False,False,False,False,False,False,False,False,False,Day,Day,Day,Day
C-1070553,4,2017-10-02 23:00:00,2017-10-03 05:00:00,39.957253,-75.15151999999998,,,5.1300001144400005,Road closed due to construction on I-676 6th St both ways between I-76 and Vine Street Expy. Detour in operation.,,Vine Street Expy E,R,Philadelphia,Philadelphia,PA,19106,US,US/Eastern,KPHL,2017-10-02 22:54:00,59.0,,75.0,30.51,10.0,Calm,,,Clear,False,False,False,False,False,False,False,False,False,False,False,False,False,Night,Night,Night,Night
C-1070554,2,2020-10-17 14:19:30,2020-10-17 23:27:34,33.508105,-112.047535,33.509223,-112.04808,0.0833835810047,Queuing traffic from E Pierson St to N 15th St due to roadwork.,4874.0,N 16th St,L,Phoenix,Maricopa,AZ,85016-4606,US,US/Mountain,KPHX,2020-10-17 13:51:00,91.0,91.0,13.0,28.7,10.0,VAR,3.0,0.0,Partly Cloudy,True,False,False,False,False,False,False,False,False,False,False,False,False,Day,Day,Day,Day
C-1070555,2,2019-03-14 08:30:00,2019-03-14 16:00:00,47.8815,-121.990112,,,0.0,Intermittent lane closures due to construction on Robinhood Ln both ways between 124th St and 128th Pl.,12721.0,Robinhood Ln,R,Snohomish,Snohomish,WA,98290-8688,US,US/Pacific,KPAE,2019-03-14 08:53:00,39.9,37.8,73.0,30.4,10.0,Variable,3.5,,Overcast,False,False,False,False,False,False,False,False,False,False,False,False,False,Day,Day,Day,Day
C-1070556,4,2020-03-20 21:00:00,2020-03-21 23:00:00,38.9931,-94.69694,38.9931,-94.69888,0.104179761522,Closed at I-35/US-56/US-69 - Closed due to roadwork.,,W 75th St,R,Overland Park,Johnson,KS,66204,US,US/Central,KNKA,2020-03-20 20:54:00,35.0,27.0,46.0,29.69,10.0,N,12.0,0.0,Fair,False,False,True,False,False,False,False,False,False,False,False,True,False,Night,Night,Night,Day
C-1070557,2,2020-11-07 04:11:59,2020-11-07 09:59:24,40.875399,-73.92568100000003,40.87830200000001,-73.921328,0.303229605028,Construction construction on Henry Hudson Bridge southbound (Bronx/New York) 2 lanes closed,,Henry Hudson Pkwy N,R,New York,New York,NY,10034,US,US/Eastern,KLGA,2020-11-07 03:51:00,59.0,59.0,58.0,30.2,10.0,SSW,3.0,0.0,Fair,False,False,False,False,False,False,False,False,False,False,False,False,False,Night,Night,Night,Night
C-1070558,2,2020-12-25 21:26:00,2020-12-26 02:45:51,44.73196,-92.592309,44.74806,-92.653472,3.2012264419800003,Roadwork on US-63 (Ellsworth) (West) (US-10) from WI-35/WI-29/Campbell St (US-10) to US-10 W - US-10 E.,,W9122 Great River Rd,R,Ellsworth,Pierce,WI,54011-4601,US,US/Central,KRGK,2020-12-25 21:35:00,5.0,5.0,85.0,29.04,10.0,CALM,0.0,0.0,Fair,False,False,False,False,False,False,False,False,False,False,False,False,False,Night,Night,Night,Night
C-1070559,2,2018-02-05 09:00:00,2018-02-05 15:00:00,35.960522,-83.920837,,,1.62000000477,Intermittent lane closures due to bridge maintenance work on US-441 Henley St both ways between Blount Ave and US-70 Cumberland Ave.,846.0,Henley St,L,Knoxville,Knox,TN,37902-2901,US,US/Eastern,KTYS,2018-02-05 08:53:00,28.0,18.6,72.0,30.28,10.0,North,10.4,,Overcast,False,False,False,False,False,False,False,False,False,False,False,False,False,Day,Day,Day,Day
C-1070560,2,2020-12-02 08:01:30,2020-12-02 17:34:14,34.017267,-81.429785,34.021203,-81.448341,1.09691261036,Roadwork on Charter Oak Rd/Saint Peters Church Rd (US-378) from SC-391 (US-378) to US-378 E - US-378 W.,101.0,Front St,L,Gilbert,Lexington,SC,29054-8408,US,US/Eastern,KCAE,2020-12-02 07:56:00,28.0,28.0,85.0,30.02,10.0,SW,3.0,0.0,Fair,False,False,False,False,False,False,False,False,False,False,False,False,False,Day,Day,Day,Day
C-1070561,2,2021-10-15 15:23:30,2021-10-15 17:42:11,33.483888,-112.073909,33.480159,-112.07242,0.2715625495129999,Slow traffic from Park Central to N 3rd St due to roadwork.,3100.0,N Central Ave,L,Phoenix,Maricopa,AZ,85012,US,US/Mountain,KPHX,2021-10-15 15:51:00,83.0,83.0,11.0,28.83,10.0,NE,9.0,0.0,Fair,False,False,True,False,False,False,True,False,False,False,False,True,False,Day,Day,Day,Day
C-1070562,2,2020-03-31 21:14:36,2020-04-01 12:00:00,40.64742,-74.83482,40.64082,-74.87723000000003,2.26966987801,At US-22/Exit 18 - Roadwork. Two lanes closed.,,I-78 W,R,Lebanon,Hunterdon,NJ,08833,US,US/Eastern,KSMQ,2020-03-31 20:53:00,44.0,44.0,76.0,29.83,10.0,ESE,3.0,0.0,Cloudy,False,False,False,False,False,False,False,False,False,False,False,False,False,Night,Night,Night,Night
C-1070563,2,2020-09-01 13:01:21,2020-09-01 18:06:55,39.709672,-76.853202,39.711208,-76.85279,0.108363285585,Roadwork on MD-86 from MD-30/Hanover Pike (Lineboro Rd/MD-86) to Church St (Lineboro Rd/MD-86).,4899.0,Water Tank Rd,R,Manchester,Carroll,MD,21102-1503,US,US/Eastern,KDMW,2020-09-01 12:55:00,72.0,72.0,94.0,29.24,4.0,SE,6.0,0.0,Rain,False,False,False,False,False,False,False,False,False,True,False,False,False,Day,Day,Day,Day
C-1070564,2,2021-06-08 17:33:08,2021-06-08 20:06:02,26.681632,-80.24878199999998,26.681543,-80.245088,0.228135887785,Slow traffic on FL-80 - FL-700 - US-98 E - US-441 S from Big Blue Trl/F Rd (US-98) to Royal Palm Beach Blvd (US-98) due to roadwork.,12298.0,Southern Blvd,R,Wellington,Palm Beach,FL,33414,US,US/Eastern,KPBI,2021-06-08 17:53:00,85.0,85.0,61.0,30.11,10.0,SE,13.0,0.0,Partly Cloudy,False,False,False,False,False,False,False,False,False,False,False,False,False,Day,Day,Day,Day
