ID,Severity,Start_Time,End_Time,Start_Lat,Start_Lng,End_Lat,End_Lng,Distance(mi),Description,Number,Street,Side,City,County,State,Zipcode,Country,Timezone,Airport_Code,Weather_Timestamp,Temperature(F),Wind_Chill(F),Humidity(%),Pressure(in),Visibility(mi),Wind_Direction,Wind_Speed(mph),Precipitation(in),Weather_Condition,Amenity,Bump,Crossing,Give_Way,Junction,No_Exit,Railway,Roundabout,Station,Stop,Traffic_Calming,Traffic_Signal,Turning_Loop,Sunrise_Sunset,Civil_Twilight,Nautical_Twilight,Astronomical_Twilight
C-1077476,2,2020-06-02 07:29:55,2020-06-02 15:00:00,40.61305,-74.02976,40.60227,-74.06188,1.84213551679,Between I-278/92nd St and I-278/Verrazano-Narrows Brg - Construction work.,,I-278 W,R,Brooklyn,Kings,NY,11209,US,US/Eastern,KJRB,2020-06-02 07:51:00,63.0,,46.0,29.96,10.0,,,0.0,Fair,False,False,False,False,False,False,False,False,False,False,False,False,False,Day,Day,Day,Day
C-1077477,3,2019-10-03 21:30:00,2019-10-04 05:00:00,42.348652,-71.059433,,,0.8199999928470001,Entry ramp to I-93 South Hov Ln Southbound from Airport Hov Ln closed due to maintenance work.,,I-93 S,R,Boston,Suffolk,MA,02111,US,US/Eastern,KBOS,2019-10-03 21:54:00,53.0,53.0,71.0,30.05,10.0,SSE,8.0,0.0,Cloudy,False,False,False,False,False,False,False,False,False,False,False,True,False,Night,Night,Night,Night
C-1077478,2,2021-05-27 04:17:30,2021-05-27 04:49:00,40.816393,-73.89416700000002,40.82037,-73.89008100000002,0.348071670946,Slow traffic on I-278 E from I-895 (I-278) to Bronx River Ave (Bronx) (South) (I-278) due to roadwork.,,Bruckner Expy E,R,Bronx,Bronx,NY,10459,US,US/Eastern,KLGA,2021-05-27 03:51:00,68.0,68.0,81.0,29.85,10.0,NW,5.0,0.0,Cloudy,False,False,False,False,False,False,False,False,False,False,False,False,False,Night,Night,Day,Day
C-1077479,2,2021-11-05 21:49:00,2021-11-05 22:12:00,41.319928,-73.980517,41.320008,-73.98741700000002,0.358094097592,Stationary traffic on US-202 E - US-202 W - US-6 W - US-6 E from NY-9D (US-202/Bear Mountain Bridge/US-6) to US-202/US-9W (US-202/Bear Mountain Bridge/US-6) due to roadwork.,,Bear Mountain Bridge Rd,R,Cortlandt Manor,Westchester,NY,10567,US,US/Eastern,KHPN,2021-11-05 21:56:00,38.0,38.0,68.0,29.89,10.0,N,3.0,0.0,Fair,False,False,False,False,False,False,False,False,False,False,False,False,False,Night,Night,Night,Night
C-1077480,3,2017-10-11 08:00:00,2017-10-13 23:59:00,41.730251,-86.33916500000002,,,14.3000001907,One lane closed and temporary gross weight limit due to construction work on I-80 both ways between Exit 77 US-31 Bus Indiana State Route 933 and Exit 72 US-31 Saint Joseph Valley Pkwy.,,I-90 E,R,South Bend,St. Joseph,IN,46628,US,US/Eastern,KSBN,2017-10-11 07:54:00,53.1,,100.0,29.95,10.0,East,9.2,0.0,Overcast,False,False,False,False,True,False,False,False,False,False,False,False,False,Day,Day,Day,Day
C-1077481,2,2020-04-20 04:01:33,2020-04-20 17:59:00,43.97634,-75.92333,43.97634,-75.92333,0.0,At US-11/RT-12/Massey St - Bridge maintenance work.,,Arsenal St,R,Watertown,Jefferson,NY,13601,US,US/Eastern,KART,2020-04-20 03:56:00,28.0,23.0,78.0,29.48,10.0,NNE,5.0,0.0,Fair,False,False,False,False,False,False,False,False,False,False,False,False,False,Night,Night,Night,Night
C-1077482,2,2021-04-09 09:56:00,2021-11-11 17:20:32,36.63760300000001,-82.561786,36.63368,-82.553775,0.520334622308,Roadwork on US-23 Bus/US-58 Bus/US-421 Bus (US-58/US-421/US-23) from US-58/US-421 (Orby Cantrell Hwy/US-23) to US-421 S - US-58 E - US-23 S.,3801.0,US Highway 23 S,L,Gate City,Scott,VA,24251,US,US/Eastern,KTRI,2021-04-14 20:53:00,59.0,59.0,87.0,28.35,10.0,N,7.0,0.0,Light Rain,False,False,False,False,False,False,False,False,False,False,False,False,False,Day,Day,Day,Day
C-1077483,4,2021-08-30 08:08:00,2021-12-10 01:15:00,33.486434,-112.478809,33.493574,-112.47879,0.493328230448,Construction on 195TH AVE near OSBORN RD Road closed. Take alternate route.,19498.0,W Osborn Rd,L,Litchfield Park,Maricopa,AZ,85340-9722,US,US/Mountain,KLUF,2021-11-30 00:58:00,53.0,53.0,36.0,28.85,10.0,N,9.0,0.0,Fair,False,False,True,False,False,False,False,False,False,False,False,True,False,Day,Day,Day,Day
C-1077484,2,2021-10-18 18:31:00,2021-10-20 01:00:15,33.103446000000005,-106.041421,33.098336,-106.03516,0.505946512982,Roadwork on CR-B023/Snake Tank Rd (US-54) from US-70/Central Ave (St Francis Dr/US-54) to US-54 S - US-54 N.,8144.0,US Highway 54,L,Tularosa,Otero,NM,88352-9405,US,US/Mountain,KALM,2021-10-18 18:35:00,73.0,73.0,20.0,25.65,10.0,SW,9.0,0.0,Fair,False,False,False,False,False,False,False,False,False,False,False,False,False,Night,Day,Day,Day
C-1077485,2,2020-06-18 12:01:00,2020-06-18 14:59:00,33.78355,-118.09139,33.7744,-118.08526,0.723614357907,Between San Gabriel River Frwy Rte 605 and Garden Grove Frwy West Rte 22 - Maintenance work.,,I-405 N,R,Los Alamitos,Orange,CA,90720,US,US/Pacific,KSLI,2020-06-18 11:58:00,66.0,66.0,68.0,29.92,7.0,SSW,7.0,0.0,Cloudy,False,False,False,False,False,False,False,False,False,False,False,False,False,Day,Day,Day,Day
C-1077486,2,2021-11-22 14:36:00,2021-11-22 14:58:30,38.861656,-76.995874,38.862412,-76.997659,0.109320026552,Stationary traffic from Stanton Rd (Suitland Pkwy) to Firth Sterling Ave (Suitland Pkwy) due to roadwork.,,Suitland Pkwy W,R,Washington,District of Columbia,DC,20020,US,US/Eastern,KWBC,2021-11-22 09:56:00,48.0,46.0,75.0,29.6,10.0,NNW,5.0,0.0,Mostly Cloudy,False,False,True,False,False,False,True,False,False,False,False,True,False,Day,Day,Day,Day
C-1077487,4,2021-12-14 01:54:00,2021-12-14 03:55:10,39.734962,-105.363745,39.75426,-105.237684,6.8285677295700005,US-6 W - US-6 E is closed from CO-119 (W 6th Ave/US-6) to CO-58 (W 6th Ave/US-6) due to roadwork.,31794.0,US Highway 6,L,Golden,Jefferson,CO,80403,US,US/Mountain,KBDU,2021-12-14 01:55:00,36.0,32.0,38.0,24.66,10.0,SE,5.0,0.0,Fair,False,False,False,False,False,False,False,False,False,False,False,False,False,Night,Night,Night,Night
C-1077488,2,2021-03-02 06:31:30,2021-03-02 12:34:40,27.084994,-82.427782,27.079043,-82.424899,0.447794413799,Stationary traffic on FL-45 - US-41 S from Venice Byp (US-41) to US-41 Byp/FL-45/Tamiami Trl (US-41) due to roadwork.,,US Highway 41 Byp S,R,Venice,Sarasota,FL,34285,US,US/Eastern,KVNC,2021-03-02 06:53:00,71.0,71.0,93.0,30.0,10.0,CALM,0.0,0.0,Mostly Cloudy,False,False,False,False,False,False,False,False,False,False,False,True,False,Night,Day,Day,Day
C-1077489,2,2021-04-05 07:25:00,2021-04-05 12:15:00,44.289742,-69.704263,44.28715800000001,-69.70037099999999,0.2625457740569999,Augusta Rte 17 Eastern Ave. lane shift 2 way traffic maintained before Spring Rd and Togus VA entrance due to road maintenance.,776.0,Eastern Ave,L,Augusta,Kennebec,ME,04330-6713,US,US/Eastern,KAUG,2021-04-05 07:53:00,37.0,28.0,82.0,29.39,10.0,NNW,15.0,0.0,Light Rain,False,False,False,False,False,False,False,False,False,False,False,True,False,Day,Day,Day,Day
C-1077490,2,2020-02-18 07:00:00,2020-11-12 19:17:14,38.500257,-87.562732,38.480393,-87.56580100000002,1.38247076481,Roadwork on CR-1750 S/W Decker Chapel Rd (US-41) from IN-56 (US-41) to US-41 S.,10893.0,S US Highway 41,L,Decker,Knox,IN,47524-7060,US,US/Central,KAJG,2020-02-18 06:55:00,45.0,39.0,93.0,29.57,7.0,N,13.0,0.0,Cloudy,False,False,False,False,False,False,False,False,False,False,False,False,False,Night,Night,Day,Day
C-1077491,2,2021-04-19 10:28:17,2021-07-01 00:44:59,40.583868,-73.821118,40.584539,-73.821546,0.0515149335258,Construction on BEACH 100TH ST near NANCY CT Allow extra time.,209.0,Beach 100th St,R,Rockaway Park,Queens,NY,11694-2824,US,US/Eastern,KJFK,2021-04-19 10:51:00,61.0,61.0,50.0,29.85,10.0,SSE,9.0,0.0,Partly Cloudy,False,False,False,False,False,False,False,False,True,False,False,False,False,Day,Day,Day,Day
C-1077492,4,2019-03-12 23:00:00,2019-03-15 05:00:00,32.84117,-117.12679,32.839290000000005,-117.12141,0.338251745379,Ramp closed to I-15 SB and Clairemont Mesa Blvd - Closed due to roadwork.,,CA-52 E,R,San Diego,San Diego,CA,92123,US,US/Pacific,KMYF,2019-03-12 22:53:00,55.9,,80.0,29.88,9.0,SSW,10.4,0.0,Overcast,False,False,False,False,False,False,False,False,False,False,False,False,False,Night,Night,Night,Night
C-1077493,4,2021-10-07 22:44:18,2021-10-14 23:59:00,41.382668,-70.493905,41.384767,-70.500925,0.3917550012430001,Closed road from Hotel Ave to Manaca Hill Rd due to roadwork.,97.0,Chappaquiddick Rd,R,Edgartown,Dukes,MA,02539-4124,US,US/Eastern,KMVY,2021-10-07 22:53:00,49.0,49.0,97.0,30.11,10.0,W,3.0,0.0,Fair,False,False,False,False,False,False,False,False,False,False,False,False,False,Night,Night,Night,Night
C-1077494,2,2018-05-14 09:00:00,2018-05-14 16:00:00,41.415714,-73.641632,,,7.400000095369999,Right hand shoulder blocked due to construction work on US-6 both ways between NY-52 Gleneida Ave and NY-312.,2219.0,Route 6,L,Brewster,Putnam,NY,10509-2147,US,US/Eastern,KDXR,2018-05-14 08:53:00,53.1,,89.0,30.04,10.0,WSW,3.5,,Overcast,False,False,False,False,False,False,False,False,False,False,False,True,False,Day,Day,Day,Day
C-1077495,2,2020-09-08 17:36:00,2020-09-09 03:08:11,40.233741,-111.669265,40.234233,-111.66745,0.101591682168,Queuing traffic on UT-114 - US-89 N - US-89 S from S 600 W / N 600 W to W 100 N due to roadwork.,1.0,S 600 W,L,Provo,Utah,UT,84601,US,US/Mountain,KPVU,2020-09-08 17:56:00,52.0,52.0,40.0,25.51,10.0,NW,18.0,0.0,Partly Cloudy,False,False,True,False,False,False,False,False,False,False,False,False,False,Day,Day,Day,Day
C-1077496,2,2020-07-17 05:02:00,2020-07-17 07:15:00,35.768491,-80.862797,35.728831,-80.858427,2.75118009976,Construction on I-77 SB near EXIT 45 Construction. Right lane closed.,,I-77 S,R,Statesville,Iredell,NC,28677,US,US/Eastern,KSVH,2020-07-17 04:55:00,74.0,74.0,93.0,29.15,10.0,CALM,0.0,0.0,Fair,False,False,False,False,False,False,False,False,False,False,False,False,False,Night,Night,Night,Day
C-1077497,2,2021-06-29 07:42:30,2021-06-29 08:11:00,33.74317,-117.135065,33.742259000000004,-117.154064,1.09338106859,Stationary traffic on CA-74 from Emperor Rd to Matthews Rd due to roadwork.,30175.0,US Highway 74,R,Homeland,Riverside,CA,92548-9143,US,US/Pacific,KF70,2021-06-29 07:35:00,68.0,68.0,73.0,28.38,10.0,CALM,0.0,0.0,Fair,False,False,False,False,False,False,False,False,False,False,False,False,False,Day,Day,Day,Day
C-1077498,2,2021-06-22 10:13:44,2021-06-22 12:21:21,40.806407,-73.942255,40.808125,-73.946309,0.242982521856,Slow traffic from 5th Ave (New York) (West) (W 125th St) to 7th Ave (W 125th St) due to roadwork.,2.0,E 125th St,R,New York,New York,NY,10035-1817,US,US/Eastern,KNYC,2021-06-22 09:51:00,77.0,77.0,71.0,29.61,10.0,VAR,3.0,0.0,Mostly Cloudy,True,False,True,False,False,False,False,False,True,False,False,True,False,Day,Day,Day,Day
C-1077499,2,2021-02-05 12:39:00,2021-02-05 18:10:00,25.454231,-80.475227,25.447905,-80.475601,0.437707331896,Stationary traffic on US-1 S - FL-5 from S Dixie Hwy to S Krome Ave / N Krome Ave due to roadwork.,588.0,NE 1st Ave,L,Florida City,Miami-Dade,FL,33034-3523,US,US/Eastern,KHST,2021-02-05 12:56:00,77.0,77.0,61.0,29.98,10.0,ESE,9.0,0.0,Mostly Cloudy,False,False,True,False,False,False,False,False,False,True,False,True,False,Day,Day,Day,Day
C-1077500,2,2020-08-26 15:58:30,2020-08-26 17:20:32,32.125372,-97.488884,32.122054,-97.49539,0.444398033361,Stationary traffic on TX-174 from CR-1120 (TX-174) to FM-56 (Kopperl) (North) (TX-174) due to roadwork.,310.0,State Highway 174,R,Blum,Hill,TX,76627-3533,US,US/Central,KCPT,2020-08-26 15:55:00,93.0,93.0,49.0,28.95,10.0,ENE,12.0,0.0,Mostly Cloudy,False,False,False,False,False,False,False,False,False,False,False,False,False,Day,Day,Day,Day
C-1077501,2,2019-12-26 19:01:18,2019-12-30 19:00:37,40.00117,-75.22657,40.00713,-75.21372,0.795047869274,Between Old Lancaster Rd/N 54th St and Presidential Blvd - Roadwork. Lane blocked.,5.0,W City Ave,R,Bala Cynwyd,Montgomery,PA,19004-3165,US,US/Eastern,KLOM,2019-12-26 18:55:00,36.0,32.0,96.0,30.01,7.0,ENE,5.0,0.0,Fair,False,False,True,False,False,False,False,False,False,False,False,True,False,Night,Night,Night,Night
C-1077502,2,2020-02-13 16:31:06,2020-02-17 17:41:45,26.69678,-80.68370999999998,26.6968,-80.67607,0.471602594853,Between SR-715/NW 16th St and SR-15/SR-80/N Main St - Construction work.,1549.0,NW Avenue L,L,Belle Glade,Palm Beach,FL,33430-1725,US,US/Eastern,KPBI,2020-02-13 17:53:00,81.0,81.0,72.0,30.01,10.0,S,15.0,0.0,Partly Cloudy,False,False,False,False,False,False,False,False,False,False,False,True,False,Day,Day,Day,Day
C-1077503,4,2020-11-08 02:01:00,2020-11-08 20:46:00,34.215705,-118.849696,34.211698,-118.85058,0.281426919357,Construction on CA-23 SB near AVENIDA DE LOS ARBOLES Use alternate exit ramp.,,CA-23 S,R,Thousand Oaks,Ventura,CA,91362,US,US/Pacific,KCMA,,,,,,,,,,,False,False,False,False,False,False,False,False,False,False,False,True,False,Night,Night,Night,Night
C-1077504,2,2021-05-03 12:31:00,2021-05-03 16:55:56,33.977913,-81.195229,33.946088,-81.25546899999998,4.09298305907,Slow traffic on I-20 W from US-1/Exit 58 (I-20) to SC-204/Exit 51 (I-20) due to roadwork.,,I-20 W,R,Lexington,Lexington,SC,29073,US,US/Eastern,KCAE,2021-05-03 12:56:00,77.0,77.0,76.0,29.65,10.0,SSW,13.0,0.0,Mostly Cloudy,False,False,False,False,False,False,False,False,False,False,False,False,False,Day,Day,Day,Day
C-1077505,2,2021-02-11 07:49:00,2021-02-11 18:15:00,38.463523,-78.161735,38.45477800000001,-78.169113,0.724173097345,Construction on RIDGEVIEW RD SB near TRYME RD Drive with caution.,7041.0,W Hoover Rd,R,Reva,Madison,VA,22735,US,US/Eastern,KCJR,2021-02-11 07:55:00,35.0,35.0,91.0,29.82,1.0,N,3.0,0.0,Light Rain,False,False,False,False,False,False,False,False,False,False,False,False,False,Day,Day,Day,Day
C-1077506,2,2020-09-08 02:34:00,2020-09-08 16:26:18,37.529822,-77.327517,37.529752,-77.32122700000002,0.344685809256,Roadwork on I-64 from Laburnum Ave/Exit 195 (I-64) to VA-156/Exit 197 (I-64).,,I-64 E,R,Sandston,Henrico,VA,23150,US,US/Eastern,KRIC,2020-09-08 02:54:00,65.0,65.0,97.0,29.86,10.0,CALM,0.0,0.0,Fair,False,False,False,False,False,False,False,False,False,False,False,False,False,Night,Night,Night,Night
C-1077507,2,2021-04-10 07:09:00,2021-04-10 09:12:00,32.810426,-96.627607,32.817688000000004,-96.628656,0.505440389702,Slow traffic on I-635 N - LBJ Fwy N from US-80/Exit 6 (I-635) to I-30/Exit 8 (I-635) due to roadwork.,,I-635 N,R,Mesquite,Dallas,TX,75150,US,US/Central,KHQZ,2021-04-10 06:50:00,54.0,54.0,58.0,29.38,10.0,NW,9.0,0.0,Fair,False,False,False,False,False,False,False,False,False,False,False,False,False,Day,Day,Day,Day
C-1077508,2,2020-10-31 16:09:30,2020-10-31 20:54:00,27.871735,-82.328276,27.870769,-82.326741,0.115086563817,Stationary traffic on US-301 S - FL-43 from Commerce St to Moody Rd due to roadwork.,,Riverview Dr,R,Riverview,Hillsborough,FL,33578,US,US/Eastern,KTPF,2020-10-31 16:15:00,84.0,84.0,55.0,30.07,10.0,E,5.0,0.0,Cloudy,True,False,False,False,False,False,False,False,True,False,False,False,False,Day,Day,Day,Day
C-1077509,2,2021-09-26 17:12:30,2021-09-26 17:42:30,42.099609,-122.607405,42.096076,-122.607015,0.244924526806,Stationary traffic on OR-99 S - Pacific Highway 1 S - I-5 S from OR-99/Exit 11 (I-5) to Old Siskiyou Hwy/Exit 6 (I-5) due to roadwork.,,I-5 S,R,Ashland,Jackson,OR,97520,US,US/Pacific,KMFR,2021-09-26 16:53:00,83.0,83.0,17.0,28.44,10.0,NW,12.0,0.0,Fair,False,False,False,False,False,False,False,False,False,False,False,False,False,Day,Day,Day,Day
C-1077510,2,2019-07-24 00:01:00,2019-08-02 23:59:00,40.061031,-82.529198,,,0.0,One lane closed and temporary width limit due to bridge struck by vehicle on OH-16 Westbound at OH-37. Repairs in progress.,,Columbus Rd,R,Granville,Licking,OH,43023,US,US/Eastern,KVTA,2019-07-24 00:54:00,60.0,60.0,83.0,29.1,10.0,CALM,0.0,0.0,Fair,False,False,False,False,False,False,False,False,False,False,False,False,False,Night,Night,Night,Night
C-1077511,2,2021-11-30 09:00:00,2021-11-30 14:45:00,42.40522,-71.019948,42.40356,-71.015088,0.273193933513,Construction on US-1 SB near MM 51 Drive with caution.,900.0,Revere Beach Pkwy,L,Chelsea,Suffolk,MA,02150,US,US/Eastern,KBOS,2021-11-30 08:54:00,30.0,22.0,51.0,29.96,10.0,WNW,9.0,0.0,Fair,False,False,False,False,False,False,False,False,False,False,False,False,False,Day,Day,Day,Day
C-1077512,2,2021-08-11 12:32:30,2021-08-11 13:25:30,35.334843,-106.577863,35.33009699999999,-106.57161,0.4814149031629999,Stationary traffic on NM-44 - US-550 S from Sprint Blvd / Safelite Blvd NE to Pat D'Arco Hwy due to roadwork.,1189.0,W Highway 550,R,Rio Rancho,Sandoval,NM,87144,US,US/Mountain,KAEG,2021-08-11 12:48:00,84.0,84.0,27.0,24.35,10.0,VAR,3.0,0.0,Fair,False,False,False,False,False,False,False,False,False,False,False,True,False,Day,Day,Day,Day
C-1077513,2,2021-10-04 05:15:57,2021-10-10 01:59:07,30.276773,-93.030947,30.27677700000001,-93.033076,0.127035764549,Roadwork on N Jeff Davis Ward Line Rd from Parish Barn Rd / Denison Rd to LA-3059.,7198.0,Highway 3059,R,Iowa,Calcasieu,LA,70647,US,US/Central,KCWF,2021-10-04 05:15:00,71.0,71.0,93.0,29.93,10.0,N,3.0,0.0,Partly Cloudy,False,False,False,False,False,False,False,False,False,False,False,False,False,Night,Night,Night,Night
C-1077514,4,2020-06-13 22:02:00,2020-06-14 03:01:38,37.80261,-92.22468,37.80671,-92.21809,0.457900672215,Closed at MO-H/Exit 156 - Closed due to roadwork.,,I-44 E,R,Waynesville,Pulaski,MO,65583,US,US/Central,KTBN,2020-06-13 21:56:00,71.0,71.0,72.0,28.89,10.0,E,3.0,0.0,Fair,False,False,False,False,True,False,False,False,False,False,False,False,False,Night,Night,Night,Day
C-1077515,2,2020-11-01 19:09:30,2020-11-01 22:24:15,40.811909,-73.89944,40.823731,-73.876941,1.4322190970700002,Slow traffic on I-278 from Exit 45 (I-278) to Bronx River Ave (Bronx) (North) (I-278) due to roadwork.,,Bruckner Expy E,R,Bronx,Bronx,NY,10455,US,US/Eastern,KLGA,2020-11-01 19:23:00,55.0,55.0,74.0,29.67,10.0,W,28.0,0.0,Light Rain / Windy,False,False,True,False,True,False,False,False,False,False,False,False,False,Night,Night,Night,Night
C-1077516,3,2020-06-22 21:00:00,2020-06-23 06:00:00,43.175911,-88.089996,,,2.07999992371,Entry ramp to I-41 Southbound from WI-100 closed due to construction work.,,N86W14384 Fond du Lac Ave,L,Menomonee Falls,Waukesha,WI,53051-3266,US,US/Central,KMWC,2020-06-22 20:55:00,70.0,70.0,73.0,28.97,10.0,CALM,0.0,0.01,Light Drizzle,False,False,False,False,False,False,False,False,False,False,False,True,False,Night,Day,Day,Day
C-1077517,2,2021-01-04 14:35:00,2021-01-04 23:54:09,34.621992,-92.504113,34.624546,-92.499587,0.312028524009,Stationary traffic on AR-5 from Springhill Rd (Stagecoach Rd/AR-5) to AR-183/Commonwealth Dr/Reynolds Rd (Stagecoach Rd/AR-5) due to roadwork.,5173.0,Highway 5 N,L,Bryant,Saline,AR,72022,US,US/Central,KLIT,2021-01-04 14:53:00,62.0,62.0,38.0,29.73,10.0,NW,3.0,0.0,Fair,False,False,True,False,False,False,False,False,False,False,False,False,False,Day,Day,Day,Day
C-1077518,4,2020-02-11 02:02:17,2020-02-11 04:22:15,42.33201,-71.06254,42.33383,-71.06411,0.149142971684,At Massachusetts Ave/Exit 18 - Roadwork.,,I-93 N,R,Boston,Suffolk,MA,02118,US,US/Eastern,KBOS,2020-02-11 02:54:00,41.0,41.0,82.0,30.08,5.0,CALM,0.0,0.0,Cloudy,False,False,False,False,True,False,False,False,False,False,False,True,False,Night,Night,Night,Night
C-1077519,2,2020-05-23 20:35:43,2020-05-28 20:33:56,34.06214,-83.95009,34.06579,-83.93973000000003,0.644383989441,At Hamilton Mill Rd/Exit 120 - Construction work.,,GA-403 N,R,Buford,Gwinnett,GA,30519,US,US/Eastern,KLZU,2020-05-24 20:56:00,76.0,76.0,69.0,28.91,10.0,W,5.0,0.0,Fair,False,False,False,False,False,False,False,False,False,False,False,False,False,Day,Day,Day,Day
C-1077520,2,2021-10-11 22:33:14,2021-10-30 20:44:30,43.577763,-100.750022,43.590445,-100.75171,0.880305970697,Construction on US-83 NB near SD-44 Expect delays.,,US Highway 83,R,White River,Mellette,SD,57579,US,US/Central,KICR,2021-10-11 22:53:00,49.0,47.0,71.0,27.78,10.0,ENE,5.0,0.0,Fair,False,False,False,False,False,False,False,False,False,False,False,False,False,Night,Night,Night,Night
C-1077521,3,2017-08-01 17:20:51,2017-08-04 01:32:57,40.52982,-80.07236,40.48274,-80.00775,4.70130538429,Between I-79 and Venture St/Exit 10 - Construction work. Lane blocked.,,I-279 S,R,Pittsburgh,Allegheny,PA,15237,US,US/Eastern,KPIT,2017-08-01 16:51:00,82.0,,44.0,30.08,10.0,West,5.8,,Mostly Cloudy,False,False,False,False,False,False,False,False,False,False,False,False,False,Day,Day,Day,Day
C-1077522,2,2020-04-16 04:53:18,2020-04-20 05:00:00,40.689941,-73.983551,,,0.0,Main roadway closed due to construction on Albee Sq Northbound at Fulton St.,499.0,Albee Sq,R,Brooklyn,Kings,NY,11201,US,US/Eastern,KJRB,2020-04-16 04:51:00,45.0,41.0,44.0,29.88,10.0,VAR,7.0,0.0,Cloudy,True,False,False,False,False,False,False,False,False,False,False,False,False,Night,Night,Night,Day
C-1077523,2,2021-10-04 17:37:30,2021-10-04 17:59:00,41.111415,-81.573425,41.109564,-81.569242,0.252537275927,Slow traffic on OH-18 from Ghent Rd (W Market St/OH-18) to OH-59 (W Market St/OH-18) due to roadwork.,1813.0,W Market St,R,Akron,Summit,OH,44313-7019,US,US/Eastern,KAKR,2021-10-04 17:54:00,73.0,73.0,68.0,28.81,10.0,NNW,7.0,0.0,Mostly Cloudy,True,False,True,False,False,False,False,False,False,False,False,True,False,Day,Day,Day,Day
C-1077524,2,2021-06-03 17:28:42,2021-06-03 19:38:51,41.399751,-87.334085,41.401489,-87.336558,0.175634533229,Stationary traffic on US-231 N - US-231 S from I-65 (Crown Point) (US-231) to E Greenwood Ave (US-231) due to roadwork.,186.0,W State Road 231,R,Crown Point,Lake,IN,46307,US,US/Central,KIGQ,2021-06-03 17:35:00,83.0,83.0,32.0,29.19,10.0,WSW,7.0,0.0,Fair,False,False,False,False,False,False,False,False,False,False,False,False,False,Day,Day,Day,Day
C-1077525,2,2019-08-12 08:01:09,2019-08-16 08:00:36,37.72975,-122.38344,37.730344,-122.382876,0.0513254678886,At Oakdale Ave - Construction work.,1463.0,Ingalls St,L,San Francisco,San Francisco,CA,94124-2805,US,US/Pacific,KSFO,2019-08-12 07:56:00,66.0,66.0,68.0,30.0,10.0,WNW,5.0,0.0,Fair,False,False,True,False,False,False,False,False,True,True,False,False,False,Day,Day,Day,Day
C-1077526,4,2021-08-05 10:31:36,2021-08-05 14:23:11,40.739954,-73.92503,40.740173,-73.926921,0.1001446909029999,Closed road from Greenpoint Ave to 39th St due to roadwork.,4001.0,48th Ave,L,Sunnyside,Queens,NY,11104-3616,US,US/Eastern,KNYC,2021-08-05 10:51:00,73.0,73.0,66.0,30.0,10.0,NNE,8.0,0.0,Cloudy,True,False,False,False,False,False,False,False,True,False,False,True,False,Day,Day,Day,Day
C-1077527,2,2020-09-10 13:22:30,2020-09-10 22:26:20,33.42264,-111.92629,33.422035,-111.925744,0.0523332529171,Stationary traffic from E 6th St to S Athletes Pl due to resurfacing work.,711.0,S Rural Rd,L,Tempe,Maricopa,AZ,85281-2045,US,US/Mountain,KPHX,2020-09-10 12:56:00,86.0,86.0,18.0,28.8,10.0,E,5.0,0.0,Mostly Cloudy,False,False,False,False,False,False,False,False,True,False,False,False,False,Day,Day,Day,Day
C-1077528,2,2021-10-22 07:06:00,2021-10-22 07:36:00,30.14945,-97.630365,30.146873,-97.624958,0.368871488326,Stationary traffic from Heine Farm Rd / McAngus Rd to Fagerquist Rd due to roadwork.,7565.0,Elroy Rd,R,Del Valle,Travis,TX,78617-3576,US,US/Central,KAUS,2021-10-22 06:53:00,62.0,62.0,96.0,29.49,10.0,CALM,0.0,0.0,Patches of Fog,False,False,False,False,False,False,False,False,False,False,False,False,False,Night,Night,Day,Day
C-1077529,2,2021-06-29 15:50:56,2021-06-29 16:27:32,29.90609000000001,-90.080653,29.908304,-90.081247,0.157055246702,Stationary traffic from 8th St to 4th St / Bark Dr due to roadwork.,555.0,Peters Rd,R,Harvey,Jefferson,LA,70058-1704,US,US/Central,KNBG,2021-06-29 15:55:00,86.0,86.0,77.0,30.09,10.0,E,12.0,0.0,Mostly Cloudy,False,False,True,False,False,False,True,False,False,False,False,False,False,Day,Day,Day,Day
C-1077530,2,2021-08-11 17:52:00,2021-08-11 19:56:26,42.010832,-87.711505,42.01183,-87.712413,0.0832328772808,Stationary traffic from W Lunt Ave to N Kimball Ave due to roadwork.,7141.0,N McCormick Blvd,R,Lincolnwood,Cook,IL,60712,US,US/Central,KORD,2021-08-11 17:51:00,87.0,87.0,65.0,29.06,10.0,SW,21.0,0.0,Partly Cloudy / Windy,False,False,False,False,False,False,False,False,False,False,False,False,False,Day,Day,Day,Day
C-1077531,2,2021-09-28 19:00:00,2021-09-28 19:42:00,39.957741,-75.318601,39.959672,-75.314171,0.269898497434,Stationary traffic on US-1 N - US-1 S from State Rd (Drexel Hill) (State Rd/Township Line Rd/US-1) to Drexel Ave (Township Line Rd/US-1) due to roadwork.,1299.0,Alexander Ave,R,Drexel Hill,Delaware,PA,19026-4203,US,US/Eastern,KPHL,2021-09-28 18:54:00,73.0,73.0,68.0,29.83,10.0,NW,6.0,0.0,Mostly Cloudy,False,False,True,False,False,False,False,False,False,True,False,True,False,Night,Day,Day,Day
C-1077532,2,2021-02-18 21:27:00,2021-02-19 05:32:00,47.09500900000001,-122.617303,47.102759000000006,-122.595813,1.14384585432,Road work on I-5 northbound from milepost 120 near Pendleton Ave to milepost 121 near Jblm Main Gate beginning at 9:27 pm on February 18 2021 until about 4:30 am on February 19 2021.,,I-5 N,R,Tacoma,Pierce,WA,98433,US,US/Pacific,KGRF,2021-02-18 21:16:00,43.0,36.0,100.0,29.67,10.0,SSE,14.0,0.0,Mostly Cloudy,False,False,False,False,False,False,False,False,False,False,False,False,False,Night,Night,Night,Night
C-1077533,4,2020-05-18 01:38:46,2020-05-18 06:37:06,42.69827,-87.91462,42.69841,-87.93063000000002,0.8130312546430001,Closed at 59th Dr - Closed due to roadwork. Left lane closed.,10500.0,Durand Ave,L,Sturtevant,Racine,WI,53177-2314,US,US/Central,KRAC,2020-05-18 01:32:00,51.0,51.0,96.0,29.02,4.0,ENE,10.0,0.03,Light Rain,False,False,False,False,False,False,False,False,False,False,False,True,False,Night,Night,Night,Night
C-1077534,4,2021-06-11 13:45:52,2021-06-24 23:59:00,42.39196,-71.25914399999998,42.388698,-71.259661,0.226921619029,Closed road from 4th Ave to 5th Ave due to roadwork.,,4th Ave,R,Waltham,Middlesex,MA,02451,US,US/Eastern,KBED,2021-06-11 13:51:00,69.0,69.0,49.0,29.85,10.0,E,8.0,0.0,Mostly Cloudy,False,False,False,False,False,False,False,False,False,True,False,False,False,Day,Day,Day,Day
C-1077535,2,2017-07-06 09:03:15,2017-07-06 15:03:15,35.004957,-85.118623,35.00283,-85.14591999999998,1.55185686758,At Graysville Rd - Construction work.,9300.0,E Brainerd Rd,R,Chattanooga,Hamilton,TN,37421-3402,US,US/Eastern,KCHA,2017-07-06 08:53:00,73.0,,90.0,30.14,6.0,SSE,3.5,0.0,Light Rain,False,False,False,False,False,False,False,False,False,False,False,False,False,Day,Day,Day,Day
C-1077536,2,2020-10-24 14:18:30,2020-10-24 19:58:16,40.760918,-73.967052,40.759968,-73.964792,0.135268875164,Queuing traffic from 3rd Ave to 2nd Ave due to roadwork.,198.0,E 58th St,R,New York,New York,NY,10022,US,US/Eastern,KNYC,2020-10-24 13:51:00,67.0,67.0,81.0,29.78,10.0,CALM,0.0,0.0,Cloudy,True,False,True,False,False,False,False,False,False,False,False,True,False,Day,Day,Day,Day
C-1077537,2,2021-09-24 15:34:30,2021-09-24 17:04:24,42.50211,-83.235401,42.501942,-83.241839,0.328152973501,Stationary traffic from Southfield Rd (W 12 Mile Rd) to Evergreen Rd (W 12 Mile Rd) due to roadwork.,19098.0,W 12 Mile Rd,R,Southfield,Oakland,MI,48076-2542,US,US/Eastern,KVLL,2021-09-24 15:35:00,73.0,73.0,35.0,29.19,10.0,WSW,7.0,0.0,Fair,False,False,True,False,False,False,False,False,True,False,False,True,False,Day,Day,Day,Day
C-1077538,2,2021-12-19 13:26:00,2021-12-19 13:40:00,42.64526,-123.38559,42.660025,-123.377157,1.10651606446,Slow traffic on Pacific Highway 1 N - I-5 N - OR-99 N from Lariat Dr/Exit 71 (I-5) to Coyote Creek Rd/Exit 76 (I-5) due to roadwork.,,I-5 N,R,Wolf Creek,Josephine,OR,97497,US,US/Pacific,KSXT,2021-12-19 12:56:00,38.0,31.0,97.0,25.92,0.25,S,9.0,0.06,Light Rain,False,False,False,False,False,False,False,False,False,False,False,False,False,Day,Day,Day,Day
C-1077539,2,2021-09-30 12:19:30,2021-12-07 10:33:55,33.58097,-84.379166,33.582656,-84.37763100000002,0.146209493366,Slow traffic from Arrowhead Blvd to Tara Blvd due to roadwork.,321.0,Upper Riverdale Rd SW,L,Jonesboro,Clayton,GA,30236,US,US/Eastern,KATL,2021-12-07 08:52:00,39.0,33.0,70.0,29.06,10.0,NW,8.0,0.0,Mostly Cloudy,False,False,False,False,False,False,False,False,False,False,False,False,False,Day,Day,Day,Day
C-1077540,2,2021-08-19 17:04:36,2021-08-19 17:30:04,42.480298,-83.084676,42.476343,-83.083897,0.27613277463,Stationary traffic from I-696 E to Wick Ave due to roadwork.,25448.0,Dequindre Rd,R,Warren,Macomb,MI,48091-1349,US,US/Eastern,KDET,2021-08-19 16:53:00,85.0,85.0,55.0,29.37,10.0,ESE,6.0,0.0,Fair,False,False,False,False,False,False,False,False,True,False,False,False,False,Day,Day,Day,Day
C-1077541,2,2021-09-11 22:08:30,2021-09-11 22:28:30,40.750232,-74.002348,40.751403,-74.00518199999998,0.1689680308839999,Stationary traffic from 10th Ave to 12th Ave due to roadwork.,294.0,10th Ave,R,New York,New York,NY,10001-7010,US,US/Eastern,KNYC,2021-09-11 21:51:00,71.0,71.0,51.0,30.05,10.0,VAR,3.0,0.0,Fair,True,False,True,False,False,False,False,False,False,False,False,True,False,Night,Night,Night,Night
C-1077542,2,2021-08-29 22:01:00,2021-08-30 04:46:00,33.686976,-117.988656,33.700698,-117.98902,0.948330790447,Construction on CA-39 NB near GARFIELD AVE Expect delays.,18996.0,Beach Blvd,L,Huntington Beach,Orange,CA,92648-2010,US,US/Pacific,KSNA,2021-08-29 21:53:00,72.0,72.0,68.0,29.7,7.0,SSW,9.0,0.0,Fair,False,False,False,False,False,False,False,False,False,False,False,False,False,Night,Night,Night,Night
C-1077543,2,2020-10-29 13:01:00,2020-10-30 01:46:00,35.426219,-118.818479,35.475649,-118.724329,6.304396636950001,One-Way Traffic closure due to Guardrail Work between Cottonwood Crossing and Democrat Road Dirt,18529.0,Highway 178,R,Bakersfield,Kern,CA,93306-9510,US,US/Pacific,KBFL,2020-10-29 13:54:00,77.0,77.0,20.0,29.48,7.0,WNW,6.0,0.0,Fair,False,False,False,False,False,False,False,False,False,False,False,False,False,Day,Day,Day,Day
C-1077544,2,2020-07-24 07:00:00,2020-07-26 23:36:07,42.69254,-83.246776,42.692787,-83.244603,0.1116649486859999,Construction on MI-24 EB near I-75 BUS Expect delays.,3299.0,Lapeer West Rd,R,Auburn Hills,Oakland,MI,48326-1723,US,US/Eastern,KPTK,2020-07-24 06:53:00,61.0,61.0,90.0,29.11,10.0,N,5.0,0.0,Mostly Cloudy,False,False,False,False,False,False,False,False,False,False,False,False,False,Day,Day,Day,Day
C-1077545,4,2019-05-20 08:57:04,2019-05-20 13:50:55,40.94323,-78.97235,40.91827,-78.98658,1.8777414586400003,At PA-436/S Main St - Roadwork.,1.0,S Gilpin St,L,Punxsutawney,Jefferson,PA,15767-2027,US,US/Eastern,KDUJ,2019-05-20 08:53:00,63.0,63.0,90.0,27.96,10.0,SW,9.0,0.01,Cloudy,False,False,False,False,False,False,False,False,False,False,False,True,False,Day,Day,Day,Day
C-1077546,2,2020-09-01 14:30:00,2020-09-01 23:15:00,38.425931,-81.812395,38.405357,-81.79073299999997,1.84281590216,Construction on I-64 EB near MM 46 Allow extra time.,,I-64 E,R,Charleston,Kanawha,WV,25313,US,US/Eastern,KCRW,2020-09-01 14:54:00,86.0,86.0,61.0,28.9,10.0,SSW,3.0,0.0,Mostly Cloudy,False,False,False,False,False,False,False,False,False,False,False,False,False,Day,Day,Day,Day
C-1077547,2,2021-05-24 10:55:00,2021-05-24 15:11:40,40.66500300000001,-79.703811,40.667215,-79.730303,1.39679880683,Roadwork on MILLERSTOWN RD / BAKERSTOWN RD (ROUTE 908 both directions between EKASTOWN RD SAXONBURG BL and FREEPORT RD. There is a lane restriction.,6098.0,Freeport Rd,R,Natrona Heights,Allegheny,PA,15065-2813,US,US/Eastern,KBTP,2021-05-24 10:56:00,66.0,66.0,96.0,28.82,6.0,ENE,7.0,0.06,Cloudy,False,False,False,False,False,False,False,False,False,False,False,True,False,Day,Day,Day,Day
C-1077548,2,2018-08-22 09:00:00,2018-08-25 15:30:00,37.625877,-122.487854,,,0.0,Intermittent lane closures due to construction work on CA-1 both ways at Exits 505 505A 505B Francisco Blvd.,,Sharp Park Rd,R,Pacifica,San Mateo,CA,94044,US,US/Pacific,KSFO,2018-08-22 08:56:00,61.0,,75.0,30.05,8.0,SW,6.9,,Overcast,False,False,False,False,False,False,False,False,False,False,False,False,False,Day,Day,Day,Day
C-1077549,2,2021-04-08 05:27:30,2021-04-08 14:24:26,25.794302,-80.239026,25.793727,-80.239823,0.0635344267029,Slow traffic on FL-9 from NW 26th Ave to NW South River Dr due to roadwork.,2096.0,NW 26th Ave,L,Miami,Miami-Dade,FL,33125,US,US/Eastern,KMIA,2021-04-08 05:53:00,64.0,64.0,80.0,29.99,10.0,CALM,0.0,0.0,Fair,False,False,False,False,False,False,False,False,True,False,False,False,False,Night,Night,Night,Night
C-1077550,2,2021-10-24 11:48:30,2021-10-24 12:10:00,28.811355,-81.356465,28.811949,-81.363039,0.400102167633,Slow traffic on FL-46 from I-4 (FL-46) to Orange Blvd (FL-46) due to roadwork.,100.0,Integra Village Trl,L,Sanford,Seminole,FL,32771-9264,US,US/Eastern,KSFB,2021-10-24 11:53:00,85.0,85.0,61.0,30.01,10.0,ENE,10.0,0.0,Mostly Cloudy,False,False,False,False,False,False,False,False,False,False,False,True,False,Day,Day,Day,Day
C-1077551,2,2021-10-09 08:47:00,2021-10-09 11:22:59,27.830345,-82.67976800000002,27.828377000000003,-82.68034300000002,0.140441494109,Slow traffic on US-19 S from 66th Ave to 35th St due to roadwork.,,US Highway 19 N,R,Pinellas Park,Pinellas,FL,33781,US,US/Eastern,KPIE,2021-10-09 08:53:00,81.0,81.0,82.0,29.94,10.0,N,5.0,0.0,Fair,False,False,True,False,False,False,False,False,True,False,False,False,False,Day,Day,Day,Day
C-1077552,2,2019-03-28 00:01:00,2019-04-03 23:59:00,35.420769,-97.521347,,,0.129999995232,Lane closed due to utility work on 44th St Westbound between Hudson Ave and Walker Ave.,4442.0,S Walker Ave,L,Oklahoma City,Oklahoma,OK,73109-6941,US,US/Central,KOKC,2019-03-28 00:52:00,59.0,,64.0,30.05,10.0,SSE,13.8,,Mostly Cloudy,False,False,True,False,False,False,False,False,False,False,False,True,False,Night,Night,Night,Night
C-1077553,2,2021-05-22 04:45:30,2021-05-22 21:35:00,39.822788,-104.963262,39.81665,-104.955078,0.6070268448899999,Slow traffic on US-36 E - I-270 E from I-76/Exit 1 (I-270) to York St/Exit 1 (I-270) due to roadwork.,,I-270 E,R,Denver,Adams,CO,80229,US,US/Mountain,KBJC,2021-05-22 04:35:00,50.0,50.0,82.0,24.44,10.0,NNW,13.0,0.0,Fair,False,False,False,False,False,False,False,False,False,False,False,False,False,Night,Night,Day,Day
C-1077554,4,2019-03-16 05:16:01,2019-03-16 10:15:48,33.53009,-86.80253,33.52155,-86.823074,1.32226763537,Closed between 31st St/Exit 126B and I-65/Exit 124A - Closed due to roadwork.,,I-20 W,R,Birmingham,Jefferson,AL,35203,US,US/Central,KBHM,2019-03-16 04:53:00,43.0,41.3,65.0,30.29,10.0,North,3.5,,Mostly Cloudy,False,False,False,False,True,False,False,False,False,False,False,False,False,Night,Night,Night,Night
C-1077555,4,2018-12-11 04:01:05,2018-12-11 09:01:00,41.75013,-71.44126,41.752,-71.43944,0.159671977347,Ramp closed to RI-37/Exit 14 - Closed due to roadwork.,,I-95 N,R,Warwick,Kent,RI,02888,US,US/Eastern,KPVD,2018-12-11 03:51:00,18.0,12.7,84.0,30.19,10.0,WNW,3.5,,Clear,False,False,False,False,False,False,False,False,False,False,False,False,False,Night,Night,Night,Night
C-1077556,4,2021-01-20 09:39:22,2021-01-28 07:59:00,30.077317,-95.51763,30.077479,-95.516925,0.0436127188748,Closed road from Northwest Harris to Kuykendahl Rd due to roadwork.,21323.0,Kuykendahl Rd,L,Spring,Harris,TX,77379-2610,US,US/Central,KDWH,2021-01-20 08:53:00,57.0,57.0,89.0,30.16,7.0,NE,6.0,0.0,Cloudy,False,False,False,False,False,False,False,False,False,False,False,False,False,Day,Day,Day,Day
C-1077557,2,2021-09-15 15:21:30,2021-09-15 15:58:30,33.469428,-112.012919,33.465891,-112.012918,0.244383431743,Stationary traffic from E Thomas Rd (N 32nd St) to E McDowell Rd (N 32nd St) due to roadwork.,1998.0,N 32nd St,L,Phoenix,Maricopa,AZ,85008-2902,US,US/Mountain,KPHX,2021-09-15 15:51:00,105.0,105.0,10.0,28.56,10.0,W,14.0,0.0,Fair,False,False,True,False,False,False,False,False,False,True,False,True,False,Day,Day,Day,Day
C-1077558,2,2019-01-25 08:00:00,2019-08-20 03:34:28,35.523887,-80.478498,35.520175,-80.421634,3.2079927053400006,Between Old Concord Rd and US-52 - Resurfacing work. Lane blocked. One lane closed.,1543.0,Shuping Mill Rd,R,Rockwell,Rowan,NC,28138-6670,US,US/Eastern,KRUQ,2019-01-25 08:20:00,29.8,26.3,73.0,30.14,10.0,West,3.5,,Clear,False,False,False,False,False,False,False,False,False,False,False,False,False,Day,Day,Day,Day
C-1077559,2,2018-07-20 06:32:53,2018-07-24 06:33:40,41.890287,-79.14623,41.87545,-79.15198000000002,1.06695769139,At PA-69/Jackson St/Jackson Run Rd - Roadwork. Lane blocked.,3534.0,Market St,R,Warren,Warren,PA,16365,US,US/Eastern,KJHW,2018-07-20 06:56:00,62.1,,80.0,30.07,10.0,South,5.8,,Clear,False,False,False,False,False,False,False,False,False,False,False,False,False,Day,Day,Day,Day
C-1077560,4,2019-08-07 19:12:42,2019-08-07 21:12:18,35.666382,-79.834519,35.647608,-79.83253,1.30195704528,At US-220-BR/NC-134/Exit 51 - Roadwork.,,I-73 S,R,Asheboro,Randolph,NC,27205,US,US/Eastern,KHBI,2019-08-07 19:05:00,87.0,87.0,50.0,29.13,10.0,CALM,0.0,0.0,Mostly Cloudy,False,False,False,False,False,False,False,False,False,False,False,False,False,Day,Day,Day,Day
C-1077561,2,2021-08-11 09:46:29,2021-08-14 02:04:16,35.158970000000004,-99.360314,35.090982000000004,-99.3599,4.69758166847,Roadwork on OK-55 (South) (N Main St/OK-6) from OK-9/E 1st St (N Main St/OK-6) to OK-6.,,N2030 Rd,R,Sentinel,Washita,OK,73664,US,US/Central,KCSM,2021-08-11 09:53:00,85.0,85.0,48.0,27.97,10.0,SSW,23.0,0.0,Fair / Windy,False,False,False,False,False,False,False,False,False,False,False,False,False,Day,Day,Day,Day
C-1077562,2,2019-09-17 08:04:26,2019-09-22 08:02:07,26.15949,-80.13198,26.15124,-80.14085,0.7921723904979999,At NE 4th Ave - Construction work.,,NE 26th St,R,Fort Lauderdale,Broward,FL,33305,US,US/Eastern,KFXE,2019-09-18 07:53:00,78.0,78.0,93.0,29.92,10.0,NNW,3.0,0.0,Fair,False,False,True,False,False,False,False,False,False,False,False,True,False,Day,Day,Day,Day
C-1077563,4,2020-06-02 19:36:28,2020-06-03 00:33:55,41.50911,-90.67068,41.50105,-90.62381,2.48835112254,Closed between I-280 and Concord St - Closed due to roadwork. Lane closed.,11902.0,140th St,R,Davenport,Scott,IA,52804,US,US/Central,KDVN,2020-06-02 19:52:00,86.0,86.0,46.0,29.03,10.0,SW,14.0,0.0,Fair,False,False,False,False,False,False,False,False,False,False,False,True,False,Day,Day,Day,Day
C-1077564,2,2021-07-06 09:34:54,2021-07-07 10:22:38,39.096761,-76.849817,39.097784,-76.848608,0.0959103177358,Construction on US-1 NB near BOWIE RD Expect long delays.,,Bowie Rd,R,Laurel,Prince George's,MD,20707,US,US/Eastern,KFME,2021-07-06 09:35:00,,,,29.93,10.0,CALM,0.0,,Fair,False,False,False,False,False,False,False,False,False,False,False,True,False,Day,Day,Day,Day
C-1077565,2,2020-11-21 13:29:30,2020-11-21 19:14:30,43.604133,-116.354716,43.606971,-116.354665,0.196103725113,Stationary traffic on ID-55 from I-84/US-30 (ID-55) to E Fairview Ave (ID-55) due to roadwork.,86.0,S Eagle Rd,L,Meridian,Ada,ID,83642,US,US/Mountain,KMAN,2020-11-21 13:35:00,39.0,36.0,81.0,27.83,10.0,NW,5.0,0.0,Fair,False,False,True,False,False,True,False,False,False,False,False,False,False,Day,Day,Day,Day
C-1077566,2,2020-02-28 21:00:00,2020-02-29 07:00:00,37.833035,-122.481491,,,3.04999995232,One lane closed due to construction on US-101 Northbound between Exit 439 Merchant Rd and Golden Gate Vista Pt.,,Golden Gate Brg N,R,Sausalito,Marin,CA,94965,US,US/Pacific,KSFO,2020-02-28 20:56:00,51.0,51.0,83.0,30.1,10.0,W,14.0,0.0,Mostly Cloudy,False,False,False,False,False,False,False,False,False,False,False,False,False,Night,Night,Night,Night
C-1077567,2,2020-06-05 09:53:52,2020-06-05 15:30:00,39.85621,-75.02792,39.86142,-75.0335,0.4660156018649999,At CR-669/N Warwick Rd - Roadwork. Right lane closed.,105.0,N White Horse Pike,R,Magnolia,Camden,NJ,08049-1451,US,US/Eastern,KPHL,2020-06-05 09:54:00,75.0,75.0,79.0,29.92,10.0,WSW,10.0,0.0,Mostly Cloudy,False,False,False,False,False,False,False,False,False,False,False,True,False,Day,Day,Day,Day
C-1077568,2,2020-09-21 13:48:00,2020-09-21 20:04:00,41.842239,-74.63148699999998,41.824488,-74.638302,1.2756707012700002,Stationary traffic on NY-55 from Benton Hollow Rd (CR-17/Neversink Rd/NY-55) to CR-105/Divine Corners Rd (Neversink Rd/NY-55) due to roadwork.,7403.0,State Route 55,R,Neversink,Sullivan,NY,12765-5505,US,US/Eastern,KMSV,2020-09-21 13:56:00,58.0,58.0,39.0,29.02,10.0,VAR,5.0,0.0,Fair,False,False,False,False,False,False,False,False,False,False,False,False,False,Day,Day,Day,Day
C-1077569,2,2021-12-22 17:12:00,2021-12-22 19:14:35,33.015736,-117.258361,33.010754,-117.264069,0.477345387206,Slow traffic from El Camino Real (Manchester Ave) to I-5 (Manchester Ave) due to roadwork.,3279.0,Manchester Ave,R,Cardiff By The Sea,San Diego,CA,92007,US,US/Pacific,KCRQ,2021-12-22 16:53:00,57.0,57.0,81.0,29.64,6.0,W,5.0,0.0,Haze,False,False,False,False,False,False,False,False,False,False,False,False,False,Night,Day,Day,Day
C-1077570,2,2021-10-30 15:16:30,2021-10-30 17:52:34,28.811351,-81.35490899999998,28.81266,-81.36304100000002,0.5005504749849999,Slow traffic on FL-46 from Lake Forest Blvd to Westlake Ln due to roadwork.,5390.0,W State Road 46,L,Sanford,Seminole,FL,32771-9233,US,US/Eastern,KSFB,2021-10-30 14:53:00,71.0,71.0,51.0,29.7,10.0,WNW,14.0,0.0,Mostly Cloudy,False,False,False,False,False,False,False,False,False,False,False,False,False,Day,Day,Day,Day
C-1077571,2,2020-11-11 12:44:00,2020-11-12 01:31:53,28.267122,-81.485885,28.255342,-81.484276,0.819789468376,Slow traffic on US-92 E - US-17 N from Kissimmee to Business Center Ln due to roadwork.,1482.0,S Poinciana Blvd,R,Kissimmee,Osceola,FL,34746,US,US/Eastern,KISM,2020-11-11 12:56:00,83.0,83.0,79.0,29.74,10.0,ESE,17.0,0.0,Mostly Cloudy,False,False,False,False,False,False,False,False,False,False,False,False,False,Day,Day,Day,Day
C-1077572,2,2021-04-21 08:03:50,2021-04-21 23:59:00,39.754661,-75.13377,39.721751,-75.15364,2.50698812257,Guard rail repairs on NJ 55 southbound North of Exit 50 - US 322 (Harrison Twp) Not currently Scheduled,,NJ-55 S,R,Sewell,Gloucester,NJ,08080,US,US/Eastern,KPHL,2021-04-21 07:54:00,60.0,60.0,57.0,29.7,10.0,SSW,10.0,0.0,Mostly Cloudy,False,False,False,False,False,False,False,False,False,False,False,False,False,Day,Day,Day,Day
C-1077573,2,2019-03-27 07:03:56,2019-04-02 07:01:03,42.039605,-76.528785,42.019072,-76.52389000000002,1.44076712917,At Norris Rd - Bridge maintenance work.,352.0,State Route 34,R,Waverly,Tioga,NY,14892-9631,US,US/Eastern,KELM,2019-03-28 06:53:00,25.0,,75.0,30.31,10.0,Calm,,,Clear,False,False,False,False,False,False,False,False,False,False,False,False,False,Day,Day,Day,Day
C-1077574,2,2021-11-21 20:41:30,2021-11-21 22:51:45,26.275259,-80.11294000000002,26.274488,-80.11394200000002,0.0818019560875,Stationary traffic on FL-834 - FL-811 from Mobile Home Park to NE 35th St due to roadwork.,799.0,E Sample Rd,L,Pompano Beach,Broward,FL,33064,US,US/Eastern,KPMP,2021-11-21 20:53:00,77.0,77.0,82.0,29.97,10.0,ENE,5.0,0.0,Partly Cloudy,False,False,False,False,False,False,False,False,False,False,False,False,False,Night,Night,Night,Night
C-1077575,2,2019-10-02 07:02:37,2019-10-06 07:02:17,38.89407,-77.00061,38.8931,-77.0006,0.0670227743943999,Between H St NE and C St NE/Maryland Ave NE - Construction work.,395.0,Massachusetts Ave NE,R,Washington,District Of Columbia,DC,20002-5701,US,US/Eastern,KDCA,2019-10-02 06:52:00,73.0,73.0,87.0,29.92,10.0,S,6.0,0.0,Mostly Cloudy,False,False,True,False,False,False,False,False,False,False,False,True,False,Night,Day,Day,Day
C-1077576,2,2021-03-31 09:00:00,2021-04-01 09:45:00,40.819181,-96.78753,40.820767,-96.787513,0.109585768518,Construction on I-80 WB near NE-103 Drive with caution.,,NW 48th St,R,Lincoln,Lancaster,NE,68528,US,US/Central,KLNK,2021-03-31 08:54:00,35.0,28.0,33.0,29.16,10.0,NW,9.0,0.0,Fair,False,False,False,False,False,False,False,False,False,False,False,False,False,Day,Day,Day,Day
C-1077577,2,2020-10-01 13:13:00,2020-10-01 13:26:30,39.953825,-82.99199499999997,39.955199,-82.98436099999998,0.415321819986,Queuing traffic on I-70/I-71 from US-23/4th St/Exit 100 (I-70/I-71) to I-70/I-71 (Columbus) (East) (I-70/I-71) due to roadwork.,,I-70 W,R,Columbus,Franklin,OH,43215,US,US/Eastern,KCMH,2020-10-01 12:51:00,62.0,62.0,44.0,29.1,10.0,SW,10.0,0.0,Mostly Cloudy,False,False,False,False,False,False,False,False,False,False,False,False,False,Day,Day,Day,Day
C-1077578,2,2021-03-03 04:30:00,2021-03-03 21:32:30,25.845827,-80.120227,25.850593,-80.120335,0.329367706565,Stationary traffic on FL-A1A from FL-907/63rd St (FL-A1A) to FL-934/71st St (FL-A1A) due to roadwork.,6368.0,Collins Ave,L,Miami Beach,Miami-Dade,FL,33141-4622,US,US/Eastern,KOPF,2021-03-03 04:53:00,70.0,70.0,87.0,29.93,10.0,SSW,5.0,0.0,Partly Cloudy,True,False,False,False,False,False,False,False,True,False,False,True,False,Night,Night,Night,Night
C-1077579,2,2021-07-07 10:03:30,2021-07-07 12:05:16,33.512228,-112.013026,33.509414,-112.013005,0.194432646369,Slow traffic from E Lincoln Dr (32nd St) to E Camelback Rd (N 32nd St) due to roadwork.,3200.0,E Medlock Dr,L,Phoenix,Maricopa,AZ,85018-1427,US,US/Mountain,KPHX,2021-07-07 09:51:00,95.0,95.0,28.0,28.64,10.0,VAR,5.0,0.0,Mostly Cloudy,False,False,False,False,False,False,False,False,False,True,False,False,False,Day,Day,Day,Day
C-1077580,4,2020-06-21 00:10:58,2020-06-21 05:10:50,43.19373,-77.80022,43.19268,-77.80060999999998,0.0751609136798,Closed at RT-531/Spencerport Expy - Closed due to roadwork.,77.0,N Union St,R,Spencerport,Monroe,NY,14559-1253,US,US/Eastern,KROC,2020-06-21 00:54:00,69.0,69.0,84.0,29.37,10.0,SW,5.0,0.0,Fair,True,False,False,False,False,False,False,False,False,False,False,False,False,Night,Night,Night,Night
C-1077581,3,2017-06-08 03:21:23,2017-06-08 06:00:00,41.166878,-73.217087,,,2.23000001907,2 right lane closed due to construction on I-95 Southbound from Exits 27 27A 27B-C CT-8 CT-25 to Exit 25 CT-130 Fairfield Ave.,1957.0,Fairfield Ave,R,Bridgeport,Fairfield,CT,06605-2239,US,US/Eastern,KBDR,2017-06-08 02:52:00,55.0,,83.0,30.01,10.0,NE,4.6,,Clear,False,False,False,False,False,False,False,False,False,False,False,False,False,Night,Night,Night,Day
C-1077582,2,2021-11-29 20:01:00,2021-11-29 22:06:56,42.163409,-83.40285,42.163702,-83.402862,0.0202536982305,Roadwork from Willow Rd (Huron River Dr) to Sibley Rd (Huron River Dr).,19198.0,S Huron River Dr,R,New Boston,Wayne,MI,48164,US,US/Eastern,KDTW,2021-11-29 19:53:00,35.0,26.0,61.0,29.3,9.0,SSW,14.0,0.0,Light Snow,False,False,False,False,False,False,False,False,False,False,False,False,False,Night,Night,Night,Night
C-1077583,2,2018-11-13 09:03:26,2018-11-17 09:03:15,33.75237,-84.39565999999998,33.75349,-84.39479,0.092121009819,At Martin Luther King Jr Dr SW - Construction work.,248.0,Mitchell St SW,L,Atlanta,Fulton,GA,30303-3305,US,US/Eastern,KFTY,2018-11-13 08:53:00,48.9,,100.0,30.08,10.0,WNW,3.5,,Overcast,False,False,True,False,False,False,False,False,False,False,False,True,False,Day,Day,Day,Day
C-1077584,4,2021-09-07 10:11:39,2021-09-07 14:45:00,37.077687,-97.024694,37.074107,-97.024514,0.247553382428,Construction on US-77 SB near US-166 Expect delays.,,E Kansas Ave,R,Arkansas City,Cowley,KS,67005,US,US/Central,KWLD,2021-09-07 09:54:00,82.0,82.0,54.0,28.7,10.0,SSW,12.0,0.0,Fair,False,False,False,False,False,False,False,False,False,False,False,False,False,Day,Day,Day,Day
C-1077585,2,2021-06-26 15:00:41,2021-06-26 15:39:01,43.575897,-100.749996,43.586849,-100.750288,0.7568522515549999,Slow traffic on US-83 N - US-83 S from SD-44 (White River) (North) (US-83) to I-90 Bus (US-83) due to roadwork.,,US Highway 83,R,White River,Mellette,SD,57579,US,US/Central,KICR,2021-06-26 14:53:00,74.0,74.0,57.0,27.77,10.0,ENE,5.0,0.0,Cloudy,False,False,False,False,False,False,False,False,False,False,False,False,False,Day,Day,Day,Day
C-1077586,4,2019-05-26 09:14:12,2019-05-26 14:13:46,39.64589,-105.12861,39.637439,-105.165324,2.03878587578,Closed between CO-391/Kipling St and CO-470 - Closed due to roadwork.,,US-285 S,R,Denver,Jefferson,CO,80227,US,US/Mountain,KAPA,2019-05-26 09:23:00,58.0,58.0,72.0,24.19,8.0,VAR,3.0,0.0,Mostly Cloudy,False,False,False,False,True,False,False,False,False,False,False,False,False,Day,Day,Day,Day
C-1077587,2,2020-07-13 10:02:17,2020-07-13 16:10:26,41.512837,-74.073656,41.51468300000001,-74.07350100000002,0.127798299918,Road maintenance operations right lane closed on I-87 - NYS Thruway southbound from after Exit 18 (I-87) - New Paltz (Rte 299) to before Exit 16 (I-87) - Harriman (Rte 17N - US6) until 10:30 AM 07/13/2020. [CARS CAD-201950021],,I-87 N,R,Newburgh,Orange,NY,12550,US,US/Eastern,KSWF,2020-07-13 09:45:00,73.0,73.0,83.0,29.27,10.0,WNW,6.0,0.0,Partly Cloudy,False,False,False,False,True,False,False,False,False,False,False,False,False,Day,Day,Day,Day
C-1077589,2,2020-05-28 19:34:13,2020-06-01 19:33:55,37.24478,-93.34831,37.29826,-93.41891,5.35930339021,Between MO-E/W Division St and MO-AB/Farmer Rd - Construction work.,,N West Byp,R,Springfield,Greene,MO,65803,US,US/Central,KSGF,2020-05-28 19:52:00,63.0,63.0,90.0,28.61,10.0,WNW,6.0,0.0,Partly Cloudy,False,False,False,False,False,False,False,False,False,False,False,True,False,Day,Day,Day,Day
C-1077590,2,2021-11-09 16:33:00,2021-11-09 18:40:05,33.406705,-112.068913,33.406702,-112.074024,0.294792552171,Slow traffic from S 7th St (E Broadway Rd) to S 7th Ave (W Broadway Rd) due to roadwork.,316.0,E Broadway Rd,L,Phoenix,Maricopa,AZ,85040-2113,US,US/Mountain,KPHX,2021-11-09 16:51:00,79.0,79.0,23.0,28.8,10.0,WSW,5.0,0.0,Mostly Cloudy,True,False,False,False,False,False,False,False,False,True,False,False,False,Day,Day,Day,Day
C-1077591,2,2021-05-17 05:34:30,2021-05-17 08:14:52,34.236146999999995,-84.441182,34.238381,-84.461907,1.1938439761,Stationary traffic on GA-20 from Union Hill Rd (GA-20) to I-575 (Canton) (East) (GA-20) due to roadwork.,2944.0,Cumming Hwy,R,Canton,Cherokee,GA,30115-2142,US,US/Eastern,KCNI,2021-05-17 05:35:00,54.0,54.0,100.0,28.89,10.0,NE,3.0,0.0,Fair,False,False,False,False,False,False,False,False,False,False,False,True,False,Night,Night,Day,Day
C-1077592,2,2021-05-12 08:51:39,2021-05-12 12:29:25,44.019145,-70.977592,44.015581,-70.98208699999998,0.332446790255,Slow traffic on US-302 E - ME-5 - US-302 W - ME-113 from ME-5/Main St (US-302) to Mill St (NH-113/E Main St/US-302) due to roadwork.,731.0,Main St,R,Fryeburg,Oxford,ME,04037-1322,US,US/Eastern,KIZG,2021-05-12 08:54:00,54.0,54.0,47.0,29.5,10.0,VAR,3.0,0.0,Fair,False,False,False,False,False,False,False,False,False,False,False,False,False,Day,Day,Day,Day
C-1077593,2,2021-07-29 12:09:10,2021-07-29 15:01:00,37.541672,-122.302803,,,0.3700000047680001,One lane closed due to paving repairs on CA-82 El Camino Real Northbound from 31st Ave to 28th Ave.,2802.0,S El Camino Real,L,San Mateo,San Mateo,CA,94403-2729,US,US/Pacific,KSQL,2021-07-29 11:55:00,72.0,72.0,69.0,29.95,10.0,N,7.0,0.0,Partly Cloudy,False,False,True,False,False,False,False,False,True,False,False,True,False,Day,Day,Day,Day
C-1077594,2,2021-03-02 06:53:30,2021-03-02 17:18:22,42.15397700000001,-87.96250699999999,42.152788,-87.963431,0.0948106049766,Slow traffic from Church Rd to Raupp Blvd due to roadwork.,38.0,N Buffalo Grove Rd,L,Buffalo Grove,Lake,IL,60089-1702,US,US/Central,KPWK,2021-03-02 06:52:00,20.0,20.0,81.0,29.6,10.0,S,3.0,0.0,Fair,False,False,True,False,False,False,False,False,False,False,False,False,False,Day,Day,Day,Day
C-1077595,2,2019-09-09 09:01:56,2019-09-13 09:01:19,32.936362,-96.68282,32.932787,-96.68282,0.2470089748889999,At Jupiter Rd - Construction work. Right lane closed.,900.0,S Jupiter Rd,L,Richardson,Dallas,TX,75081,US,US/Central,KADS,2019-09-09 08:47:00,79.0,79.0,74.0,29.33,10.0,SSE,9.0,0.0,Fair,False,False,False,False,False,False,False,False,False,False,False,False,False,Day,Day,Day,Day
C-1077596,2,2021-04-30 05:27:30,2021-06-13 16:41:00,41.956723,-87.736566,41.856316,-87.644735,8.39206326912,Stationary traffic on I-94 E - Dan Ryan Expy S - I-90 E - Kennedy Expy E from exit [44A] to Stevenson Expy (I-55) exit [53] due to roadwork.,,I-90 E,R,Chicago,Cook,IL,60641,US,US/Central,KORD,2021-06-13 08:51:00,76.0,76.0,64.0,29.28,10.0,N,5.0,0.0,Fair,False,False,False,False,False,False,False,False,False,False,False,False,False,Night,Day,Day,Day
C-1077597,2,2020-05-11 05:17:37,2020-05-12 05:17:37,34.14844,-85.66866999999998,34.14844,-85.66866999999998,0.0,At CR-71/Hokes Bluff Rd - Bridge maintenance work.,2.0,Piedmont Rd,L,Centre,Cherokee,AL,35960-2110,US,US/Central,K4A9,2020-05-11 05:15:00,43.0,43.0,80.0,29.26,10.0,CALM,0.0,0.0,Fair,False,False,False,False,False,False,False,False,False,False,False,False,False,Night,Day,Day,Day
C-1077598,2,2018-12-03 09:00:00,2018-12-03 15:00:00,40.54705,-74.327179,,,0.0,Right hand shoulder closed due to utility work on US-1 Southbound at Lafayette Ave.,96.0,US Highway 1,R,Fords,Middlesex,NJ,08863,US,US/Eastern,KLDJ,2018-12-03 08:55:00,52.3,,76.0,29.65,10.0,West,10.4,,Clear,False,False,False,False,False,False,False,False,False,False,False,False,False,Day,Day,Day,Day
C-1077599,2,2021-08-25 09:08:00,2021-08-25 11:22:34,33.508287,-112.27585,33.50878400000001,-112.272469,0.197784388658,Slow traffic from N 101st Ave to W Cardinals Way due to roadwork.,9920.0,W Camelback Rd,R,Glendale,Maricopa,AZ,85307,US,US/Mountain,KGEU,2021-08-25 08:58:00,90.0,90.0,32.0,28.73,10.0,ENE,7.0,0.0,Fair,False,False,False,False,False,False,False,False,False,False,False,False,False,Day,Day,Day,Day
C-1077600,2,2021-03-16 09:01:00,2021-03-16 15:01:00,37.005725,-121.668522,37.012721,-121.601525,3.72794757334,Lane closure due to Utility Work between Whitehurst Rd and Santa Teresa Blvd,5698.0,Hecker Pass Rd,L,Gilroy,Santa Clara,CA,95020,US,US/Pacific,KE16,2021-03-16 08:55:00,36.0,36.0,100.0,29.81,10.0,CALM,0.0,,Partly Cloudy,False,False,False,False,False,False,False,False,False,False,False,False,False,Day,Day,Day,Day
C-1077601,4,2020-12-26 08:17:01,2021-01-03 07:59:00,25.936692,-80.31737199999998,25.936799,-80.316753,0.039165139187,Closed road from Hialeah to NW 179th St due to roadwork.,7060.0,NW 179th St,R,Hialeah,Miami-Dade,FL,33015-5413,US,US/Eastern,KOPF,2020-12-26 07:53:00,47.0,43.0,71.0,30.19,10.0,N,9.0,0.0,Fair,False,False,False,False,False,False,False,False,False,False,False,False,False,Day,Day,Day,Day
C-1077602,2,2021-02-03 14:15:00,2021-02-03 19:03:30,39.032488,-95.589623,39.033517,-95.595636,0.330460161152,Slow traffic on I-70 W from I-470/Kansas Tpke (I-70) to I-470/KS-4/Exit 366 (I-70) due to roadwork.,,I-70 W,R,Tecumseh,Shawnee,KS,66542,US,US/Central,KTOP,2021-02-03 13:53:00,59.0,59.0,38.0,28.87,10.0,S,15.0,0.0,Fair,False,False,False,False,False,False,False,False,False,False,False,False,False,Day,Day,Day,Day
C-1077603,4,2017-09-08 13:51:03,2017-10-31 06:41:44,40.257568,-79.385621,40.249519,-79.39113,0.627433731672,Closed at PA-130 - Closed due to roadwork.,3974.0,State Route 982,R,Latrobe,Westmoreland,PA,15650-3915,US,US/Eastern,KLBE,2017-09-08 13:45:00,62.6,,63.0,30.21,10.0,West,8.1,,Mostly Cloudy,False,False,False,False,False,False,False,False,False,False,False,False,False,Day,Day,Day,Day
C-1077604,2,2021-08-10 08:49:00,2021-08-10 11:37:34,33.480397,-112.087,33.480327,-112.081833,0.297808786031,Stationary traffic from N 19th Ave (W Thomas Rd) to N Central Ave (Thomas Rd) due to roadwork.,898.0,W Thomas Rd,R,Phoenix,Maricopa,AZ,85013,US,US/Mountain,KPHX,2021-08-10 08:51:00,78.0,78.0,79.0,28.78,10.0,SE,10.0,0.0,Light Rain,False,False,True,False,False,False,False,False,False,True,False,True,False,Day,Day,Day,Day
C-1077605,2,2021-12-01 10:14:30,2021-12-01 15:05:30,28.303944,-81.454262,28.303799,-81.44507800000002,0.558779887055,Stationary traffic on US-192 E from Old Vineland Rd / N Bass Rd to McClellan St due to roadwork.,4320.0,W Vine St,L,Kissimmee,Osceola,FL,34746-6313,US,US/Eastern,KISM,2021-12-01 09:56:00,68.0,68.0,68.0,30.18,10.0,N,3.0,0.0,Fair,False,False,True,False,False,False,False,False,False,False,False,False,False,Day,Day,Day,Day
C-1077606,2,2021-10-13 07:41:27,2021-10-15 08:18:03,44.756381,-96.898846,44.748845,-96.888311,0.73370448075,Construction on I-29 SB near EXIT 164 Construction. Drive with caution.,,I-29 S,R,Clear Lake,Hamlin,SD,57226,US,US/Central,KCNB,2021-10-13 07:35:00,54.0,54.0,94.0,28.37,10.0,SE,18.0,0.07,Light Rain,False,False,False,False,False,False,False,False,False,False,False,False,False,Day,Day,Day,Day
C-1077607,2,2020-12-10 17:14:00,2020-12-10 17:42:30,40.689121,-73.951324,40.688701,-73.95497399999998,0.193415815546,Slow traffic from Nostrand Ave to Bedford Ave due to roadwork.,294.0,Nostrand Ave,R,Brooklyn,Kings,NY,11216-2288,US,US/Eastern,KJRB,2020-12-10 16:51:00,46.0,42.0,54.0,30.05,10.0,WNW,8.0,0.0,Fair,True,False,False,False,False,False,False,False,False,False,False,True,False,Night,Night,Day,Day
C-1077608,3,2020-09-03 02:03:56,2020-09-03 05:00:00,38.493961,-121.516548,,,0.6399999856949999,Entry ramp to I-5 Southbound from Florin Rd Eastbound closed due to construction.,,I-5 S,R,Sacramento,Sacramento,CA,95831,US,US/Pacific,KSAC,2020-09-03 01:53:00,61.0,61.0,81.0,29.95,10.0,S,6.0,0.0,Fair,False,False,False,False,False,False,False,False,False,False,False,False,False,Night,Night,Night,Night
C-1077609,2,2016-08-08 23:00:13,2016-08-09 07:00:00,47.441162,-122.217461,,,0.0,Intermittent lane closures due to construction work on WA-167 Northbound from 212th Way to 180th St.,,S 43rd St,R,Renton,King,WA,98055,US,US/Pacific,KRNT,2016-08-08 22:53:00,64.9,,68.0,29.99,10.0,Calm,,,Overcast,False,False,True,False,False,False,False,False,False,False,False,False,False,Night,Night,Night,Night
C-1077610,2,2021-03-15 06:28:30,2021-09-16 03:01:42,40.497204,-79.931471,40.496427,-79.915092,0.8622508336239999,Slow traffic on PA-28 N from PA-8/Exit 5B &amp; 5 (PA-28) to Highland Park Bridge/Exit 6 (PA-28) due to roadwork.,,PA-28 N,R,Pittsburgh,Allegheny,PA,15215,US,US/Eastern,KAGC,2021-08-29 16:53:00,79.0,79.0,66.0,28.74,10.0,NW,9.0,0.0,Thunder,False,False,False,False,False,False,False,False,False,False,False,False,False,Night,Night,Night,Day
C-1077611,2,2021-12-17 11:56:00,2021-12-17 12:16:00,37.561966,-118.677138,37.573936,-118.716028,2.28477523387,Slow traffic on US-395 N from Wye Rd (US-395) to South Landing Rd (US-395) due to roadwork.,,US-395 N,R,Mammoth Lakes,Mono,CA,93546,US,US/Pacific,KMMH,2021-12-17 11:37:00,10.0,10.0,62.0,23.22,10.0,CALM,0.0,0.0,Fair,False,False,False,False,False,False,False,False,False,True,False,False,False,Day,Day,Day,Day
C-1077612,2,2021-09-26 12:05:34,2021-09-26 14:16:01,41.579087,-72.650413,41.566549,-72.65007299999998,0.866471542839,Slow traffic on CT-17 - CT-9 S from CT-99/Exit 18 (CT-9) to Washington St (CT-9) due to roadwork.,,CT-9 S,R,Cromwell,Middlesex,CT,06416,US,US/Eastern,KHFD,2021-09-26 11:53:00,70.0,70.0,36.0,29.81,10.0,WNW,9.0,0.0,Fair,False,False,False,False,False,False,False,False,False,False,False,False,False,Day,Day,Day,Day
C-1077613,3,2019-06-25 06:03:35,2019-07-02 19:00:00,42.396172,-86.269211,,,1.27999997139,Road closed due to construction work on M-43 Westbound from CR-A2 Blue Star Hwy to I-196-BL La Grange St. Detour in operation - via Blue Star Highway and Business Loop I-196.,,Phillips St,R,South Haven,Van Buren,MI,49090,US,US/Eastern,KLWA,2019-06-25 05:56:00,63.0,63.0,86.0,29.09,10.0,WSW,8.0,0.0,Fair,False,False,True,False,False,False,False,False,False,False,True,False,False,Night,Day,Day,Day
C-1077614,2,2019-12-09 20:01:00,2019-12-10 03:59:00,34.03387,-117.32492,34.03387,-117.32492,0.0,At I-215/Riverside Fwy - Maintenance work. Lane closed.,,I-215 S,R,Grand Terrace,San Bernardino,CA,92313,US,US/Pacific,KSBD,2019-12-09 19:50:00,54.0,54.0,62.0,28.88,7.0,E,6.0,0.0,Fair,False,False,False,False,False,False,False,False,False,False,False,False,False,Night,Night,Night,Night
C-1077615,2,2019-08-05 09:20:29,2019-08-09 09:22:31,41.507869,-75.842523,41.506854,-75.84246999999998,0.0701834177838,At PA-2017 - Roadwork. Open.,1088.0,State Route 307,L,Factoryville,Wyoming,PA,18419-7881,US,US/Eastern,KAVP,2019-08-05 08:54:00,66.0,66.0,70.0,29.04,10.0,CALM,0.0,0.0,Fair,False,False,False,False,False,False,False,False,False,False,False,False,False,Day,Day,Day,Day
C-1077616,2,2021-10-09 16:18:00,2021-10-09 17:17:30,39.247918,-104.883106,39.267763,-104.896081,1.53685668493,Slow traffic on US-85 N - US-87 N - I-25 N from Upper Lake Gulch Rd/Exit 172 (I-25) to Tomah Road/Exit 174 (I-25) due to roadwork.,,I-25 N,R,Castle Rock,Douglas,CO,80104,US,US/Mountain,KMNH,2021-10-09 16:15:00,66.0,66.0,12.0,23.04,10.0,WSW,20.0,0.0,Fair,False,False,False,False,False,False,False,False,False,False,False,False,False,Day,Day,Day,Day
C-1077617,2,2021-10-26 10:54:30,2021-10-26 11:15:00,30.23363,-92.090137,30.233524,-92.096716,0.392803817519,Stationary traffic on US-90 E - US-90 W - US-93 E - US-93 W - LA-93 from LA-3184/Ambassador Caffery Pkwy (US-90) to LA-95/Austria Rd (US-90) due to roadwork.,5606.0,Cameron St,L,Scott,Lafayette,LA,70583-5261,US,US/Central,KLFT,2021-10-26 10:53:00,76.0,76.0,69.0,29.95,10.0,VAR,3.0,0.0,Fair,False,False,False,False,False,False,False,False,False,False,False,False,False,Day,Day,Day,Day
C-1077618,2,2020-09-09 17:18:00,2020-09-10 00:45:00,37.424143,-79.122258,37.419263,-79.124758,0.364014511021,On BUS US-29 (Lynchburg Expy) in the County of Amherst at Ramp Intersection motorists can expect potential delays in this area from 09/09/20 at 10:18 AM until 09/09/20 at 5:00 PM due to maintenance activities. The south right shoulder and exit ramp are closed.,,US-29 Bus S,R,Madison Heights,Amherst,VA,24572,US,US/Eastern,KLYH,2020-09-09 16:54:00,77.0,77.0,76.0,29.2,10.0,NNE,12.0,0.0,Mostly Cloudy,False,False,False,False,True,False,False,False,False,False,False,False,False,Day,Day,Day,Day
C-1077619,2,2020-11-19 01:37:12,2020-11-19 03:00:30,35.706502,-94.133928,35.697843,-94.14006,0.690154048573,Slow traffic on US-71 N - US-71 S from Schaberg Rd (US-71) to AR-282 (US-71) due to roadwork.,18881.0,N Highway 71,L,Mountainburg,Crawford,AR,72946,US,US/Central,KFSM,2020-11-19 01:53:00,47.0,45.0,66.0,29.73,10.0,NE,5.0,0.0,Fair,False,False,False,False,False,False,False,False,False,False,False,False,False,Night,Night,Night,Night
C-1077620,2,2020-04-07 15:15:38,2020-10-30 10:27:09,46.143772,-111.474374,46.213357,-111.457837,4.87252391404,Construction on US-287 NB near TOSTON BRG Allow extra time.,9087.0,US Highway 287 N,L,Toston,Broadwater,MT,59643,US,US/Mountain,KBZN,2020-04-07 14:56:00,64.0,64.0,22.0,25.34,10.0,W,16.0,0.0,Mostly Cloudy,False,False,False,False,False,False,False,False,False,False,False,False,False,Day,Day,Day,Day
C-1077621,2,2020-12-16 14:50:00,2020-12-20 18:57:09,41.48493300000001,-75.688624,41.487028,-75.68476700000002,0.246590473319,Roadwork on Newton Rd (I-476) from Clarks Summit Toll Plaza (I-476) to NE Extension Penn Tpke N - I-476 N.,,I-476 N,R,Clarks Summit,Lackawanna,PA,18411,US,US/Eastern,KAVP,2020-12-16 14:54:00,24.0,18.0,69.0,29.13,1.0,ENE,5.0,0.0,Light Snow,False,False,False,False,False,False,False,False,False,False,False,False,False,Day,Day,Day,Day
C-1077622,2,2020-06-01 08:17:34,2020-06-01 10:17:34,39.36777,-76.51595999999998,39.36439,-76.51978000000003,0.310122841328,At Fullerton Ave - Water main work.,,Overton Ave,R,Nottingham,Baltimore County,MD,21236,US,US/Eastern,KMTN,2020-06-01 07:55:00,59.0,59.0,55.0,30.33,10.0,WNW,9.0,0.0,Partly Cloudy,True,False,False,False,False,False,False,False,False,False,False,True,False,Day,Day,Day,Day
C-1077623,2,2021-01-26 08:07:00,2021-01-26 11:56:30,38.676351,-112.592689,38.756408,-112.564231,5.74022808419,Slow traffic on I-15 N from Exit 138 (I-15) to UT-133/Exit 146 (I-15) due to roadwork.,,I-15 N,R,Fillmore,Millard,UT,84631,US,US/Mountain,KU24,,,,,,,,,,,False,False,False,False,False,False,False,False,False,False,False,False,False,Day,Day,Day,Day
C-1077624,2,2020-11-04 03:21:00,2020-11-04 06:17:30,40.497149,-79.932695,40.496427,-79.915092,0.926233498164,Slow traffic on PA-28 from PA-8/Exit 5B &amp; 5 (PA-28) to Highland Park Bridge/Exit 6 (PA-28) due to roadwork.,,PA-28 N,R,Pittsburgh,Allegheny,PA,15215,US,US/Eastern,KAGC,2020-11-04 02:53:00,44.0,39.0,58.0,28.94,10.0,S,9.0,0.0,Fair,False,False,False,False,False,False,False,False,False,False,False,False,False,Night,Night,Night,Night
C-1077625,3,2019-01-24 21:00:00,2019-01-25 05:00:00,36.033081,-79.802818,,,20.0,Intermittent lane closures due to maintenance work on I-40 both ways from Guilford College Rd to Preddy Blvd.,,I-85 Bus S,R,Greensboro,Guilford,NC,27406,US,US/Eastern,KGSO,2019-01-24 20:54:00,36.0,27.5,64.0,29.93,10.0,NW,12.7,,Clear,False,False,False,False,False,False,False,False,False,False,False,False,False,Night,Night,Night,Night
C-1077626,2,2021-08-10 06:30:07,2021-08-10 17:45:00,42.666219,-73.731165,42.670213,-73.739301,0.496993765392,Construction on I-90 near MILLER RD Construction. Left lane closed.,,I-90 W,R,Albany,Albany,NY,12204,US,US/Eastern,KALB,2021-08-10 06:51:00,68.0,68.0,96.0,29.84,10.0,SSE,6.0,0.0,Partly Cloudy,False,False,False,False,True,False,False,False,False,False,False,False,False,Day,Day,Day,Day
C-1077627,3,2019-05-07 09:43:05,2019-05-07 17:00:00,24.554041,-81.794601,,,0.20000000298,Road closed due to construction on US-1 Truman Ave both ways from Windsor Ln to Margaret St.,901.0,Truman Ave,R,Key West,Monroe,FL,33040-6427,US,US/Eastern,KEYW,2019-05-07 09:53:00,84.0,84.0,74.0,30.03,10.0,ESE,6.0,0.0,Fair,False,False,False,False,False,False,False,False,False,False,False,False,False,Day,Day,Day,Day
C-1077628,2,2021-03-24 05:34:30,2021-12-16 14:21:38,33.567592,-112.095368,33.566705,-112.09969,0.25625943991,Slow traffic from N 17th Ave to W Alice Ave due to roadwork.,,W Dunlap Ave,R,Phoenix,Maricopa,AZ,85021,US,US/Mountain,KDVT,2021-03-24 05:53:00,49.0,49.0,61.0,28.13,10.0,CALM,0.0,0.0,Cloudy,True,False,False,False,False,False,True,False,True,True,False,False,False,Night,Night,Day,Day
C-1077629,2,2021-11-29 16:49:56,2021-11-29 19:03:51,25.7717,-80.312289,25.7702,-80.31323,0.11903533914,Slow traffic on FL-969 - FL-968 from NW 2nd St to Northwest Blvd due to roadwork.,118.0,NW 72nd Ave,R,Miami,Miami-Dade,FL,33126-4200,US,US/Eastern,KMIA,2021-11-29 16:53:00,72.0,72.0,48.0,30.0,10.0,NW,7.0,0.0,Fair,False,False,False,False,False,False,False,False,False,False,False,False,False,Day,Day,Day,Day
C-1077631,2,2021-10-12 08:08:00,2021-10-13 09:57:09,39.971372,-78.890313,39.973316,-78.904026,0.7384229910150001,Construction on I-76 WB near MP 145 Construction. Right lane closed.,,I-70 W,R,Berlin,Somerset,PA,15530,US,US/Eastern,KCBE,2021-10-12 08:15:00,62.0,62.0,94.0,29.33,10.0,CALM,0.0,0.0,Cloudy,False,False,False,False,False,False,False,False,False,False,False,False,False,Day,Day,Day,Day
C-1077632,2,2020-06-16 08:01:00,2020-06-16 18:01:00,38.84241,-120.04073,38.84513,-120.0309,0.5613837629199999,At Chiapa Dr - Lt - Construction work.,21273.0,US Highway 50,L,South Lake Tahoe,El Dorado,CA,96150,US,US/Pacific,KTVL,2020-06-16 07:53:00,55.0,55.0,38.0,23.81,10.0,S,17.0,0.0,Fair,False,False,False,False,False,False,False,False,False,False,False,False,False,Day,Day,Day,Day
C-1077633,2,2021-11-09 16:53:30,2021-11-09 17:22:00,42.15495,-87.963379,42.153611,-87.96068199999998,0.1662626757299999,Stationary traffic from Church Rd to S McHenry Rd due to roadwork.,90.0,N Buffalo Grove Rd,R,Buffalo Grove,Lake,IL,60089-1702,US,US/Central,KPWK,2021-11-09 16:52:00,52.0,52.0,71.0,29.47,10.0,N,7.0,0.0,Fair,False,False,False,False,False,False,False,False,False,False,False,False,False,Night,Day,Day,Day
C-1077634,2,2020-11-11 18:17:30,2020-11-12 01:28:38,47.743388,-116.792113,47.744457,-116.793082,0.0865005166791999,Slow traffic on US-95 N from W Aqua Ave to N Mineral Dr due to roadwork.,7862.0,N Highway 95,R,Coeur D Alene,Kootenai,ID,83815,US,US/Pacific,KCOE,2020-11-11 17:56:00,27.0,27.0,92.0,27.68,10.0,CALM,0.0,0.0,Cloudy,False,False,False,False,False,False,False,False,False,False,False,False,False,Night,Night,Night,Night
C-1077635,2,2020-04-10 19:01:00,2020-04-11 10:59:00,33.87641,-118.10263,33.86998,-118.10028,0.464274128552,At Artesia Freeway Route 91 - Construction work. Lane closed.,,Artesia Fwy W,R,Cerritos,Los Angeles,CA,90703,US,US/Pacific,KFUL,2020-04-10 18:53:00,60.0,60.0,62.0,29.83,10.0,WNW,5.0,0.01,Mostly Cloudy,False,False,False,False,False,False,False,False,False,False,False,False,False,Day,Day,Day,Day
C-1077636,2,2021-02-16 11:52:00,2021-02-16 18:25:31,30.497906,-96.473072,30.50275,-96.472499,0.33642243264,Roadwork on FM 2155 / County Road 268 from County Road 267 to FM-60.,9926.0,FM 60 E,R,Somerville,Burleson,TX,77879-4654,US,US/Central,K11R,2021-02-16 11:55:00,,,,,,,,0.0,,False,False,False,False,False,False,False,False,False,False,False,False,False,Day,Day,Day,Day
C-1077637,3,2021-07-12 22:00:00,2021-07-13 06:30:00,36.372532,-121.902779,,,1.91999995708,Road closed due to construction during the night on CA-1 both ways from Coast Rd (south) to Coast Rd (north).,39195.0,Highway 1,R,Big Sur,Monterey,CA,93920,US,US/Pacific,KMRY,2021-07-12 21:54:00,58.0,58.0,84.0,29.7,7.0,WSW,8.0,0.0,Cloudy,False,False,False,False,False,False,False,False,False,False,False,False,False,Night,Night,Night,Day
C-1077638,3,2021-07-06 07:00:00,2021-07-23 17:00:00,42.186489,-75.70339200000002,,,0.0,Right lane closed due to construction on I-88 Westbound at Exit 5 Martin Hill Rd.,,I-88 E,R,Harpursville,Broome,NY,13787,US,US/Eastern,KBGM,2021-07-06 06:53:00,71.0,71.0,87.0,28.27,8.0,SW,8.0,0.0,Fair,False,False,False,False,False,False,False,False,False,False,False,False,False,Day,Day,Day,Day
C-1077639,2,2020-06-09 04:00:54,2020-06-09 09:17:00,40.427925,-80.028931,,,1.62999999523,Restrictions due to construction work on US-19 Banksville Rd Southbound between PA-51 and I-376 Exits 69A 69B 69C.,,US-19 N,R,Pittsburgh,Allegheny,PA,15216,US,US/Eastern,KAGC,2020-06-09 03:53:00,62.0,62.0,65.0,28.63,10.0,ENE,3.0,0.0,Fair,False,False,False,False,False,False,False,False,False,False,False,False,False,Night,Night,Night,Day
C-1077640,2,2020-11-17 20:06:00,2020-11-17 20:42:30,41.39837,-75.48420300000002,41.407155,-75.505286,1.24991556177,Slow traffic on I-84 W from PA-191/Exit 17 (I-84) to PA-247/Exit 8 (I-84) due to roadwork.,,I-84 W,R,Lake Ariel,Lackawanna,PA,18436,US,US/Eastern,KAVP,2020-11-17 19:54:00,34.0,23.0,59.0,29.12,10.0,NW,18.0,0.0,Mostly Cloudy,False,False,False,False,False,False,False,False,False,False,False,False,False,Night,Night,Night,Night
C-1077641,2,2020-09-03 12:20:00,2020-09-04 02:53:56,42.010788,-87.80665400000002,42.011666,-87.80323,0.185952734067,Slow traffic on IL-43 from W Fitch Ave to N Milwaukee Ave due to resurfacing work.,7122.0,N Harlem Ave,L,Chicago,Cook,IL,60631-1018,US,US/Central,KORD,2020-09-03 11:51:00,86.0,86.0,29.0,28.99,10.0,WSW,26.0,0.0,Partly Cloudy / Windy,False,False,False,False,False,False,False,False,True,False,False,False,False,Day,Day,Day,Day
C-1077642,2,2021-09-08 14:55:30,2021-09-08 15:20:30,44.703143,-122.083745,44.698983,-122.069554,0.75387390096,Stationary traffic on OR-22 from Blowout Rd (OR-22) to Nfd-11 (OR-22) due to roadwork.,200.0,N Santiam Hwy,L,Idanha,Marion,OR,97350,US,US/Pacific,KSLE,2021-09-08 14:56:00,88.0,88.0,20.0,29.72,10.0,NNW,10.0,0.0,Fair,False,False,False,False,False,False,False,False,False,False,False,False,False,Day,Day,Day,Day
C-1077643,2,2021-12-07 14:41:30,2021-12-07 16:47:45,29.720964,-95.427712,29.725296000000004,-95.427732,0.299315099221,Slow traffic from W Holcombe Blvd (Buffalo Speedway) to Bissonnet St (Buffalo Speedway) due to roadwork.,3201.0,Robinhood St,L,Houston,Harris,TX,77005-2223,US,US/Central,KMCJ,2021-12-07 14:41:00,67.0,67.0,63.0,29.92,10.0,SSW,5.0,0.0,Cloudy,False,False,False,False,False,False,False,False,False,True,False,True,False,Day,Day,Day,Day
C-1077644,2,2016-08-06 03:01:00,2016-08-14 02:59:00,34.062798,-118.55162,,,0.0,Intermittent lane closures due to paving repairs on Charmel Ln both ways between Lachman Ln and Glynn Dr.,16838.0,Charmel Ln,L,Pacific Palisades,Los Angeles,CA,90272-2216,US,US/Pacific,KSMO,2016-08-06 03:06:00,66.0,,81.0,29.87,10.0,Calm,,,Mostly Cloudy,False,False,False,False,False,False,False,False,False,False,False,False,False,Night,Night,Night,Night
C-1077645,2,2021-11-10 16:40:00,2021-11-10 18:42:40,33.952782,-118.098181,33.949665,-118.091898,0.41959042628,Slow traffic from Passons Blvd (Telegraph Rd) to I-605/San Gabriel River Fwy (Telegraph Rd) due to roadwork.,8998.0,Klinedale Ave,L,Pico Rivera,Los Angeles,CA,90660-5536,US,US/Pacific,KEMT,2021-11-10 16:53:00,67.0,67.0,73.0,29.94,10.0,CALM,0.0,0.0,Fair,False,False,False,False,False,False,False,False,False,False,False,False,False,Day,Day,Day,Day
C-1077646,2,2021-10-16 18:08:30,2021-10-16 20:47:55,33.508268,-112.203169,33.5094,-112.203656,0.0830935484396,Slow traffic from W Highland Ave to N 68th Dr due to roadwork.,4857.0,N 67th Ave,R,Phoenix,Maricopa,AZ,85033,US,US/Mountain,KGEU,2021-10-16 17:58:00,89.0,89.0,10.0,28.76,10.0,CALM,0.0,0.0,Fair,True,False,True,False,False,False,False,False,True,False,False,True,False,Night,Day,Day,Day
C-1077647,2,2021-12-15 10:13:00,2021-12-15 12:14:20,35.163829,-101.885085,35.163814,-101.881801,0.185497903239,Slow traffic from Bell St (SW 45th Ave) to I-27/Canyon Dr (SW 45th Ave) due to roadwork.,4233.0,SW 45th Ave,L,Amarillo,Randall,TX,79109-5401,US,US/Central,KAMA,2021-12-15 09:53:00,62.0,62.0,60.0,26.06,10.0,SSW,36.0,0.0,Fair / Windy,False,False,False,False,False,False,False,False,False,False,False,False,False,Day,Day,Day,Day
C-1077648,2,2021-09-27 09:00:00,2021-09-27 14:00:00,34.267151,-118.852943,,,1.1100000143100002,Exit ramp from CA-23 Southbound at Exit 19 to Tierra Rejada Rd lane blocked due to construction work.,,CA-23 S,R,Moorpark,Ventura,CA,93021,US,US/Pacific,KCMA,2021-09-27 08:55:00,65.0,65.0,81.0,29.96,7.0,CALM,0.0,0.0,Cloudy,False,False,False,False,False,False,False,False,False,False,False,False,False,Day,Day,Day,Day
C-1077649,2,2021-05-09 21:45:00,2021-05-09 22:07:00,40.74828,-73.988188,40.74754,-73.988298,0.0514523197823,Stationary traffic from W 34th St (Broadway) to E 23rd St (Broadway) due to roadwork.,71.0,W 32nd St,R,New York,New York,NY,10001-3204,US,US/Eastern,KNYC,2021-05-09 21:35:00,49.0,47.0,93.0,29.83,3.0,VAR,6.0,0.05,Light Rain,True,False,True,False,False,False,True,False,True,False,False,True,False,Night,Night,Night,Day
C-1077650,2,2021-05-26 07:33:00,2021-05-27 08:24:51,41.060854,-78.449281,41.091544,-78.516951,4.1132996621,Construction on I-80 WB near MP 116 Allow extra time.,,I-80 W,R,Clearfield,Clearfield,PA,16830,US,US/Eastern,KFIG,2021-05-26 07:44:00,62.0,62.0,100.0,28.47,0.75,SSW,3.0,0.0,Fog,False,False,False,False,False,False,False,False,False,False,False,False,False,Day,Day,Day,Day
C-1077651,2,2021-06-15 12:44:37,2021-06-15 12:50:37,29.758541,-98.049647,29.751561,-98.054682,0.569035577481,Stationary traffic on I-35 S from Watson Ln/Exit 195 (I-35) to Conrads Ln/Kohlenberg Rd/Exit 193 (I-35) due to roadwork.,,I-35 S,R,New Braunfels,Comal,TX,78130,US,US/Central,KBAZ,2021-06-15 12:51:00,94.0,94.0,47.0,29.3,10.0,E,9.0,0.0,Partly Cloudy,False,False,False,False,False,False,False,False,False,False,False,False,False,Day,Day,Day,Day
C-1077652,2,2021-06-17 14:26:58,2021-06-17 16:29:10,27.271046,-80.292804,27.270536,-80.28814100000002,0.288532140876,Stationary traffic on FL-716 - US-1 S - FL-5 from SE Delano Rd to SE Lennard Rd due to roadwork.,2310.0,SE Delano Rd,R,Port Saint Lucie,St. Lucie,FL,34952-5558,US,US/Eastern,KSUA,2021-06-17 14:47:00,84.0,84.0,66.0,30.03,7.0,W,14.0,0.0,Showers in the Vicinity,False,False,False,False,False,False,False,False,True,False,False,False,False,Day,Day,Day,Day
C-1077653,2,2020-11-07 13:28:30,2020-11-08 04:20:00,39.032769,-95.590857,39.033472,-95.595403,0.248774154257,Slow traffic on I-70 from I-470/Kansas Tpke (I-70) to I-470/KS-4/Exit 366 (I-70) due to roadwork.,,I-70 W,R,Tecumseh,Shawnee,KS,66542,US,US/Central,KTOP,2020-11-07 13:53:00,74.0,74.0,48.0,29.02,10.0,S,18.0,0.0,Fair,False,False,False,False,False,False,False,False,False,False,False,False,False,Day,Day,Day,Day
C-1077654,4,2021-03-30 08:00:00,2021-03-30 18:45:00,40.7889,-73.95206800000003,40.788561,-73.951272,0.0477761165725999,Construction on E 99TH ST EB near MADISON AVE Road closed. Take alternate route.,56.0,E 99th St,R,New York,New York,NY,10029-6001,US,US/Eastern,KNYC,2021-03-30 07:51:00,45.0,45.0,52.0,30.31,10.0,CALM,0.0,0.0,Fair,False,False,True,False,False,False,False,False,False,True,False,False,False,Day,Day,Day,Day
C-1077655,2,2021-02-06 00:26:30,2021-02-06 01:09:30,39.182142,-104.850323,39.139435,-104.862305,3.0197875147000004,Slow traffic on US-85 S - I-25 S - US-87 S from Greenland Rd/Exit 167 (I-25) to County Line Rd/Exit 163 (I-25) due to roadwork.,,I-25 S,R,Larkspur,Douglas,CO,80118,US,US/Mountain,KMNH,2021-02-06 00:35:00,21.0,11.0,58.0,22.9,10.0,WNW,9.0,0.0,Partly Cloudy,False,False,False,False,False,False,False,False,False,False,False,False,False,Night,Night,Night,Night
C-1077656,2,2021-09-07 21:00:00,2021-09-11 03:00:00,39.778629,-74.73853000000003,39.781122,-74.738362,0.172480733944,NJ DOT - TOC South: Construction bridge work on US 206 southbound North of CR 541/Stokes Rd (Shamong Twp) All lanes of 1 lane shift Until 4:30 AM,998.0,US Highway 206,L,Shamong,Burlington,NJ,08088-9493,US,US/Eastern,KVAY,,,,,,,,,,,False,False,False,False,False,False,False,False,False,False,False,False,False,Night,Night,Night,Night
C-1077657,4,2021-12-17 02:22:00,2021-12-17 06:13:22,39.267275,-76.62515,39.267234,-76.623297,0.0991616456844,Bridge closure from Annapolis Rd to I-95 N.,,I-95 N,R,Baltimore,Baltimore City,MD,21230,US,US/Eastern,KDMH,,,,,,,,,,,False,False,False,False,False,False,False,False,False,False,False,False,False,Night,Night,Night,Night
C-1077658,2,2020-10-08 02:26:00,2020-10-08 04:31:00,41.35735,-75.71558399999998,41.338236,-75.735575,1.6790843268200002,Slow traffic on I-81 from Davis St/Exit 182 (I-81) to PA-315/Exit 178 (I-81) due to roadwork.,,I-81 S,R,Pittston,Lackawanna,PA,18641,US,US/Eastern,KAVP,2020-10-08 02:54:00,54.0,54.0,62.0,28.87,10.0,WNW,9.0,0.0,Fair,False,False,False,False,False,False,False,False,False,False,False,False,False,Night,Night,Night,Night
C-1077659,2,2021-03-15 06:27:00,2021-03-15 20:27:44,25.848081,-80.121445,25.844415,-80.121534,0.253356925992,Stationary traffic on FL-A1A from FL-A1A/Abbott Ave (FL-A1A) to FL-907/63rd St (FL-A1A) due to roadwork.,6488.0,Indian Creek Dr,L,Miami Beach,Miami-Dade,FL,33141-5803,US,US/Eastern,KOPF,2021-03-15 06:53:00,67.0,67.0,90.0,30.09,10.0,NNE,3.0,0.0,Partly Cloudy,False,False,True,False,False,False,False,False,False,False,False,True,False,Night,Night,Night,Day
C-1077660,2,2021-08-12 09:52:00,2021-08-12 10:14:30,41.690831,-87.74113,41.691956,-87.73969,0.107526349685,Slow traffic on IL-50 from S Lawler Ave to W 110th St due to roadwork.,,W 111th St,R,Oak Lawn,Cook,IL,60453,US,US/Central,KMDW,2021-08-12 09:53:00,78.0,78.0,68.0,29.27,10.0,SW,9.0,0.0,Mostly Cloudy,False,False,False,False,False,False,False,False,False,False,False,False,False,Day,Day,Day,Day
C-1077661,2,2020-10-05 07:00:00,2020-10-17 07:44:59,40.834802,-73.886099,40.834512,-73.88525200000002,0.0486005201047,Construction on E 173RD ST near LONGFELLOW AVE Allow extra time.,1598.0,Bryant Ave,R,Bronx,Bronx,NY,10460-5606,US,US/Eastern,KLGA,2020-10-05 06:51:00,56.0,56.0,72.0,30.08,10.0,N,7.0,0.0,Fair,False,False,False,False,False,False,False,False,False,True,False,True,False,Day,Day,Day,Day
C-1077662,2,2021-11-08 07:32:00,2021-11-08 09:37:48,29.344939,-81.09350500000002,29.345434,-81.093845,0.0398628615987,Roadwork from Pine Tree Dr (Riverside Dr/CR-4011) to Walter Boardman Rd (Riverside Dr/CR-4011).,2120.0,N Beach St,R,Ormond Beach,Volusia,FL,32174,US,US/Eastern,KOMN,2021-11-08 07:50:00,50.0,50.0,94.0,30.12,7.0,NW,6.0,,Fair,False,False,False,False,False,False,False,False,False,False,False,False,False,Day,Day,Day,Day
C-1077663,2,2021-03-18 07:46:30,2021-03-18 11:13:16,34.727182,-96.637066,34.696848,-96.634858,2.09962828073,Slow traffic on US-377 N - US-377 S - OK-99 from Stonecipher Blvd (OK-99/OK-3/US-377) to E1650 Rd (OK-99/US-377) due to roadwork.,,US-377 S,R,Ada,Pontotoc,OK,74820,US,US/Central,KADH,2021-03-18 07:55:00,41.0,35.0,70.0,29.0,10.0,NNW,9.0,0.0,Cloudy,False,False,False,False,False,False,False,False,False,False,False,False,False,Day,Day,Day,Day
C-1077664,2,2021-11-15 14:44:00,2021-11-15 15:08:00,28.537089,-81.285653,28.540540000000004,-81.285692,0.238453141396,Slow traffic on FL-551 from Autumnvale Dr (S Goldenrod Rd/FL-551) to FL-408/East West Expy (S Goldenrod Rd/FL-551) due to roadwork.,501.0,S Goldenrod Rd,L,Orlando,Orange,FL,32822-8123,US,US/Eastern,KORL,2021-11-15 14:53:00,72.0,72.0,38.0,30.05,10.0,N,7.0,0.0,Fair,False,False,True,False,False,False,False,False,False,False,False,False,False,Day,Day,Day,Day
C-1077665,2,2021-02-18 06:00:30,2021-02-18 18:26:09,29.652889,-82.372372,29.652027,-82.37339,0.0853439868367,Slow traffic on FL-26 - FL-121 at NW 1st Ct due to roadwork.,59.0,NW 34th St,R,Gainesville,Alachua,FL,32607-2501,US,US/Eastern,KGNV,2021-02-18 05:53:00,66.0,66.0,96.0,29.85,4.0,S,6.0,0.0,Cloudy,False,False,True,False,False,False,False,False,False,False,False,False,False,Night,Night,Night,Day
C-1077666,2,2020-10-28 12:53:30,2020-10-29 02:08:36,29.560907,-95.176141,29.557254,-95.180184,0.35035367712,Stationary traffic on TX-2351 from I-45/Gulf Fwy (Clear Lake City Blvd/TX-2351) to Beamer Rd (TX-2351) due to roadwork.,3670.0,FM 2351 Rd,L,Friendswood,Harris,TX,77546,US,US/Central,KLVJ,2020-10-28 12:53:00,50.0,50.0,83.0,29.83,10.0,WNW,15.0,0.0,Cloudy,False,False,False,False,False,False,False,False,False,False,False,False,False,Day,Day,Day,Day
C-1077667,2,2020-12-16 18:17:00,2020-12-16 19:07:30,46.54369000000001,-122.485811,46.54682800000001,-122.487429,0.230045139054,Stationary traffic on WA-122 from US-12/Williams St (WA-122) to Cinebar Rd (WA-122) due to roadwork.,101.0,Del Ray Rd,L,Mossyrock,Lewis,WA,98564-9710,US,US/Pacific,KTDO,2020-12-16 18:15:00,50.0,50.0,94.0,29.37,10.0,S,13.0,0.0,Cloudy,False,False,False,False,False,False,False,False,False,False,False,False,False,Night,Night,Night,Night
C-1077668,2,2021-04-10 15:33:30,2021-12-16 21:30:26,41.318681,-73.991194,41.320024,-73.988474,0.168916263103,Slow traffic on US-202 E - US-9W N - US-202 W - US-9W S - US-6 W - US-6 E from N Liberty Dr to Conrail Railroad due to roadwork.,45.0,Route 9W,L,Fort Montgomery,Orange,NY,10922,US,US/Eastern,,,,,,,,,,,,False,False,False,False,False,False,False,False,False,False,False,False,False,Day,Day,Day,Day
C-1077669,2,2020-06-28 10:32:02,2020-06-28 15:00:00,35.02514,-106.6466,35.02514,-106.6466,0.0,At NM-47/Broadway Blvd SE - Roadwork. Left lane closed.,562.0,Rio Bravo Blvd SE,R,Albuquerque,Bernalillo,NM,87105,US,US/Mountain,KABQ,2020-06-28 10:52:00,82.0,82.0,15.0,24.58,10.0,VAR,3.0,0.0,Fair,False,False,True,False,False,False,False,False,False,False,False,True,False,Day,Day,Day,Day
C-1077670,2,2019-10-14 10:33:15,2019-10-14 20:00:00,37.44273,-77.686562,,,0.0,Intermittent lane closures due to construction work on Woolridge Rd both ways at Genito Rd.,,N Woolridge Rd,R,Midlothian,Chesterfield,VA,23112,US,US/Eastern,KFCI,2019-10-14 10:56:00,62.0,62.0,84.0,29.82,10.0,NNW,7.0,0.01,Cloudy,False,False,False,False,False,False,False,False,False,False,False,True,False,Day,Day,Day,Day
C-1077671,2,2021-06-25 09:11:59,2021-06-26 09:58:36,39.164759,-76.724314,39.139586,-76.622279,5.73703703173,Construction on MD-100 EB near MP 0 Allow extra time.,,MD-100 E,R,Hanover,Anne Arundel,MD,21076,US,US/Eastern,KBWI,2021-06-25 08:54:00,70.0,70.0,61.0,30.17,10.0,SSE,5.0,0.0,Mostly Cloudy,False,False,False,False,True,False,False,False,False,False,False,False,False,Day,Day,Day,Day
C-1077672,2,2020-11-20 19:35:30,2020-11-21 03:36:41,32.785345,-80.14698,32.782801,-80.14871600000002,0.202645621413,Stationary traffic on SC-162 - US-17 S from Davison Rd to Railroad Ave due to roadwork.,4254.0,Savannah Hwy,L,Ravenel,Charleston,SC,29470-5483,US,US/Eastern,KJZI,2020-11-20 19:35:00,63.0,63.0,77.0,30.4,10.0,CALM,0.0,0.0,Partly Cloudy,False,False,False,False,False,False,False,False,False,False,False,True,False,Night,Night,Night,Night
C-1077673,2,2021-09-24 15:16:00,2021-09-24 15:45:00,40.007774,-105.258542,40.014693,-105.259546,0.481000848143,Slow traffic on N Foothills Hwy W - CO-7 - Denver Boulder Tpke W - CO-119 - US-36 W from Baseline Rd to Folsom St due to roadwork.,,Denver Boulder Tpke W,R,Boulder,Boulder,CO,80303,US,US/Mountain,KBDU,2021-09-24 15:15:00,70.0,70.0,27.0,24.85,10.0,NNE,6.0,0.0,Fair,False,False,True,False,False,False,False,False,False,False,False,True,False,Day,Day,Day,Day
C-1077674,2,2021-08-02 00:00:00,2021-08-06 00:45:00,39.762522,-104.973357,39.763095,-104.974268,0.0625181915228,Construction on 33RD ST WB near N DOWNING ST Expect delays.,3301.0,N Downing St,L,Denver,Denver,CO,80205-3918,US,US/Mountain,KBKF,2021-08-02 00:58:00,65.0,65.0,66.0,24.63,10.0,S,15.0,0.0,Fair,False,False,True,False,False,False,False,False,False,True,False,False,False,Night,Night,Night,Night
C-1077675,2,2020-06-11 10:49:42,2020-06-12 15:00:00,43.12699,-77.52456,43.11761,-77.50816999999998,1.05035126963,Between Penfield Rd/Exit 22 and Commercial St/Exit 24 - Roadwork. Roadway reduced to 1 lane.,,I-490 E,R,Rochester,Monroe,NY,14610,US,US/Eastern,KROC,2020-06-11 10:54:00,70.0,70.0,57.0,29.34,10.0,W,24.0,0.0,Mostly Cloudy / Windy,False,False,False,False,True,False,False,False,False,False,False,False,False,Day,Day,Day,Day
C-1077676,4,2020-08-29 05:04:19,2020-09-05 06:59:00,39.997652,-86.229526,39.998778,-86.22954399999998,0.0778050238918,Closed road from Bear Creek Way to W 146th St due to roadwork.,14549.0,Overbrook Dr,R,Carmel,Hamilton,IN,46074-7727,US,US/Eastern,KTYQ,2020-08-29 04:55:00,70.0,70.0,98.0,28.72,7.0,WSW,13.0,0.0,Cloudy,False,False,False,False,False,False,False,False,False,False,False,False,False,Night,Night,Night,Night
C-1077677,4,2021-03-30 11:24:38,2021-04-06 23:59:00,41.489606,-81.596404,41.488806,-81.59642099999998,0.055281737994,Closed road from Woodstock Ave to Mount Overlook Ave due to roadwork.,2526.0,E 124th St,R,Cleveland,Cuyahoga,OH,44120-1005,US,US/Eastern,KBKL,2021-03-30 11:53:00,65.0,65.0,27.0,29.4,10.0,SSW,22.0,0.0,Fair / Windy,False,False,False,False,False,False,False,False,False,False,False,False,False,Day,Day,Day,Day
C-1077678,2,2021-11-17 16:03:00,2021-11-17 18:06:04,33.494935,-112.165944,33.495021,-112.168638,0.155340258285,Slow traffic from N 43rd Ave (W Indian School Rd) to N 51st Ave (W Indian School Rd) due to roadwork.,4967.0,W Indian School Rd,L,Phoenix,Maricopa,AZ,85031-2720,US,US/Mountain,KGEU,2021-11-17 15:58:00,78.0,78.0,16.0,28.79,10.0,S,3.0,0.0,Fair,False,False,True,False,False,False,False,False,False,False,False,True,False,Day,Day,Day,Day
C-1077679,2,2021-10-21 22:02:30,2021-10-22 00:03:47,40.806611,-73.942735,40.808233,-73.945048,0.164899703777,Slow traffic from E 125th St / 5th Ave to W 126th St due to roadwork.,3.0,W 125th St,R,New York,New York,NY,10027-4512,US,US/Eastern,KNYC,2021-10-21 21:51:00,66.0,66.0,70.0,29.76,10.0,VAR,5.0,0.0,Fair,True,False,False,False,False,False,True,False,True,False,False,True,False,Night,Night,Night,Night
C-1077680,4,2021-05-09 23:46:05,2021-05-16 23:59:00,39.978007,-75.15419200000002,39.976792,-75.15445,0.085052630336,Closed road from Cecil B Moore Ave to W Oxford St due to roadwork.,1681.0,N 12th St,R,Philadelphia,Philadelphia,PA,19122-3307,US,US/Eastern,KPHL,2021-05-09 23:54:00,52.0,52.0,83.0,29.73,10.0,ENE,7.0,0.0,Cloudy,False,False,False,False,False,False,False,False,False,False,False,True,False,Night,Night,Night,Night
C-1077681,3,2020-03-27 09:37:38,2020-03-31 09:37:36,39.12998,-76.51565,39.13197,-76.51436,0.153900380304,At MD-173/Fort Smallwood Rd - Roadwork.,8102.0,Hogneck Rd,R,Pasadena,Anne Arundel,MD,21122,US,US/Eastern,KBWI,2020-03-27 09:54:00,56.0,56.0,69.0,29.69,10.0,W,5.0,0.0,Mostly Cloudy,False,False,False,False,False,False,False,False,False,False,False,True,False,Day,Day,Day,Day
C-1077682,2,2021-09-16 18:59:30,2021-09-16 21:01:30,35.023051,-106.635221,35.001431,-106.621991,1.67091559803,Stationary traffic from Rio Bravo Blvd SE to Los Picaros Rd SE due to roadwork.,898.0,Rio Bravo Blvd SE,L,Albuquerque,Bernalillo,NM,87106,US,US/Mountain,KABQ,2021-09-16 18:52:00,86.0,86.0,9.0,24.62,10.0,WSW,10.0,0.0,Fair,False,False,False,False,False,False,False,False,False,False,False,True,False,Day,Day,Day,Day
C-1077683,2,2021-06-08 06:12:47,2021-06-08 14:57:47,45.21596,-118.023022,45.12728,-117.964222,6.76357344304,Road maintenance operations are occurring causing no to minimum delays. Use caution.,,I-84 E,R,La Grande,Union,OR,97850,US,US/Pacific,KLGD,2021-06-08 05:56:00,49.0,42.0,50.0,27.04,10.0,W,23.0,0.0,Fair / Windy,False,False,False,False,True,False,False,False,False,False,False,False,False,Day,Day,Day,Day
C-1077684,3,2020-01-08 23:00:00,2020-01-09 05:00:00,42.354294,-71.053123,,,1.83000004292,2 left lane closed due to construction work on I-93 Tip O'Neill Tunnel Southbound from Zakim Bridge to exit 20A/B.,,I-93 S,R,Boston,Suffolk,MA,02110,US,US/Eastern,KBOS,2020-01-08 22:54:00,31.0,19.0,33.0,30.12,10.0,WNW,20.0,0.0,Fair,False,False,False,False,False,False,False,False,False,False,False,False,False,Night,Night,Night,Night
C-1077685,2,2021-07-06 13:38:26,2021-07-06 15:53:50,25.732181,-80.379671,25.732128,-80.38385600000002,0.260507118172,Slow traffic on FL-976 from FL-985/SW 107th Ave (SW 40th St/Bird Rd/FL-976) to FL-821/117th Ave/Florida's Tpke (Bird Dr/SW 40th St/FL-976) due to roadwork.,11401.0,SW 40th St,R,Miami,Miami-Dade,FL,33165-3311,US,US/Eastern,KMIA,2021-07-06 13:53:00,83.0,83.0,85.0,30.05,6.0,SE,8.0,0.03,Light Rain,False,False,False,False,False,False,False,False,False,False,False,False,False,Day,Day,Day,Day
C-1077686,3,2021-03-08 09:34:29,2021-03-08 14:01:00,37.35015900000001,-121.917931,,,0.239999994636,Entry ramp to I-880 Southbound from Coleman Ave Northbound closed due to maintenance work.,,Airport Blvd,R,San Jose,Santa Clara,CA,95110,US,US/Pacific,KSJC,2021-03-08 09:53:00,52.0,52.0,49.0,30.17,10.0,S,3.0,0.0,Cloudy,False,False,False,False,False,False,False,False,False,False,False,False,False,Day,Day,Day,Day
C-1077687,2,2021-04-23 14:03:30,2021-04-23 16:52:01,41.983756,-87.847656,41.982316,-87.794015,2.75680325074,Slow traffic on Jane Addams Memorial Tollway E - I-90 E - Kennedy Expy E from River Rd Toll Plaza (I-90) to Bryn Mawr Ave/Nagle Ave/Exit 82C (I-90) due to roadwork.,,I-90 E,R,Chicago,Cook,IL,60631,US,US/Central,KORD,2021-04-23 13:51:00,60.0,60.0,31.0,29.26,10.0,SSW,12.0,0.0,Mostly Cloudy,False,False,False,False,False,False,False,False,False,False,False,False,False,Day,Day,Day,Day
C-1077688,4,2019-04-02 00:02:26,2019-04-02 05:01:01,25.667587,-80.369237,25.649449,-80.385464,1.60993939354,Closed between Killian Pky and CR-874/Exit 17 - Closed due to roadwork.,,S Dade Expy S,R,Miami,Miami-Dade,FL,33176,US,US/Eastern,KTMB,2019-04-02 00:53:00,67.0,67.0,81.0,30.07,10.0,NW,6.0,0.0,Fair,False,False,False,False,False,False,False,False,False,False,False,False,False,Night,Night,Night,Night
C-1077689,2,2020-12-08 16:00:00,2020-12-11 23:45:00,46.18436,-92.853744,46.31979000000001,-92.827194,9.44290851204,Construction on I-35 NB near MN-23 Construction. Expect long delays.,,I-35 N,R,Finlayson,Pine,MN,55735,US,US/Central,K04W,,,,,,,,,,,False,False,False,False,False,False,False,False,False,False,False,False,False,Day,Day,Day,Day
C-1077690,2,2019-10-21 05:03:29,2019-11-19 18:00:00,35.252201,-106.668152,,,0.0,Restrictions due to maintenance work on Placita De Las Casas both ways at Calle Suenos.,3498.0,Calle Suenos SE,L,Rio Rancho,Sandoval,NM,87124-6711,US,US/Mountain,KAEG,2019-10-21 04:55:00,27.0,27.0,36.0,24.26,10.0,W,3.0,0.0,Fair,False,False,False,False,False,False,False,False,False,False,False,False,False,Night,Night,Night,Night
C-1077691,2,2021-06-01 16:45:51,2021-06-02 23:59:00,40.906487,-74.163862,40.901207,-74.151562,0.738694002297,Construction on I-80 eastbound East of Exit 58 - Madison Ave (Paterson) Not currently Scheduled,,Bergen Passaic Expy E,R,Paterson,Passaic,NJ,07503,US,US/Eastern,KTEB,2021-06-01 16:51:00,76.0,76.0,38.0,30.18,10.0,WSW,8.0,0.0,Fair,False,False,False,False,True,False,False,False,False,False,False,False,False,Day,Day,Day,Day
C-1077692,2,2019-07-02 04:21:41,2019-09-03 04:50:00,40.722309,-115.527809,,,0.0,Right turn lane blocked due to construction on NV-227 Lamoille Hwy Southbound at CR-712.,,Lamoille Hwy,R,Spring Creek,Elko,NV,89815,US,US/Pacific,KEKO,2019-07-02 03:56:00,51.0,51.0,46.0,24.85,10.0,CALM,0.0,0.0,Fair,False,False,False,False,False,False,False,False,False,False,False,False,False,Night,Night,Day,Day
C-1077693,2,2020-12-11 04:00:00,2020-12-11 15:05:02,40.696225,-74.258421,40.69622800000001,-74.25881899999997,0.0208502846351,Construction construction on US 22 westbound East of CR 82/Morris Av (Union Twp) 1 Left lane of 2 lanes closed Until 5:00 AM,,US Highway 22,R,Union,Union,NJ,07083,US,US/Eastern,KEWR,2020-12-11 03:51:00,35.0,31.0,78.0,30.21,10.0,VAR,5.0,0.0,Mostly Cloudy,False,False,False,False,False,False,False,False,False,False,False,False,False,Night,Night,Night,Night
C-1077694,4,2018-12-06 21:03:03,2018-12-07 02:02:38,40.64219,-74.14211999999998,40.63848,-74.1437,0.269389208874,Closed between New York/New Jersey State Line and RT-440/Dr Martin L King Jr Expy - Closed due to roadwork.,,Bayonne Brg S,R,Staten Island,Richmond,NY,10302-1116,US,US/Eastern,KEWR,2018-12-06 20:51:00,37.0,30.4,57.0,30.16,10.0,SSW,9.2,,Overcast,False,False,False,False,False,False,False,False,False,False,False,False,False,Night,Night,Night,Night
C-1077695,3,2018-02-14 21:00:00,2018-02-15 05:00:00,36.034405,-79.79825600000002,36.03308,-79.80389,0.327835155998,At Randleman Rd/Exit 124 - Construction work.,,US-70 W,R,Greensboro,Guilford,NC,27406,US,US/Eastern,KGSO,2018-02-14 20:54:00,50.0,,86.0,30.25,10.0,SSW,3.5,,Overcast,False,False,False,False,False,False,False,False,False,False,False,False,False,Night,Night,Night,Night
C-1077696,3,2020-01-17 21:00:00,2020-01-18 10:00:00,45.52388,-122.686028,,,0.270000010729,Entry ramp to I-405 Northbound from NW Couch St Westbound intermittent ramp closures due to construction work.,,I-405 N,R,Portland,Multnomah,OR,97209,US,US/Pacific,KPDX,2020-01-17 20:53:00,38.0,29.0,89.0,30.14,10.0,ESE,17.0,0.02,Light Rain,False,False,False,False,False,False,False,False,False,False,False,False,False,Night,Night,Night,Night
C-1077697,2,2021-05-07 05:18:30,2021-05-07 10:36:21,25.72829,-80.36756899999997,25.732279,-80.36662199999998,0.281846153662,Slow traffic on FL-976 - FL-985 from SW 43rd Ter to SW 104th Ct due to roadwork.,4256.0,SW 107th Ave,R,Miami,Miami-Dade,FL,33165-4801,US,US/Eastern,KMIA,2021-05-07 04:53:00,76.0,76.0,94.0,29.96,8.0,W,5.0,0.0,Fair,True,False,False,False,False,False,False,False,False,False,False,False,False,Night,Night,Night,Day
C-1077698,2,2021-08-07 13:37:52,2021-08-07 13:57:52,40.643086,-76.150081,40.64097,-76.158407,0.460345765657,Stationary traffic on PA-61 - PA-443 from PA-443 (PA-61) to PA-443/Dock St (Center Ave/PA-61) due to roadwork.,386.0,Route 61 S,L,Schuylkill Haven,Schuylkill,PA,17972-9729,US,US/Eastern,KRDG,2021-08-07 13:54:00,87.0,87.0,44.0,29.68,10.0,SSW,9.0,0.0,Fair,False,False,False,False,False,False,False,False,False,False,False,True,False,Day,Day,Day,Day
C-1077699,2,2020-09-27 18:00:00,2020-10-03 06:00:00,27.875105,-82.6539,,,1.92999994755,Intermittent lane closures due to construction work on FL-686 Roosevelt Blvd Eastbound from 28th St to 16th St.,11299.0,16th St N,R,Saint Petersburg,Pinellas,FL,33716,US,US/Eastern,KPIE,2020-09-27 17:53:00,87.0,87.0,69.0,29.89,10.0,W,12.0,0.0,Mostly Cloudy,False,False,False,False,False,False,False,False,False,False,False,True,False,Day,Day,Day,Day
C-1077700,2,2021-09-24 13:58:00,2021-09-24 15:52:30,41.109681,-85.060764,41.113208,-85.06104,0.24411567615,Stationary traffic from Vance Ave to Trier Rd due to roadwork.,3486.0,Maplecrest Rd,R,Fort Wayne,Allen,IN,46815,US,US/Eastern,KFWA,2021-09-24 13:54:00,73.0,73.0,37.0,29.17,10.0,WSW,13.0,0.0,Mostly Cloudy,False,False,False,False,False,False,False,False,False,False,False,True,False,Day,Day,Day,Day
C-1077701,4,2018-06-30 13:28:00,2018-10-31 17:00:00,40.06783,-80.89796,40.07248,-80.86756,1.63917089457,Closed at Mall Rd/Exit 218 - Closed due to roadwork.,,I-70 W,R,Saint Clairsville,Belmont,OH,43950,US,US/Eastern,KHLG,,,,,,,,,,,False,False,False,False,False,False,False,False,False,False,False,False,False,Day,Day,Day,Day
C-1077702,4,2019-03-24 23:54:56,2019-03-25 04:12:39,29.693211,-95.284851,29.7007,-95.29324,0.7219782193459999,Closed at I-610/TX-35/Exit 40 - Closed due to roadwork.,,I-45 N,R,Houston,Harris,TX,77017,US,US/Central,KHOU,2019-03-24 23:53:00,68.0,,90.0,30.09,9.0,South,9.2,,Mostly Cloudy,False,False,False,False,False,False,False,False,False,False,False,False,False,Night,Night,Night,Night
C-1077703,2,2021-06-28 11:57:59,2021-07-09 17:30:53,34.737728000000004,-93.057771,34.763608000000005,-93.075511,2.05223881501,Stationary traffic on AR-7 from Blakely Camp Rd (AR-7) to CR-5 (AR-7) due to roadwork.,9520.0,N Highway 7,R,Jessieville,Garland,AR,71949,US,US/Central,KHOT,,,,,,,,,,,False,False,False,False,False,False,False,False,False,False,False,False,False,Day,Day,Day,Day
C-1077704,2,2021-12-09 15:16:00,2021-12-09 17:19:08,33.477919,-112.169027,33.480468,-112.170965,0.208547025788,Slow traffic from W Cambridge Ave to N 52nd Ave due to roadwork.,2628.0,N 51st Ave,L,Phoenix,Maricopa,AZ,85035-2020,US,US/Mountain,KGEU,2021-12-09 14:58:00,69.0,69.0,37.0,28.66,10.0,SW,8.0,0.0,Partly Cloudy,False,False,False,False,False,False,False,False,False,False,False,False,False,Day,Day,Day,Day
C-1077705,2,2021-11-04 13:31:43,2021-11-04 13:51:43,40.879052,-73.874241,40.881083,-73.87849399999998,0.262783359299,Slow traffic from Bronx River Pkwy (E Gun Hill Rd) to Jerome Ave (Gun Hill Rd) due to roadwork.,304.0,E Gun Hill Rd,R,Bronx,Bronx,NY,10467-2265,US,US/Eastern,KLGA,2021-11-04 13:51:00,52.0,52.0,32.0,30.28,10.0,E,7.0,0.0,Mostly Cloudy,False,False,False,False,False,False,False,False,False,False,False,True,False,Day,Day,Day,Day
C-1077706,2,2021-11-02 16:42:11,2021-11-02 18:47:35,28.509956,-81.25835,28.511415000000003,-81.256468,0.152376039913,Stationary traffic on FL-552 from Birmingham Blvd to Tuscan Valley Pl due to roadwork.,9110.0,Curry Ford Rd,R,Orlando,Orange,FL,32825-7601,US,US/Eastern,KORL,2021-11-02 16:53:00,84.0,84.0,47.0,29.93,10.0,N,10.0,0.0,Mostly Cloudy,False,False,False,False,False,False,False,False,False,False,False,False,False,Day,Day,Day,Day
C-1077707,2,2020-12-14 03:00:00,2021-12-31 15:45:00,45.942283,-120.67891000000002,45.879261,-120.75069,5.555930437030001,Slow traffic on US-97 N - US-97 S from BIA 63 Rd/Pine Springs Rd (US-97) to WA-142/E Broadway St (US-97) due to roadwork.,2376.0,Highway 97,R,Goldendale,Klickitat,WA,98620-2703,US,US/Pacific,KDLS,2021-12-28 07:53:00,28.0,28.0,81.0,29.61,10.0,CALM,0.0,0.0,Cloudy,False,False,False,False,False,False,False,False,False,False,False,False,False,Night,Night,Night,Night
C-1077708,2,2021-09-16 17:02:06,2021-09-16 18:15:52,40.878355,-73.870297,40.880266,-73.876787,0.363846214595,Slow traffic from US-1/Boston Rd/Hering Ave (E Gun Hill Rd) to Jerome Ave (Gun Hill Rd) due to roadwork.,,E Gun Hill Rd,R,Bronx,Bronx,NY,10467,US,US/Eastern,KLGA,2021-09-16 16:51:00,75.0,75.0,71.0,30.17,10.0,NE,15.0,0.0,Cloudy,False,False,True,False,False,False,False,False,False,False,False,True,False,Day,Day,Day,Day
C-1077709,2,2020-11-19 13:47:00,2020-11-20 00:23:22,26.304,-80.092977,26.305044,-80.093463,0.0781626179618,Stationary traffic on US-1 N - FL-869 - FL-5 from N Federal Hwy / NE 54th St to SE 6th Ave due to roadwork.,1060.0,S Federal Hwy,L,Deerfield Beach,Broward,FL,33441-7033,US,US/Eastern,KPMP,2020-11-19 13:53:00,78.0,78.0,58.0,30.21,10.0,ENE,18.0,0.0,Mostly Cloudy,False,False,False,False,False,False,False,False,False,False,False,False,False,Day,Day,Day,Day
C-1077710,4,2018-11-09 14:22:50,2018-11-23 16:00:00,42.73162,-94.1884,42.73162,-94.192123,0.188949308619,Closed at US-169/13th St N - Bridge closed. Roadwork.,,Nevada Ave,R,Humboldt,Humboldt,IA,50548,US,US/Central,KFOD,2018-11-09 14:32:00,21.2,6.8,68.0,30.34,2.5,WNW,17.3,0.0,Light Snow,False,False,False,False,False,False,False,False,False,False,False,False,False,Day,Day,Day,Day
C-1077711,4,2021-07-03 10:09:30,2021-11-05 17:57:52,41.572211,-93.513232,41.572681,-93.512552,0.047854153874,Closed road from exit [77] to US-65 N due to roadwork.,,US-65 N,R,Pleasant Hill,Polk,IA,50327,US,US/Central,KIKV,2021-08-31 19:55:00,68.0,68.0,78.0,28.9,10.0,E,5.0,0.0,Fair,False,False,False,False,False,False,False,False,False,False,False,False,False,Day,Day,Day,Day
