ID,Severity,Start_Time,End_Time,Start_Lat,Start_Lng,End_Lat,End_Lng,Distance(mi),Description,Number,Street,Side,City,County,State,Zipcode,Country,Timezone,Airport_Code,Weather_Timestamp,Temperature(F),Wind_Chill(F),Humidity(%),Pressure(in),Visibility(mi),Wind_Direction,Wind_Speed(mph),Precipitation(in),Weather_Condition,Amenity,Bump,Crossing,Give_Way,Junction,No_Exit,Railway,Roundabout,Station,Stop,Traffic_Calming,Traffic_Signal,Turning_Loop,Sunrise_Sunset,Civil_Twilight,Nautical_Twilight,Astronomical_Twilight
C-220654,2,2021-05-19 11:31:00.000000000,2021-05-19 16:48:02.000000000,45.28429000000001,-93.215155,45.281109,-93.186499,1.4103358630200002,Slow traffic on County Hwy-18 from MN-65 (Crosstown Blvd/CR-18) to CR-17/Lexington Ave (Andover) (Crosstown Blvd/CR-18) due to roadwork.,2198.0,Crosstown Blvd NE,R,Andover,Anoka,MN,55304,US,US/Central,KANE,2021-05-19 11:45:00,72.0,72.0,78.0,29.02,10.0,S,12.0,0.0,Cloudy,False,False,False,False,False,False,False,False,False,False,False,False,False,Day,Day,Day,Day
C-220655,3,2019-06-30 22:00:00.000000000,2019-07-01 05:31:00.000000000,39.55653,-104.873734,,,0.990000009537,Exit ramp from I-25 Southbound at Exit 194 to Co-470 Westbound closed due to construction during the night.,8437.0,S Interstate 25,R,Lone Tree,Douglas,CO,80124,US,US/Mountain,KAPA,2019-06-30 21:53:00,67.0,67.0,76.0,24.33,10.0,ESE,6.0,0.0,Light Rain,False,False,False,False,False,False,False,False,False,False,False,False,False,Night,Night,Night,Day
C-220656,2,2021-08-29 14:02:00.000000000,2021-08-29 18:00:02.000000000,42.676958,-83.302461,42.67787,-83.300696,0.109584415108,Slow traffic from Hollywood Ave to W New York Ave / E New York Ave due to roadwork.,39.0,W Walton Blvd,L,Pontiac,Oakland,MI,48340-1157,US,US/Eastern,KPTK,2021-08-29 13:53:00,88.0,88.0,51.0,28.92,10.0,SW,12.0,0.0,Mostly Cloudy,False,False,False,False,False,False,False,False,True,False,False,False,False,Day,Day,Day,Day
C-220657,2,2020-08-28 16:04:00.000000000,2020-08-28 21:18:00.000000000,45.571621,-122.299493,45.572121,-122.320693,1.02594869192,Stationary traffic on WA-14 from SE Evergreen Blvd (WA-14) to WA-140/15th St (WA-14) due to roadwork.,36676.0,SE Evergreen Blvd,R,Washougal,Clark,WA,98671-9769,US,US/Pacific,KTTD,2020-08-28 15:53:00,83.0,83.0,36.0,29.9,10.0,NW,5.0,0.0,Fair,False,False,False,False,False,False,False,False,False,False,False,False,False,Day,Day,Day,Day
C-220658,4,2018-07-28 20:34:37.000000000,2018-07-31 05:34:37.000000000,41.37118,-89.393033,41.37127,-89.410975,0.930325678237,Closed at 2300 St E - Closed. Construction work.,15085.0,2400 East St,L,Princeton,Bureau,IL,61356,US,US/Central,KVYS,2018-07-28 20:35:00,73.0,,59.0,30.12,10.0,Calm,,,Clear,False,False,False,False,False,False,False,False,False,False,False,False,False,Night,Day,Day,Day
C-220659,4,2020-01-24 10:32:27.000000000,2020-01-28 10:31:24.000000000,39.23607,-84.45101,39.23603,-84.45051,0.0269003882757,Closed at I-75 - Closed due to roadwork.,,Shepherd Ln,R,Cincinnati,Hamilton,OH,45215,US,US/Eastern,KLUK,2020-01-24 10:25:00,43.0,38.0,97.0,29.4,6.0,WSW,8.0,0.01,Light Rain,False,False,False,False,False,False,False,False,False,False,False,True,False,Day,Day,Day,Day
C-220660,2,2020-11-15 17:09:30.000000000,2020-11-16 07:24:32.000000000,25.794325,-80.238373,25.793727,-80.239823,0.0992160187169,Slow traffic on FL-9 from NW 25th Ave to NW South River Dr due to roadwork.,2552.0,NW 20th St,L,Miami,Miami-Dade,FL,33142-7104,US,US/Eastern,KMIA,2020-11-15 16:53:00,82.0,82.0,65.0,30.01,10.0,SE,8.0,0.0,Fair,False,False,False,False,False,False,False,False,False,False,False,False,False,Day,Day,Day,Day
C-220661,2,2018-02-21 21:02:30.000000000,2018-02-22 03:02:30.000000000,40.72426,-74.01145,40.713673,-74.01393900000002,0.743013866054,Between Canal St and Vesey St - Construction work.,,West St,R,New York,New York,NY,10013,US,US/Eastern,KJRB,2018-02-21 20:56:00,62.1,,75.0,,10.0,Variable,3.5,,,False,False,True,False,False,False,False,False,False,False,False,True,False,Night,Night,Night,Night
C-220662,2,2020-05-13 08:38:52.000000000,2020-05-15 15:00:00.000000000,42.52296,-70.98225,42.5257,-70.9673,0.7844585300110001,Between I-93/Exit 29 and Centennial Dr/Forest St/Exit 28 - Construction work.,,MA-128 N,R,Peabody,Essex,MA,01960,US,US/Eastern,KBVY,2020-05-13 08:53:00,47.0,42.0,39.0,30.06,10.0,NW,12.0,0.0,Fair,False,False,False,False,False,False,False,False,False,False,False,False,False,Day,Day,Day,Day
C-220663,2,2021-08-13 22:14:30.000000000,2021-08-13 22:27:30.000000000,42.85569,-106.28331,42.856726,-106.2941,0.551179441861,Slow traffic on I-25 N from WY-258/Curtis St/Exit 185 (I-25) to US-20/US-87/US-26/Exit 186 (I-25) due to roadwork.,,I-25 N,R,Casper,Natrona,WY,82609,US,US/Mountain,KCPR,2021-08-13 21:53:00,72.0,72.0,51.0,24.85,10.0,ENE,8.0,0.0,Fair,False,False,False,False,True,False,False,False,False,False,False,False,False,Night,Night,Night,Night
C-220664,2,2020-09-23 03:30:00.000000000,2020-09-23 12:45:00.000000000,38.898408,-77.073572,38.898317,-77.072498,0.0580931563852,Construction on US-29 NB near N NASH ST Construction. Expect long delays.,1923.0,N Nash St,R,Arlington,Arlington,VA,22209-1528,US,US/Eastern,KDCA,2020-09-23 03:52:00,59.0,59.0,69.0,30.0,10.0,CALM,0.0,0.0,Mostly Cloudy,False,False,True,False,False,False,False,False,False,False,False,True,False,Night,Night,Night,Night
C-220665,2,2020-10-25 12:12:30.000000000,2020-10-25 21:20:30.000000000,40.296108,-76.82535899999998,40.292752,-76.82360600000001,0.2496031344049999,Stationary traffic on I-83 from I-81/US-322 (I-83) to Union Deposit Rd/Exit 48 (I-83) due to roadwork.,,I-83 S,R,Harrisburg,Dauphin,PA,17109,US,US/Eastern,KCXY,2020-10-25 11:56:00,50.0,50.0,54.0,29.87,10.0,E,5.0,0.0,Cloudy,False,False,False,False,False,False,False,False,False,False,False,False,False,Day,Day,Day,Day
C-220666,2,2020-07-16 02:02:00.000000000,2020-07-17 13:45:00.000000000,33.708919,-78.91429000000002,33.709359,-78.91289,0.086018415157,Construction on US-17 NB near US-501 Construction. Right lane closed.,,US-17 N,R,Myrtle Beach,Horry,SC,29577,US,US/Eastern,KMYR,2020-07-16 13:08:00,88.0,88.0,66.0,30.15,10.0,SE,10.0,0.0,Mostly Cloudy,False,False,False,False,True,False,False,False,False,False,False,False,False,Night,Night,Night,Night
C-220667,2,2021-06-02 08:21:47.000000000,2021-06-03 09:08:55.000000000,39.613487,-77.35810699999998,39.6115,-77.346532,0.631222429523,Construction on MD-77 EB near SUNNY WAY Expect long delays.,8915.0,Rocky Ridge Rd,R,Rocky Ridge,Frederick,MD,21778-9301,US,US/Eastern,KRSP,,,,,,,,,,,False,False,False,False,False,False,False,False,False,False,False,False,False,Day,Day,Day,Day
C-220668,2,2021-07-02 14:20:28.000000000,2021-07-02 14:46:09.000000000,41.990524,-87.692123,41.990485,-87.699407,0.37407281341,Slow traffic on US-14 W from Western Ave (US-14) to California Ave (US-14) due to roadwork.,,N Campbell Ave,R,Chicago,Cook,IL,60659,US,US/Central,KORD,2021-07-02 13:51:00,72.0,72.0,51.0,29.37,10.0,NE,10.0,0.0,Mostly Cloudy,False,False,False,False,False,False,False,False,True,False,False,True,False,Day,Day,Day,Day
C-220669,2,2021-06-09 14:12:30.000000000,2021-06-10 16:29:43.000000000,43.154494,-90.059647,43.149156,-90.059929,0.369094495383,Roadwork on US-14 (WI-23) from CR-C (WI-23) to WI-23.,,S13329 State Road 23,L,Spring Green,Sauk,WI,53588,US,US/Central,KLNR,2021-06-09 13:56:00,92.0,92.0,42.0,29.23,10.0,E,9.0,0.0,Fair,False,False,False,False,False,False,False,False,False,False,False,False,False,Day,Day,Day,Day
C-220670,2,2021-03-25 08:13:25.000000000,2021-03-25 17:16:45.000000000,30.50661400000001,-91.136216,30.501712,-91.130827,0.466511967747,Stationary traffic on US-61 S - US-190 E from LA-67/Plank Rd (US-61) to Evangeline St (US-61) due to roadwork.,5424.0,Airline Hwy,R,Baton Rouge,East Baton Rouge,LA,70805-1711,US,US/Central,KBTR,2021-03-25 07:53:00,74.0,74.0,87.0,29.66,9.0,S,10.0,0.0,Cloudy,False,False,False,False,False,False,False,False,False,False,False,False,False,Day,Day,Day,Day
C-220671,2,2021-03-27 07:22:30.000000000,2021-03-27 15:06:38.000000000,39.769305,-105.02628500000002,39.769759,-105.0252,0.0656060115854,Stationary traffic on US-287 N from N Grove St to W Denver Pl due to roadwork.,3037.0,W 38th Ave,R,Denver,Denver,CO,80211-2001,US,US/Mountain,KBJC,2021-03-27 07:50:00,37.0,37.0,41.0,24.42,75.0,WNW,3.0,0.0,Fair,False,False,True,False,False,False,False,False,False,False,False,False,False,Day,Day,Day,Day
C-220672,2,2020-09-09 00:14:12.000000000,2020-09-09 00:42:10.000000000,30.320775,-81.688448,30.321818,-81.698093,0.579743377971,Slow traffic on I-10 from I-95 (I-10) to Roosevelt Blvd/Exit 58 (I-10) due to roadwork.,,FL-228 W,R,Jacksonville,Duval,FL,32204,US,US/Eastern,KNIP,2020-09-09 00:53:00,78.0,78.0,87.0,29.93,10.0,CALM,0.0,0.0,Mostly Cloudy,False,False,False,False,False,False,False,False,False,False,False,False,False,Night,Night,Night,Night
C-220673,2,2021-04-10 09:21:30.000000000,2021-04-10 14:31:00.000000000,41.963323,-87.747006,41.982733,-87.807278,3.37404228738,Stationary traffic on I-90 W - Kennedy Expy W from I-94 (I-90) to IL-43/Harlem Ave (I-90) due to roadwork.,,I-90 W,R,Chicago,Cook,IL,60630,US,US/Central,KORD,2021-04-10 09:51:00,53.0,53.0,83.0,28.91,9.0,NE,12.0,0.02,Light Rain,False,False,True,False,False,False,False,False,False,False,False,True,False,Day,Day,Day,Day
C-220674,2,2020-11-05 16:02:00.000000000,2020-11-05 16:40:00.000000000,39.74013400000001,-104.711734,39.740074,-104.666554,2.40039623158,Slow traffic on I-70 from E-470/Exit 289 (I-70) to US-36/Exit 292 (I-70) due to roadwork.,,I-70 E,R,Aurora,Arapahoe,CO,80018,US,US/Mountain,KBKF,2020-11-05 15:58:00,74.0,74.0,12.0,24.54,10.0,S,6.0,0.0,Fair,False,False,False,False,False,False,False,False,False,False,False,False,False,Day,Day,Day,Day
C-220675,4,2020-05-08 07:32:46.000000000,2020-05-08 18:59:59.000000000,40.77761,-74.13035,40.77866,-74.12959000000002,0.0827307312882,Closed between RT-7/Belleville Tpke and Kingsland Ave/Page Ave - Closed due to roadwork.,1.0,Schuyler Ave,L,North Arlington,Bergen,NJ,07031-6732,US,US/Eastern,KTEB,2020-05-08 07:51:00,48.0,48.0,39.0,29.85,10.0,VAR,3.0,0.0,Mostly Cloudy,False,False,True,False,False,False,False,False,False,False,False,True,False,Day,Day,Day,Day
C-220676,2,2021-07-21 15:24:41.000000000,2021-07-21 17:26:15.000000000,26.650606,-80.20447,26.652055,-80.203263,0.124814985236,Slow traffic on FL-7 - US-441 N - FL-882 from Wellington Edge Blvd / Wellington Green Mall to Stonehaven Estates Dr due to roadwork.,10098.0,Forest Hill Blvd,L,Wellington,Palm Beach,FL,33414,US,US/Eastern,KPBI,2021-07-21 15:29:00,75.0,75.0,94.0,30.07,10.0,SE,6.0,0.23,Light Rain with Thunder,False,False,False,False,False,False,False,False,False,False,False,False,False,Day,Day,Day,Day
C-220677,2,2021-01-22 13:33:30.000000000,2021-01-22 18:43:38.000000000,26.259285,-80.190388,26.260823,-80.18628100000002,0.275776637699,Slow traffic from NW 48th Ter to NW 25th Ct due to roadwork.,,NW 48th Ter,R,Pompano Beach,Broward,FL,33063,US,US/Eastern,KFXE,2021-01-22 13:53:00,79.0,79.0,48.0,29.99,10.0,SW,10.0,0.0,Fair,False,False,False,False,False,False,False,False,False,False,False,False,False,Day,Day,Day,Day
C-220678,2,2021-05-21 08:33:00.000000000,2021-05-21 10:25:00.000000000,40.468536,-78.297125,40.455796,-78.327005,1.8005836480700002,Slow traffic on US-22 E - US-22 W from PA-866 (US-22) to Frankstown Rd (US-22) due to roadwork.,1100.0,Route 22,L,Hollidaysburg,Blair,PA,16648-5176,US,US/Eastern,KAOO,2021-05-21 08:53:00,69.0,69.0,54.0,28.91,10.0,CALM,0.0,0.0,Fair,False,False,False,False,False,False,False,False,False,True,False,False,False,Day,Day,Day,Day
C-220679,2,2021-12-29 18:22:30.000000000,2021-12-29 18:43:00.000000000,45.91088,-123.697345,45.902152,-123.669861,1.45246441741,Slow traffic on US-26 E - US-26 W from Saddle Mountain Rd (US-26) to East Humbug Crk (US-26) due to roadwork.,38749.0,Highway 26,R,Seaside,Clatsop,OR,97138-6162,US,US/Pacific,KAST,2021-12-29 17:55:00,31.0,25.0,85.0,29.92,10.0,ESE,6.0,0.0,Fair,False,False,False,False,False,False,False,False,False,False,False,False,False,Night,Night,Night,Day
C-220680,2,2021-11-23 06:10:30.000000000,2021-11-23 09:26:30.000000000,41.908677,-87.663513,41.881698,-87.64598199999998,2.07067816052,Slow traffic on I-94 E - I-90 E - Kennedy Expy E from IL-64/North Ave/Exit 48B (I-90/I-94) to Madison St/Exit 51D (I-90/I-94) due to roadwork.,,I-90 E,R,Chicago,Cook,IL,60642,US,US/Central,KMDW,2021-11-23 05:53:00,26.0,26.0,55.0,29.55,10.0,CALM,0.0,0.0,Fair,False,False,True,False,False,False,False,False,False,False,False,False,False,Night,Night,Day,Day
C-220681,2,2020-09-05 13:09:30.000000000,2020-09-06 00:40:36.000000000,25.776367,-80.140861,25.773805,-80.140468,0.17869819774,Queuing traffic on FL-907 from 6th St to 4th St due to roadwork.,654.0,Alton Rd,L,Miami Beach,Miami-Dade,FL,33139,US,US/Eastern,KMIA,2020-09-05 12:53:00,91.0,91.0,61.0,30.07,10.0,ENE,13.0,0.0,Mostly Cloudy,True,False,False,False,False,False,False,False,True,False,False,False,False,Day,Day,Day,Day
C-220682,2,2020-11-28 15:59:00.000000000,2020-11-29 01:30:00.000000000,37.185822,-80.137762,37.185701,-80.138357,0.0338021787939,On Rt. 612 (Poor Mountain Rd) in the County of Roanoke at Willett Ln; Rt. 786E/W (Roanoke County) motorists can expect potential delays in this area from 11/28/20 at 8:05 AM until 11/28/20 at 5:30 PM due to maintenance activities. All east lanes are alternating closures. All west lanes are alternating closures.,8302.0,Willett Ln,R,Bent Mountain,Roanoke County,VA,24059-2440,US,US/Eastern,KROA,2020-11-28 15:54:00,59.0,59.0,36.0,28.84,10.0,W,12.0,0.0,Fair,False,False,False,False,False,False,False,False,False,False,False,False,False,Day,Day,Day,Day
C-220683,2,2021-08-24 20:05:00.000000000,2021-08-24 20:19:00.000000000,39.825707,-76.68428,39.773467,-76.66842,3.70632778767,Slow traffic on I-83 S from PA-216/Exit 8 (I-83) to PA-851/Exit 4 (I-83) due to roadwork.,,I-83 S,R,Glen Rock,York,PA,17327,US,US/Eastern,KTHV,2021-08-24 19:53:00,77.0,77.0,84.0,29.5,10.0,CALM,0.0,0.0,Fair,False,False,False,False,False,False,False,False,False,False,False,False,False,Night,Day,Day,Day
C-220684,2,2021-08-19 14:58:17.000000000,2021-08-19 15:33:05.000000000,26.65104,-80.170508,26.65092000000001,-80.18190799999998,0.704028718962,Stationary traffic on FL-882 from Florida's Tpke (FL-882) to Entrance Ln (FL-882) due to roadwork.,7985.0,Forest Hill Blvd,L,West Palm Beach,Palm Beach,FL,33413,US,US/Eastern,KPBI,2021-08-19 14:53:00,90.0,90.0,59.0,30.05,10.0,E,9.0,0.0,Partly Cloudy,False,False,False,False,False,False,False,False,True,False,False,True,False,Day,Day,Day,Day
C-220685,2,2021-08-26 15:35:30.000000000,2021-08-26 15:56:30.000000000,40.109106,-82.998878,40.109302,-83.00326,0.231957561398,Stationary traffic from Worthington Galena Rd (E Wilson Bridge Rd) to US-23/N High St (Wilson Bridge Rd) due to roadwork.,449.0,E Wilson Bridge Rd,R,Worthington,Franklin,OH,43085-2320,US,US/Eastern,KOSU,2021-08-26 15:53:00,84.0,84.0,61.0,29.15,10.0,S,8.0,0.0,Fair,False,False,True,False,False,False,True,False,False,False,False,False,False,Day,Day,Day,Day
C-220686,4,2021-10-22 22:01:00.000000000,2021-10-23 05:44:00.000000000,34.156376,-118.413766,34.156656,-118.410556,0.184549479898,Construction on US-101 SB near COLDWATER CANYON AVE Take alternate route.,4730.0,Coldwater Canyon Ave,R,Studio City,Los Angeles,CA,91604-1052,US,US/Pacific,KBUR,2021-10-22 21:53:00,61.0,61.0,81.0,29.11,10.0,SE,8.0,0.0,Cloudy,False,False,False,False,True,False,False,False,False,False,False,True,False,Night,Night,Night,Night
C-220687,2,2021-05-19 05:17:00.000000000,2021-05-19 17:30:22.000000000,39.992775,-75.200879,39.919157,-75.189858,5.11990113097,Slow traffic on US-30 E - Schuylkill Expy E - I-76 E from US-1/Exit 340/Exit 339 (I-76) to Penrose Ave/Exit 348 (I-76) due to roadwork.,,I-76 E,R,Philadelphia,Philadelphia,PA,19131,US,US/Eastern,KPHL,2021-05-19 04:54:00,60.0,60.0,75.0,30.29,10.0,CALM,0.0,0.0,Fair,False,False,False,False,False,False,False,False,False,False,False,False,False,Night,Day,Day,Day
C-220688,2,2021-06-28 18:37:30.000000000,2021-06-29 20:40:54.000000000,34.454418,-111.442314,34.45417800000001,-111.438744,0.204068086433,Roadwork on Fossil Creek Rd (Pine) (AZ-87/AZ-260) from AZ-87 (AZ-260) to AZ-260 - AZ-87.,,State Route 87,R,Sedona,Coconino,AZ,86336,US,US/Mountain,KSEZ,2021-06-28 18:53:00,86.0,86.0,20.0,24.88,6.0,NE,12.0,0.0,Smoke,False,False,False,False,False,False,False,False,False,False,False,False,False,Day,Day,Day,Day
C-220689,2,2020-03-02 02:44:47.000000000,2020-03-06 02:48:08.000000000,40.85328,-73.8265,40.85328,-73.8265,0.0,At Pelham Pky/Exit 8 - Roadwork.,,Westchester Ave,R,Bronx,Bronx,NY,10461,US,US/Eastern,KLGA,2020-03-02 02:51:00,39.0,36.0,46.0,30.1,10.0,S,5.0,0.0,Mostly Cloudy,False,False,True,False,True,False,False,False,True,False,False,False,False,Night,Night,Night,Night
C-220690,2,2021-09-14 17:03:13.000000000,2021-09-14 17:24:12.000000000,28.536141,-81.285646,28.540131,-81.28568,0.275690468466,Slow traffic on FL-551 from Autumnvale Dr (S Goldenrod Rd/FL-551) to FL-408/East West Expy (S Goldenrod Rd/FL-551) due to roadwork.,627.0,S Goldenrod Rd,L,Orlando,Orange,FL,32822-8125,US,US/Eastern,KORL,2021-09-14 16:53:00,82.0,82.0,79.0,29.86,10.0,CALM,0.0,0.0,Fair,False,False,True,False,False,False,False,False,False,False,False,True,False,Day,Day,Day,Day
C-220691,2,2021-04-04 16:14:30.000000000,2021-04-04 22:51:02.000000000,39.368412,-94.545617,39.368611,-94.547704,0.112321632861,Roadwork on Mount Olivet Rd (MO-92) from US-169 (MO-92) to MO-92.,,County Road DD,R,Smithville,Clay,MO,64089,US,US/Central,KMCI,2021-04-04 15:53:00,80.0,80.0,35.0,28.94,10.0,SW,21.0,0.0,Fair / Windy,False,False,False,False,False,False,False,False,False,False,False,False,False,Day,Day,Day,Day
C-220692,4,2020-10-01 14:00:00.000000000,2020-10-24 00:00:00.000000000,44.08811,-92.899489,44.051785,-92.899467,2.50981870275,Road MN-56 is closed from CR-16 (MN-56) to US-14 (T-148/MN-56) due to construction work.,17091.0,595th St,L,Dodge Center,Dodge,MN,55927-7932,US,US/Central,KTOB,2020-10-01 13:55:00,48.0,44.0,76.0,28.76,10.0,WNW,9.0,0.0,Partly Cloudy,False,False,False,False,False,False,False,False,False,True,False,False,False,Day,Day,Day,Day
C-220693,2,2020-09-15 04:01:00.000000000,2020-09-15 12:46:00.000000000,34.160146999999995,-118.469732,34.053095,-118.229483,15.6082755026,Lane closure due to Drain Cleaning between Harbor / Pasadena Freeways Route 110 and Mission Rd,,US-101 S,R,Sherman Oaks,Los Angeles,CA,91403,US,US/Pacific,KVNY,2020-09-15 03:51:00,68.0,68.0,56.0,29.16,7.0,CALM,0.0,0.0,Smoke,False,False,False,False,True,False,False,False,False,False,False,False,False,Night,Night,Night,Night
C-220694,2,2020-06-10 06:59:10.000000000,2020-06-10 13:00:00.000000000,43.0958,-75.74046,43.0958,-75.74046,0.0,At RT-13/Exit 34 - Construction work. Left lane blocked.,,I-90 W,R,Canastota,Madison,NY,13032,US,US/Eastern,KSYR,2020-06-10 06:54:00,66.0,66.0,70.0,29.41,10.0,E,8.0,0.0,Mostly Cloudy,False,False,False,False,False,False,False,False,False,False,False,False,False,Day,Day,Day,Day
C-220695,2,2020-05-18 08:00:00.000000000,2020-05-18 14:30:00.000000000,41.60676,-87.0419,41.63013,-87.05011,1.6694718246,Between County Road 1200 N/E Porter Ave and US-20 - Roadwork on the hard shoulder.,700.0,E Porter Ave,L,Chesterton,Porter,IN,46304-9101,US,US/Central,KVPZ,2020-05-18 07:56:00,59.0,59.0,93.0,28.93,10.0,SSW,6.0,0.0,Cloudy,False,False,False,False,False,False,False,False,False,False,False,False,False,Day,Day,Day,Day
C-220696,2,2021-12-21 14:51:16.000000000,2021-12-21 16:54:16.000000000,34.069816,-84.297948,34.071909000000005,-84.296041,0.181177089973,Slow traffic on GA-9 - GA-120 from Janis Ln to Marietta St due to roadwork.,500.0,Janis Ln,R,Alpharetta,Fulton,GA,30009-1959,US,US/Eastern,KPDK,2021-12-21 14:53:00,41.0,37.0,82.0,28.83,10.0,N,6.0,0.02,Cloudy,False,False,True,False,False,False,False,False,False,False,False,False,False,Day,Day,Day,Day
C-220697,3,2020-11-13 07:00:00.000000000,2020-11-13 16:00:00.000000000,41.827824,-88.028145,,,12.25,Center lane closed due to construction work on I-355 Southbound between Exit 29 CR-11 Army Trail Rd and IL-56 Butterfield Rd.,,I-355 N,R,Downers Grove,DuPage,IL,60515,US,US/Central,KMDW,2020-11-13 06:53:00,34.0,25.0,70.0,29.46,10.0,NW,13.0,0.0,Partly Cloudy,False,False,False,False,False,False,False,False,False,False,False,False,False,Day,Day,Day,Day
C-220698,3,2017-05-09 19:02:04.000000000,2017-05-10 01:02:04.000000000,41.82407,-88.0283,41.8648,-88.03994,2.8772450331299995,Between I-88/IL-56/Butterfield Rd and IL-38/Roosevelt Rd - Roadwork.,,Veterans Memorial Tollway N,R,Downers Grove,DuPage,IL,60515,US,US/Central,KMDW,2017-05-09 18:53:00,55.9,,57.0,29.92,10.0,East,8.1,,Overcast,False,False,False,False,True,False,False,False,False,False,False,False,False,Day,Day,Day,Day
C-220699,2,2020-09-21 14:00:00.000000000,2020-09-26 02:45:00.000000000,43.243126,-77.07136,43.237428,-77.128001,2.87800428847,Construction on NY-104 WB near ROTTERDAM RD Drive with caution.,198.0,Rotterdam Rd,R,Sodus,Wayne,NY,14551-9745,US,US/Eastern,KROC,2020-09-21 13:54:00,65.0,65.0,33.0,29.92,10.0,NNE,7.0,0.0,Fair,False,False,False,False,False,False,False,False,False,False,False,False,False,Day,Day,Day,Day
C-220700,2,2021-03-02 06:14:30.000000000,2021-03-02 16:03:58.000000000,39.531384,-74.651329,39.52838300000001,-74.647026,0.309156698803,Slow traffic on US-30 E - US-30 W - County Hwy-563 from Elwood Rd/Weymouth Elwood Rd (White Horse Pike/US-30) to CR-563/Tilton Rd (W White Horse Pike/US-30) due to roadwork.,98.0,2nd Ter,R,Egg Harbor City,Atlantic,NJ,08215-1106,US,US/Eastern,KACY,2021-03-02 05:54:00,28.0,15.0,40.0,30.09,10.0,NW,22.0,0.0,Fair / Windy,False,False,False,False,False,False,False,False,False,False,False,False,False,Night,Day,Day,Day
C-220701,2,2017-02-18 09:01:04.000000000,2017-02-18 15:01:04.000000000,29.97989,-90.31356,29.92851,-90.3846,5.53972709025,Between US-61/Exit 2 and LA-18/Exit 7 - Roadwork.,,I-310 S,R,Saint Rose,St. Charles,LA,70087,US,US/Central,KMSY,2017-02-18 09:05:00,63.0,,87.0,29.94,10.0,NNW,3.5,,Mostly Cloudy,False,False,False,False,True,False,False,False,False,False,False,False,False,Day,Day,Day,Day
C-220702,2,2021-01-26 22:05:09.000000000,2021-01-27 01:34:34.000000000,34.738447,-92.261978,34.765871999999995,-92.261852,1.89490053156,Slow traffic on I-30 E - US-67 N - US-65 N - US-167 N from I-630/Exit 139 (I-30) to 15th St/Exit 142 (I-30) due to roadwork.,,I-30 E,R,Little Rock,Pulaski,AR,72202,US,US/Central,KLIT,2021-01-26 21:53:00,43.0,38.0,71.0,29.75,10.0,NNE,8.0,0.0,Mostly Cloudy,False,False,False,False,False,False,False,False,False,False,False,False,False,Night,Night,Night,Night
C-220703,2,2019-06-27 23:33:56.000000000,2019-07-01 23:33:50.000000000,39.80191,-86.16606,39.791282,-86.16596899999998,0.734340752799,Between 29th St/Exit 116 and Dr ML King St/Exit 114 - Roadwork. Right lane blocked.,,I-65 S,R,Indianapolis,Marion,IN,46208,US,US/Eastern,KEYE,2019-06-27 23:53:00,76.0,76.0,76.0,29.32,10.0,CALM,0.0,0.0,Fair,False,False,False,False,False,False,False,False,False,False,False,False,False,Night,Night,Night,Night
C-220704,2,2021-01-19 17:20:30.000000000,2021-01-19 20:20:23.000000000,39.072172,-80.204053,39.072099,-80.20294200000002,0.0598080846879,Roadwork on WV-20 (US-119) from CR-1/Hodgesville Hacker Crk (WV-20/US-119) to US-119 S - US-119 N - WV-20.,6053.0,Clarksburg Rd,L,Buckhannon,Upshur,WV,26201-6199,US,US/Eastern,KW22,2021-01-19 17:15:00,37.0,31.0,52.0,28.41,10.0,SW,8.0,0.0,Fair,False,False,False,False,False,False,False,False,False,False,False,False,False,Day,Day,Day,Day
C-220705,3,2021-04-07 00:00:00.000000000,2021-04-07 05:00:16.000000000,40.612167,-74.153442,,,0.0,Two lanes closed due to construction work on I-278 Eastbound at Exits 8 9 NY-440 Exit 10W.,,I-278 W,R,Staten Island,Richmond,NY,10314,US,US/Eastern,KLDJ,2021-04-07 00:15:00,55.0,55.0,18.0,29.95,10.0,N,3.0,0.0,Fair,False,False,False,False,False,False,False,False,False,False,False,False,False,Night,Night,Night,Night
C-220706,2,2021-04-15 10:39:01.000000000,2021-04-15 14:45:21.000000000,40.761793,-73.83300600000003,40.758944,-73.829901,0.255254181552,Slow traffic from Northern Blvd to Main St due to roadwork.,3601.0,Prince St,R,Flushing,Queens,NY,11354-4008,US,US/Eastern,KLGA,2021-04-15 10:35:00,51.0,51.0,86.0,29.74,2.0,E,7.0,0.0,Light Rain,True,False,True,False,False,False,False,False,True,False,False,True,False,Day,Day,Day,Day
C-220707,2,2021-10-05 07:17:00.000000000,2021-10-05 07:39:00.000000000,37.308686,-76.75536600000002,37.306687,-76.752183,0.222880362575,Stationary traffic from Glenburie Rd to Olde Towne Rd / Devon Rd due to roadwork.,4715.0,Longhill Rd,L,Williamsburg,James City,VA,23188-1556,US,US/Eastern,KJGG,2021-10-05 07:15:00,72.0,72.0,94.0,30.07,10.0,S,3.0,0.0,Partly Cloudy,False,False,False,False,False,False,False,False,False,False,False,True,False,Day,Day,Day,Day
C-220708,2,2021-04-02 06:00:00.000000000,2021-04-02 17:30:00.000000000,40.349112,-102.717551,40.350655,-102.715859,0.138938115952,Various Maintenance Activities,53001.0,State Highway 59,L,Yuma,Yuma,CO,80759-9713,US,US/Mountain,K2V5,2021-04-02 05:55:00,26.0,20.0,81.0,26.48,10.0,S,5.0,0.0,Fair,False,False,False,False,False,False,False,False,False,True,False,False,False,Night,Night,Day,Day
C-220709,2,2021-03-20 21:52:30.000000000,2021-10-06 18:45:30.000000000,35.828761,-92.563477,35.825038,-92.558864,0.3646247799329999,Stationary traffic on US-65 S - US-65 N from AR-27 (US-65) to AR-254 (US-65) due to roadwork.,6944.0,S Highway 65,R,Leslie,Searcy,AR,72645,US,US/Central,KCCA,2021-08-30 09:35:00,77.0,77.0,89.0,29.41,7.0,CALM,0.0,0.0,Fair,False,False,False,False,False,False,False,False,False,False,False,False,False,Night,Night,Night,Night
C-220710,2,2017-04-07 20:20:21.000000000,2017-04-08 02:22:11.000000000,40.03705,-75.58214,40.03317,-75.58518000000002,0.312620167423,At US-30 - Roadwork. Lane blocked.,,US-202 S,R,Malvern,Chester,PA,19355,US,US/Eastern,KOQN,2017-04-07 20:15:00,39.0,30.0,61.0,28.99,10.0,NW,16.0,0.0,Cloudy,False,False,False,False,False,False,False,False,False,False,False,False,False,Night,Night,Day,Day
C-220711,2,2021-11-16 06:12:30.000000000,2021-11-16 14:55:30.000000000,41.95186500000001,-87.727818,41.881594,-87.645978,6.42481067997,Slow traffic on I-94 E - I-90 E - Kennedy Expy E from Keeler Ave/Exit 44A (I-90/I-94) to Monroe St/Exit 51E (I-90/I-94) due to roadwork.,,I-90 E,R,Chicago,Cook,IL,60641,US,US/Central,KORD,2021-11-16 05:51:00,32.0,32.0,82.0,29.33,10.0,CALM,0.0,0.0,Cloudy,False,False,True,False,False,False,False,False,True,False,False,False,False,Night,Day,Day,Day
C-220712,2,2021-08-20 13:54:43.000000000,2021-08-20 14:22:26.000000000,40.626561,-74.01531899999998,40.624291,-74.02007900000002,0.294802350759,Slow traffic from 65th St (Fort Hamilton Pkwy) to I-278 (Fort Hamilton Pkwy) due to roadwork.,7343.0,Fort Hamilton Pkwy,L,Brooklyn,Kings,NY,11228-1921,US,US/Eastern,KJRB,2021-08-20 13:51:00,80.0,80.0,64.0,29.81,10.0,VAR,6.0,0.0,Mostly Cloudy,False,False,False,False,False,False,False,False,True,False,False,True,False,Day,Day,Day,Day
C-220713,2,2021-10-12 16:00:30.000000000,2021-10-12 18:10:45.000000000,33.491671999999994,-112.220559,33.495105,-112.220566,0.237198052246,Slow traffic from W Thomas Rd (N 75th Ave) to W Camelback Rd (N 75th Ave) due to roadwork.,3825.0,N 75th Ave,R,Phoenix,Maricopa,AZ,85033-3703,US,US/Mountain,KGEU,2021-10-12 15:58:00,69.0,69.0,15.0,28.68,10.0,WSW,10.0,0.0,Fair,False,False,False,False,False,False,False,False,True,False,False,False,False,Day,Day,Day,Day
C-220714,2,2021-10-31 03:16:30.000000000,2021-10-31 04:02:30.000000000,45.582121,-118.610298,45.580874,-118.585934,1.18134220408,Slow traffic on Old Oregon Trail Hwy No 6 - I-84 E - US-30 E - Old Oregon Trl from OR-331/Market Rd/Exit 216 (I-84) to Poverty Flat Rd/Exit 224 (I-84) due to roadwork.,,I-84 E,R,Pendleton,Umatilla,OR,97801,US,US/Pacific,KPDT,2021-10-31 02:53:00,39.0,36.0,86.0,28.54,10.0,N,5.0,0.0,Cloudy,False,False,False,False,False,False,False,False,False,False,False,False,False,Night,Night,Night,Night
C-220715,2,2018-03-23 09:01:08.000000000,2018-03-23 15:01:08.000000000,33.859728999999994,-84.656139,33.859966,-84.64471400000002,0.655718204519,Between Ponderosa Ln SW and Anderson Farm Rd - Construction work.,3470.0,Powder Springs Rd,R,Powder Springs,Cobb,GA,30127-2322,US,US/Eastern,KMGE,2018-03-23 08:56:00,43.3,39.9,50.0,30.32,10.0,NNW,5.8,,Mostly Cloudy,False,False,False,False,False,False,False,False,False,False,False,False,False,Day,Day,Day,Day
C-220716,2,2019-07-23 20:00:00.000000000,2019-07-24 06:00:00.000000000,35.191792,-90.011993,,,2.38000011444,Intermittent lane closures due to maintenance work on TN-300 both ways between US-51 Thomas St and I-40 Exits 2A 3.,,I-40 W,R,Memphis,Shelby,TN,38127,US,US/Central,KNQA,2019-07-23 19:50:00,73.0,73.0,65.0,29.71,10.0,N,5.0,0.0,Fair,False,False,False,False,False,False,False,False,False,False,False,False,False,Day,Day,Day,Day
C-220717,2,2019-06-05 12:45:14.000000000,2019-06-13 23:08:21.000000000,39.72231,-76.65549,39.828439,-76.68474,7.49551509397,Between Pennsylvania/MD State Line and PA-216/Exit 8 - Roadwork. Traffic problem.,,I-83 N,R,New Freedom,York,PA,17349,US,US/Eastern,KTHV,2019-06-05 12:53:00,80.0,80.0,52.0,29.35,10.0,SSW,9.0,0.0,Fair,False,False,False,False,False,False,False,False,False,False,False,False,False,Day,Day,Day,Day
C-220718,2,2021-03-17 00:00:00.000000000,2021-03-22 00:45:00.000000000,39.751005,-104.90939,39.750998,-104.906977,0.128182220865,Construction on E 23RD AVE EB near N NEWPORT ST Expect delays.,2298.0,N Newport St,R,Denver,Denver,CO,80207,US,US/Mountain,KBKF,2021-03-17 00:58:00,28.0,22.0,99.0,24.31,10.0,NNE,6.0,0.0,Cloudy,False,False,False,False,False,False,False,False,False,False,False,False,False,Night,Night,Night,Night
C-220719,2,2018-12-16 20:00:00.000000000,2018-12-17 05:00:00.000000000,38.701797,-76.875862,,,0.6899999976160001,Lane closed due to construction work on MD-381 Brandywine Rd Westbound between US-301 and MD-5 Branch Ave.,13650.0,Branch Ave,L,Brandywine,Prince George's,MD,20613,US,US/Eastern,KADW,2018-12-16 19:56:00,40.6,33.8,89.0,29.92,10.0,NNW,11.5,,Overcast,False,False,False,False,False,False,False,False,False,False,False,False,False,Night,Night,Night,Night
C-220720,2,2017-07-24 22:12:50.000000000,2017-07-25 04:16:32.000000000,40.10732,-74.89416999999997,40.163939,-74.90015,3.92473297922,Between Street Rd/Exit 37 and PA-413/US-1-BR/Exit 44 - Roadwork. Lane blocked.,,I-95 N,R,Bristol,Bucks,PA,19007,US,US/Eastern,KPNE,2017-07-24 21:54:00,70.0,,90.0,29.91,10.0,SE,11.5,0.15,Light Rain,False,False,False,False,False,False,False,False,False,False,False,False,False,Night,Night,Night,Day
C-220721,2,2020-12-09 05:00:00.000000000,2020-12-09 13:00:00.000000000,33.92017,-84.320636,33.919709999999995,-84.31548599999998,0.29698071638,Roadwork from Chamblee-Dunwoody Rd exit [30] to Savoy Dr / Chamblee Dunwoody Rd.,,GA-407 E,R,Atlanta,DeKalb,GA,30319,US,US/Eastern,KPDK,2020-12-09 04:53:00,31.0,25.0,79.0,29.03,10.0,WNW,6.0,0.0,Fair,False,False,True,False,False,False,False,False,False,False,False,True,False,Night,Night,Night,Night
C-220722,2,2021-07-06 10:28:49.000000000,2021-07-06 15:35:05.000000000,40.819114,-73.810321,40.816899,-73.799763,0.5728893951240001,Slow traffic on I-295 S from Throgs Neck Bridge Toll Plaza (I-295) to Bell Blvd/Cross Island Pkwy/Exit 7 (I-295) due to roadwork.,,Throgs Neck Expy S,R,Bronx,Bronx,NY,10465,US,US/Eastern,KLGA,2021-07-06 10:51:00,87.0,87.0,53.0,29.95,10.0,SW,13.0,0.0,Partly Cloudy,False,False,False,False,False,False,False,False,False,False,False,False,False,Day,Day,Day,Day
C-220723,2,2021-11-03 17:03:14.000000000,2021-11-03 17:53:01.000000000,25.587816,-80.384962,25.584306,-80.38897,0.348138142296,Stationary traffic on FL-994 from FL-821/Florida's Tpke (Quail Roost Dr/FL-994) to Burr Rd/SW 127th Ave (Quail Roost Dr/FL-994) due to roadwork.,11948.0,Quail Roost Dr,L,Miami,Miami-Dade,FL,33177,US,US/Eastern,KTMB,2021-11-03 16:53:00,81.0,81.0,60.0,29.99,10.0,E,12.0,0.0,Cloudy,False,False,False,False,False,False,False,False,False,False,False,True,False,Day,Day,Day,Day
C-220724,2,2017-01-26 09:00:00.000000000,2017-01-31 15:00:00.000000000,33.71586,-117.77645,33.715959999999995,-117.77635,0.0089871690792,At Bryan Ave - Construction work.,13550.0,Culver Dr,L,Irvine,Orange,CA,92620,US,US/Pacific,KSNA,2017-01-26 08:53:00,50.0,,66.0,30.34,10.0,Calm,,,Clear,False,False,False,False,False,False,False,False,False,False,False,True,False,Day,Day,Day,Day
C-220725,2,2020-04-28 19:44:06.000000000,2020-04-28 20:44:06.000000000,38.80185,-77.51633000000002,38.79866,-77.58906999999998,3.92302225965,Between US-29/Exit 52 and US-29/Exit 43 - Roadwork. Left lane closed.,,I-66 W,R,Manassas,Prince William,VA,20109,US,US/Eastern,KHEF,2020-04-28 19:56:00,53.0,53.0,77.0,29.9,10.0,E,5.0,0.0,Cloudy,False,False,False,False,False,False,False,False,False,False,False,False,False,Day,Day,Day,Day
C-220726,2,2017-07-14 05:30:52.000000000,2017-07-14 11:30:52.000000000,42.70224,-71.20997,42.70972,-71.21090500000003,0.5189945092189999,At RT-110/RT-113/Exit 46 - Construction work.,,I-93 N,R,Methuen,Essex,MA,01844,US,US/Eastern,KLWM,2017-07-14 05:52:00,60.8,,82.0,30.15,10.0,North,3.5,,Overcast,False,False,False,False,True,False,False,False,False,False,False,False,False,Day,Day,Day,Day
C-220727,2,2021-11-06 16:53:30.000000000,2021-11-06 20:00:03.000000000,25.929465,-80.188313,25.928634,-80.18888000000003,0.0673645995691,Stationary traffic on FL-915 - FL-826 from NE 169th St to NE 5th Ave due to roadwork.,16700.0,NE 6th Ave,L,North Miami Beach,Miami-Dade,FL,33162-2410,US,US/Eastern,KHWO,2021-11-06 16:53:00,72.0,72.0,64.0,29.9,10.0,WNW,13.0,0.0,Cloudy,False,False,False,False,False,False,False,False,True,False,False,False,False,Day,Day,Day,Day
C-220728,2,2018-11-08 04:39:03.000000000,2018-12-31 12:00:00.000000000,37.369587,-78.826797,,,0.0,Construction work on US-460 Richmond Hwy Eastbound at VA-131 Old Courthouse Rd.,537.0,Old Courthouse Rd,L,Appomattox,Appomattox,VA,24522,US,US/Eastern,KLYH,2018-11-08 04:54:00,51.1,,63.0,30.14,10.0,Variable,3.5,,Partly Cloudy,False,False,False,False,False,False,False,False,False,False,False,False,False,Night,Night,Night,Night
C-220729,2,2020-08-27 04:01:00.000000000,2020-08-27 12:46:00.000000000,38.561953,-121.486293,38.57051,-121.514793,1.64927943958,Lane closure due to Survey Work between Camellia Cy Viaduct and Eb Off To 15 &amp; X St,2268.0,20th St,R,Sacramento,Sacramento,CA,95818-1704,US,US/Pacific,KSAC,2020-08-27 03:53:00,58.0,58.0,81.0,29.75,10.0,S,6.0,0.0,Smoke,False,False,False,False,False,False,False,False,False,False,False,False,False,Night,Night,Night,Night
C-220730,2,2021-07-07 07:52:30.000000000,2021-07-07 09:07:30.000000000,41.735338,-87.697666,41.734319,-87.70231,0.249580454196,Stationary traffic from S Sacramento Ave to W 88th St due to roadwork.,3014.0,W 87th St,R,Chicago,Cook,IL,60652,US,US/Central,KMDW,2021-07-07 07:53:00,79.0,79.0,66.0,29.27,10.0,SW,8.0,0.0,Mostly Cloudy,False,False,False,False,False,False,False,False,True,False,False,False,False,Day,Day,Day,Day
C-220731,2,2021-02-13 01:11:30.000000000,2021-02-13 17:55:30.000000000,41.970647,-87.747407,41.958071,-87.738949,0.971512882832,Slow traffic on Edens Expy S - I-94 E from Elston Ave (I-94) to I-90/Kennedy Expy (I-94) due to roadwork.,,Edens Expy S,R,Chicago,Cook,IL,60630,US,US/Central,KORD,2021-02-13 01:21:00,6.0,-8.0,73.0,29.63,2.0,NNW,9.0,0.0,Light Snow,False,False,False,False,False,False,False,False,False,False,False,False,False,Night,Night,Night,Night
C-220732,2,2020-08-27 13:13:00.000000000,2020-08-28 03:47:00.000000000,40.743693,-73.88448100000002,40.741299,-73.880277,0.275304952939,Slow traffic from I-278/Brooklyn Queens Expy (Broadway) to NY-25/Queens Blvd (Broadway) due to resurfacing work.,8025.0,Broadway,L,Elmhurst,Queens,NY,11373-3160,US,US/Eastern,KLGA,2020-08-27 12:51:00,87.0,87.0,53.0,29.69,10.0,SW,14.0,0.0,Partly Cloudy,True,False,True,True,False,False,False,False,True,False,False,True,False,Day,Day,Day,Day
C-220733,2,2021-02-23 21:37:00.000000000,2021-02-24 22:48:17.000000000,27.073011,-80.247215,27.083731,-80.252021,0.7975124453569999,Construction on FLORIDA'S TPKE NB near MM 127 Construction. Left lane closed.,,Florida's Tpke N,R,Hobe Sound,Martin,FL,33455,US,US/Eastern,KSUA,2021-02-23 21:48:00,72.0,72.0,69.0,30.12,10.0,ENE,6.0,0.0,Fair,False,False,False,False,False,False,False,False,False,False,False,False,False,Night,Night,Night,Night
C-220734,2,2020-11-25 19:47:30.000000000,2020-11-26 02:47:36.000000000,33.494021999999994,-112.099909,33.495025,-112.100283,0.0725739551536,Slow traffic from W Amelia Ave to N 20th Ave due to roadwork.,4031.0,N 19th Ave,R,Phoenix,Maricopa,AZ,85015-5302,US,US/Mountain,KPHX,2020-11-25 19:51:00,60.0,60.0,26.0,28.8,10.0,SW,3.0,0.0,Fair,True,False,True,False,False,False,False,False,True,True,False,True,False,Night,Night,Night,Night
C-220735,2,2020-08-08 02:59:00.000000000,2020-08-10 02:45:00.000000000,39.10306,-97.65247,39.045255,-97.651589,3.99422467471,Construction on US-81 SB near MM 169 Expect delays.,,US-81 S,R,Minneapolis,Ottawa,KS,67467,US,US/Central,KSLN,2020-08-08 02:53:00,78.0,78.0,71.0,28.53,10.0,S,12.0,0.0,Fair,False,False,False,False,False,False,False,False,False,False,False,False,False,Night,Night,Night,Night
C-220736,2,2021-11-17 17:17:30.000000000,2021-11-17 17:44:30.000000000,39.786922,-105.081301,39.79321,-105.079856,0.4411807008169999,Stationary traffic on CO-121 from CR-58/W 44th Ave (Wadsworth Blvd/CO-121) to Ralston Rd/W 58th Ave (Wadsworth/CO-121) due to roadwork.,,Wadsworth Blvd,R,Arvada,Jefferson,CO,80002,US,US/Mountain,KBJC,2021-11-17 16:45:00,32.0,26.0,41.0,24.58,10.0,E,6.0,0.0,Fair,False,False,True,False,False,False,False,False,False,False,False,True,False,Night,Night,Day,Day
C-220737,2,2021-05-24 19:42:31.000000000,2021-05-25 01:46:18.000000000,41.102331,-73.997865,41.103841,-74.023085,1.31718806415,NYSTA - Statewide Ops.: road maintenance operations left lane closed on I-87 - NYS Thruway southbound from After Exit 13 (I-87) - Palisades Interstate Parkway to After Exit 13 (I-87) - Palisades Interstate Parkway until 6:30 AM 05/25/2021 [CARS CAD-2114,,I-287 W,R,Nanuet,Rockland,NY,10954,US,US/Eastern,KHPN,2021-05-24 19:56:00,56.0,56.0,51.0,29.82,10.0,S,8.0,0.0,Mostly Cloudy,False,False,False,False,True,False,False,False,False,False,False,False,False,Day,Day,Day,Day
C-220738,2,2020-05-20 14:33:51.000000000,2020-07-18 16:43:37.000000000,41.38305,-75.72658,41.48488,-75.68191999999998,7.406357629689999,Between Keyser Avenue Toll Plaza and Clarks Summit Toll Plaza - Roadwork. Right lane closed.,,I-476 N,R,Taylor,Lackawanna,PA,18517,US,US/Eastern,KAVP,2020-05-20 22:54:00,52.0,52.0,50.0,29.35,10.0,E,3.0,0.0,Fair,False,False,False,False,False,False,False,False,False,False,False,False,False,Day,Day,Day,Day
C-220739,2,2019-01-23 07:00:00.000000000,2019-02-25 07:00:00.000000000,42.35228,-84.053772,,,8.18999958038,Shoulder closed due to maintenance work on M-52 both ways from Territorial Rd to Clarks Lake Rd.,19195.0,N MI State Road 52,R,Chelsea,Washtenaw,MI,48118-9567,US,US/Eastern,KARB,2019-01-23 06:53:00,34.0,29.8,96.0,29.83,5.0,SE,4.6,0.03,Overcast,False,False,False,False,False,False,False,False,False,False,False,False,False,Night,Night,Day,Day
C-220740,2,2020-05-22 10:44:58.000000000,2020-05-25 10:44:58.000000000,41.18889,-80.72444,41.18889,-80.72444,0.0,At OH-169/CR-28/Tibbetts-Wick Rd - Resurfacing work.,425.0,Youngstown Warren Rd,L,Niles,Trumbull,OH,44446-4350,US,US/Eastern,KYNG,2020-05-22 10:51:00,60.0,60.0,86.0,28.81,5.0,ESE,5.0,0.04,Light Rain,False,False,False,False,False,False,False,False,False,False,False,False,False,Day,Day,Day,Day
C-220741,2,2021-12-08 11:53:30.000000000,2021-12-08 14:34:15.000000000,34.024014,-118.355459,34.021519,-118.354858,0.175790097368,Stationary traffic from W Jefferson Blvd to W Martin Luther King Jr Blvd due to roadwork.,3447.0,S La Brea Ave,R,Los Angeles,Los Angeles,CA,90016-5257,US,US/Pacific,KSMO,2021-12-08 11:51:00,64.0,64.0,65.0,29.83,10.0,SW,8.0,0.0,Fair,False,False,False,False,False,False,False,False,False,False,False,False,False,Day,Day,Day,Day
C-220742,2,2021-09-23 16:36:32.000000000,2021-09-23 19:01:54.000000000,25.926078,-80.14913299999998,25.926202,-80.153676,0.282430852333,Slow traffic on FL-826 from FL-A1A/Collins Ave (FL-826) to US-1/FL-5/Biscayne Blvd (FL-826) due to roadwork.,,NE 163rd St,R,North Miami Beach,Miami-Dade,FL,33160,US,US/Eastern,KHWO,2021-09-23 16:33:00,87.0,87.0,65.0,29.84,10.0,SE,14.0,0.0,Thunder in the Vicinity,False,False,True,False,False,False,False,False,False,False,False,True,False,Day,Day,Day,Day
C-220743,2,2019-02-13 05:37:02.000000000,2019-02-17 05:36:54.000000000,42.35825,-71.06151,42.35805,-71.06066,0.0455449095692,At Walnut St - Maintenance work. Lane blocked.,6.0,Beacon St,L,Boston,Suffolk,MA,02108-3801,US,US/Eastern,KBOS,2019-02-13 05:27:00,39.0,32.3,89.0,29.48,2.5,NW,10.4,0.0,Light Rain,True,False,True,False,False,False,False,False,True,False,False,True,False,Night,Night,Night,Day
C-220744,2,2021-10-08 10:12:30.000000000,2021-10-08 18:41:34.000000000,44.033203,-70.96744100000002,44.021605,-70.97404399999998,0.8658851995610001,Stationary traffic on ME-5 from Leach Rd to Bridgton Rd due to roadwork.,1215.0,Main St,R,Fryeburg,Oxford,ME,04037-4309,US,US/Eastern,KIZG,2021-10-08 09:54:00,61.0,61.0,75.0,29.71,10.0,CALM,0.0,0.0,Fair,False,False,False,False,False,False,False,False,False,True,False,False,False,Day,Day,Day,Day
C-220745,2,2020-10-07 02:00:00.000000000,2020-10-07 12:45:00.000000000,29.697426,-95.310312,29.697472,-95.310665,0.0214235115142,Construction on I-610 FRONTAGE RD EB near BROAD Expect delays.,6435.0,South Loop E,L,Houston,Harris,TX,77087-1223,US,US/Central,KHOU,2020-10-07 01:53:00,69.0,69.0,61.0,29.96,10.0,NE,7.0,0.0,Fair,False,False,False,False,False,False,False,False,False,True,False,False,False,Night,Night,Night,Night
C-220746,2,2018-02-08 09:00:00.000000000,2018-02-08 15:00:00.000000000,29.736262,-95.60589,29.735640000000004,-95.6441,2.29282052801,Between Dairy Ashford Rd and TX-6 S - Construction work. Lane closed.,2598.0,S Dairy Ashford Rd,L,Houston,Harris,TX,77077-5714,US,US/Central,KSGR,2018-02-08 08:53:00,45.0,40.1,71.0,30.44,10.0,ENE,9.2,,Clear,False,False,True,False,False,False,False,False,False,False,False,True,False,Day,Day,Day,Day
C-220747,2,2021-04-05 06:31:30.000000000,2021-04-05 12:40:34.000000000,36.088801,-96.01774,36.088964,-96.001218,0.9225693616,Slow traffic on I-44 E - OK-66 E from S 33rd West Ave/Exit 223 (I-44) to US-75/Exit 224 (I-44) due to roadwork.,,I-44 E,R,Tulsa,Tulsa,OK,74107,US,US/Central,KRVS,2021-04-05 06:53:00,62.0,62.0,75.0,29.3,10.0,SSW,6.0,0.0,Cloudy,False,False,False,False,False,False,False,False,False,False,False,False,False,Night,Night,Day,Day
C-220748,2,2021-08-28 09:24:30.000000000,2021-08-28 09:49:30.000000000,40.710579,-74.00735,40.711219,-74.00646,0.0642503600551,Slow traffic from Ann St to Beekman St due to roadwork.,100.0,Nassau St,R,New York,New York,NY,10038-2702,US,US/Eastern,KJRB,2021-08-28 09:51:00,74.0,74.0,71.0,30.15,10.0,ENE,7.0,0.0,Cloudy,True,False,True,False,False,False,True,False,False,True,False,False,False,Day,Day,Day,Day
C-220749,2,2020-09-15 13:30:30.000000000,2020-09-16 03:00:00.000000000,42.739593,-73.681,42.739761,-73.683633,0.134115648099,Stationary traffic on NY-7 from Lake Ave (Hoosick St/NY-7) to 6th Ave (NY-7) due to roadwork.,95.0,Hoosick St,L,Troy,Rensselaer,NY,12180,US,US/Eastern,KALB,2020-09-15 13:51:00,59.0,59.0,51.0,30.01,10.0,CALM,0.0,0.0,Cloudy,False,False,False,False,False,False,False,False,False,False,False,False,False,Day,Day,Day,Day
C-220750,2,2021-04-30 02:35:30.000000000,2021-12-15 13:16:42.000000000,47.01802,-114.646184,47.019201,-114.658353,0.5790017477080001,Slow traffic on I-90 W from Old MT-10/Exit 70 (I-90) to Exit 61 (Superior) (I-90) due to roadwork.,,I-90 W,R,Alberton,Mineral,MT,59820,US,US/Mountain,KMSO,2021-06-02 15:53:00,87.0,87.0,29.0,26.62,9.0,S,6.0,0.0,Fair,False,False,False,False,False,False,False,False,False,False,False,False,False,Night,Night,Night,Night
C-220751,2,2020-12-07 00:05:30.000000000,2020-12-07 00:35:30.000000000,40.699099,-73.956071,40.694684,-73.955212,0.308348494,Slow traffic from Flushing Ave to Myrtle Ave due to roadwork.,469.0,Flushing Ave,L,Brooklyn,Kings,NY,11205-1610,US,US/Eastern,KJRB,2020-12-07 00:51:00,33.0,28.0,59.0,29.73,10.0,VAR,6.0,0.0,Fair,False,False,True,False,False,False,False,False,False,False,False,True,False,Night,Night,Night,Night
C-220752,2,2020-10-16 12:35:00.000000000,2020-10-16 20:28:00.000000000,40.255648,-76.87200899999998,40.254411,-76.868447,0.206357438327,Queuing traffic on PA-230 from S 2nd St to I-83 S due to roadwork.,,Paxton St,R,Harrisburg,Dauphin,PA,17104,US,US/Eastern,KCXY,2020-10-16 12:56:00,60.0,60.0,46.0,29.76,10.0,WNW,13.0,0.0,Mostly Cloudy,False,False,True,False,False,False,True,False,False,False,False,False,False,Day,Day,Day,Day
C-220753,4,2016-10-21 12:57:05.000000000,2016-10-21 18:57:05.000000000,42.057362,-86.475325,42.058874,-86.475338,0.104471378938,Closed between Lincoln Path and Clemens Ave - Closed. Maintenance work.,3339.0,Lincoln Ave,L,Saint Joseph,Berrien,MI,49085-3704,US,US/Eastern,KBEH,2016-10-21 12:53:00,51.1,,59.0,30.14,10.0,Variable,6.9,,Mostly Cloudy,False,False,False,False,False,False,False,False,False,False,False,False,False,Day,Day,Day,Day
C-220754,2,2020-09-25 04:01:00.000000000,2020-09-25 11:59:00.000000000,34.131008,-118.349142,34.134264,-118.356046,0.454441416057,Lane closure due to K-Rail Installation between Highland Ave and Ventura Freeway Route 101,,Hollywood Fwy N,R,Los Angeles,Los Angeles,CA,90068,US,US/Pacific,KBUR,2020-09-25 03:53:00,64.0,64.0,60.0,29.07,10.0,CALM,0.0,0.0,Fair,False,False,False,False,False,False,False,False,False,False,False,False,False,Night,Night,Night,Night
C-220755,2,2020-10-13 14:20:00.000000000,2020-10-14 02:20:54.000000000,43.6194,-116.356154,43.620576,-116.35439,0.119947102863,Queuing traffic on ID-55 from N Hickory Ave / N Hickory Way to E Longwing Ln due to roadwork.,3149.0,E Fairview Ave,R,Meridian,Ada,ID,83642,US,US/Mountain,KMAN,2020-10-13 14:15:00,63.0,63.0,52.0,27.42,10.0,ESE,8.0,0.0,Partly Cloudy,False,False,True,False,False,False,False,False,False,False,False,False,False,Day,Day,Day,Day
C-220756,2,2021-01-01 10:12:35.000000000,2021-01-02 10:58:05.000000000,32.817609999999995,-96.639215,32.816294,-96.641678,0.16947515435,Construction on I-30 WB near GUS THOMASSON RD Allow extra time.,,Gus Thomasson Rd,R,Mesquite,Dallas,TX,75150,US,US/Central,KHQZ,2021-01-01 09:50:00,37.0,29.0,87.0,29.45,10.0,W,13.0,0.0,Cloudy,False,False,False,False,False,False,False,False,False,False,False,False,False,Day,Day,Day,Day
C-220757,2,2019-01-14 07:00:00.000000000,2019-01-14 15:30:00.000000000,41.310806,-74.12735,,,12.8500003815,Intermittent lane closures due to construction work on NY-17 both ways between Exit 130 NY-208 and Exit 131 I-87.,,I-87 S,R,Central Valley,Orange,NY,10917,US,US/Eastern,KSWF,2019-01-14 06:45:00,10.4,,85.0,30.3,15.0,Calm,,,Partly Cloudy,False,False,False,False,False,False,False,False,False,False,False,False,False,Night,Day,Day,Day
C-220758,2,2020-10-15 16:00:30.000000000,2020-10-15 18:22:30.000000000,40.024532,-75.226747,40.032149,-75.239728,0.865242164656,Slow traffic on I-76 from US-1/City Ave/Exit 340/Exit 339 (I-76) to Hollow Rd/Exit 337 (I-76) due to roadwork.,,I-76 W,R,Bala Cynwyd,Montgomery,PA,19004,US,US/Eastern,KLOM,2020-10-15 15:55:00,74.0,74.0,48.0,29.58,10.0,S,15.0,0.0,Fair,False,False,False,False,True,False,False,False,False,False,False,False,False,Day,Day,Day,Day
C-220759,2,2020-11-23 14:15:30.000000000,2020-11-23 23:04:43.000000000,33.399223,-111.719272,33.392887,-111.719421,0.4378602739859999,Slow traffic from E Broadway Rd (S Higley Rd) to US-60/Superstition Fwy (S Higley Rd) due to roadwork.,858.0,S Higley Rd,L,Mesa,Maricopa,AZ,85206,US,US/Mountain,KFFZ,2020-11-23 13:51:00,76.0,76.0,20.0,28.56,10.0,WNW,12.0,0.0,Partly Cloudy,False,False,False,False,False,False,False,False,False,False,False,False,False,Day,Day,Day,Day
C-220760,2,2021-04-24 07:00:00.000000000,2021-04-24 17:45:00.000000000,39.343854,-83.39020699999998,39.33237800000001,-83.398054,0.8969686746860001,Construction on OH-753 SB near MCKELL AVE Construction. Expect long delays.,799.0,S 7th St,R,Greenfield,Highland,OH,45123-1517,US,US/Eastern,KILN,2021-04-24 06:54:00,44.0,44.0,79.0,28.85,10.0,E,3.0,0.0,Cloudy,False,False,False,False,False,False,False,False,False,False,False,False,False,Day,Day,Day,Day
C-220761,2,2021-12-07 07:17:30.000000000,2021-12-07 07:47:30.000000000,26.255876,-80.282106,26.259838,-80.282156,0.273765659841,Stationary traffic from FL-814/W Atlantic Blvd (Coral Ridge Dr) to FL-834/W Sample Rd (Coral Ridge Dr) due to roadwork.,1947.0,Coral Ridge Dr,L,Coral Springs,Broward,FL,33071-7801,US,US/Eastern,KFXE,2021-12-07 06:53:00,65.0,65.0,97.0,30.07,10.0,CALM,0.0,0.0,Fair,False,False,False,False,False,False,False,False,False,False,False,False,False,Day,Day,Day,Day
C-220762,2,2020-06-17 17:47:57.000000000,2020-06-18 08:00:00.000000000,28.54697,-81.55804,28.54658,-81.55795,0.0274945141151,At Florida's Tpke/Exit 22 - Resurfacing work during the night.,,Daniel Webster Western Beltway S,R,Winter Garden,Orange,FL,34787,US,US/Eastern,KORL,2020-06-17 17:53:00,81.0,81.0,72.0,29.9,5.0,E,12.0,0.04,Rain,False,False,False,False,True,False,False,False,False,False,False,False,False,Day,Day,Day,Day
C-220763,2,2021-10-05 17:01:09.000000000,2021-10-05 19:03:26.000000000,25.747537,-80.337062,25.748123,-80.335622,0.0983381820608999,Stationary traffic on County Hwy-913 - FL-973 - FL-972 from SW 88th Ave to SW 21st St / SW 21st Ter due to roadwork.,8761.0,SW 24th St,L,Miami,Miami-Dade,FL,33165-2092,US,US/Eastern,KMIA,2021-10-05 16:53:00,86.0,86.0,61.0,29.94,10.0,E,10.0,0.0,Partly Cloudy,True,False,True,False,False,False,False,False,True,False,False,False,False,Day,Day,Day,Day
C-220764,2,2021-08-01 12:37:30.000000000,2021-08-01 17:58:49.000000000,41.854486,-87.666116,41.852335,-87.6671,0.157010857249,Slow traffic from W Cullerton St to S Paulina St due to roadwork.,2012.0,S Ashland Ave,R,Chicago,Cook,IL,60608-2906,US,US/Central,KMDW,2021-08-01 12:53:00,76.0,76.0,46.0,29.38,10.0,NE,16.0,0.0,Fair,False,False,False,False,False,False,False,False,False,False,False,False,False,Day,Day,Day,Day
C-220765,2,2021-12-07 14:25:00.000000000,2021-12-07 16:50:14.000000000,32.95171,-117.064345,32.952568,-117.062579,0.118312817639,Slow traffic on County Hwy-S4 from Oak Knoll Rd to Robison Blvd due to roadwork.,12315.0,Poway Rd,L,Poway,San Diego,CA,92064-4218,US,US/Pacific,KRNM,2021-12-07 14:29:00,56.0,56.0,80.0,28.49,10.0,CALM,0.0,0.0,Cloudy,False,False,False,False,False,False,False,False,False,False,False,False,False,Day,Day,Day,Day
C-220766,2,2020-12-15 14:02:00.000000000,2020-12-16 03:18:37.000000000,26.437951,-80.071753,26.439809000000004,-80.0722,0.131320448358,Slow traffic on US-1 N - FL-5 from Eve St to Old Dixie Hwy / Linton Blvd due to roadwork.,1901.0,S Federal Hwy,R,Delray Beach,Palm Beach,FL,33483-3312,US,US/Eastern,KBCT,2020-12-15 13:53:00,77.0,77.0,76.0,29.94,10.0,ESE,6.0,0.0,Partly Cloudy,False,False,True,False,False,False,False,False,False,False,False,False,False,Day,Day,Day,Day
C-220767,2,2020-09-24 14:19:00.000000000,2020-09-25 02:49:19.000000000,40.79736,-77.871993,40.796118,-77.871399,0.0912654124073999,Queuing traffic on US-322 Bus E from Fischer Rd to Curtin Rd due to roadwork.,240.0,W Park Ave,L,State College,Centre,PA,16803-3515,US,US/Eastern,KUNV,2020-09-24 13:53:00,72.0,72.0,60.0,28.67,10.0,CALM,0.0,0.0,Fair,False,False,False,False,False,False,False,False,False,False,False,False,False,Day,Day,Day,Day
C-220768,2,2020-09-02 01:03:00.000000000,2020-09-02 01:23:30.000000000,40.745373,-73.994695,40.747768,-74.000383,0.340636000336,Slow traffic from 7th Ave to 9th Ave due to restrictions resurfacing work.,200.0,W 25th St,L,New York,New York,NY,10001-7304,US,US/Eastern,KNYC,2020-09-02 00:51:00,71.0,71.0,81.0,29.98,10.0,VAR,6.0,0.0,Cloudy,True,False,False,False,False,False,False,False,True,False,False,True,False,Night,Night,Night,Night
C-220769,2,2020-11-10 15:10:00.000000000,2020-11-11 02:20:06.000000000,43.61953,-116.351918,43.618685,-116.354611,0.146811227982,Stationary traffic on ID-55 from N Records Way to E Florence Dr due to roadwork.,3510.0,E Fairview Ave,L,Meridian,Ada,ID,83646,US,US/Mountain,KMAN,2020-11-10 15:15:00,43.0,38.0,70.0,27.36,10.0,SE,8.0,0.0,Mostly Cloudy,False,False,False,False,False,False,False,False,False,False,False,False,False,Day,Day,Day,Day
C-220770,3,2017-07-26 21:00:00.000000000,2017-07-27 05:00:00.000000000,45.871338,-122.710327,,,15.3199996948,Two lanes closed due to resurfacing work during the night on I-5 Southbound between Exit 27 Robb Rd and Exit 16 319th St.,,I-5 S,R,Ridgefield,Clark,WA,98642,US,US/Pacific,KSPB,2017-07-26 20:53:00,71.1,,59.0,30.01,10.0,NW,9.2,,Clear,False,False,False,False,False,False,False,False,False,False,False,False,False,Night,Day,Day,Day
C-220771,2,2018-06-25 07:00:00.000000000,2018-06-30 18:00:00.000000000,41.624989,-83.71315,,,1.63999998569,Road closed due to maintenance work on Angola Rd both ways from Clarion Ave to Clark St.,898.0,Clark St,R,Holland,Lucas,OH,43528-9668,US,US/Eastern,KTOL,2018-06-25 06:52:00,60.1,,86.0,30.14,10.0,NE,3.5,,Clear,False,False,False,False,False,False,False,False,False,False,False,True,False,Day,Day,Day,Day
C-220772,2,2021-09-14 09:00:00.000000000,2021-12-09 21:04:30.000000000,25.8501,-80.186095,25.849993,-80.189125,0.188549825081,Stationary traffic on FL-934 from US-1/FL-5/Biscayne Blvd (NE 82nd St/FL-934) to NE 2nd Ave (NE 82nd St/FL-934) due to roadwork.,510.0,NE 82nd St,R,Miami,Miami-Dade,FL,33138-4043,US,US/Eastern,KOPF,2021-12-09 20:53:00,75.0,75.0,79.0,30.12,10.0,CALM,0.0,0.0,Fair,False,False,True,False,False,False,True,False,False,False,False,False,False,Day,Day,Day,Day
C-220773,3,2020-12-22 11:36:46.000000000,2020-12-31 05:00:00.000000000,32.840221,-97.328003,,,0.709999978542,Entry ramp to I-820 Southbound from Jim Wright Fwy Westbound closed due to construction work. Follow local detour.,,I-820 W,R,Fort Worth,Tarrant,TX,76106,US,US/Central,KFTW,2020-12-22 11:53:00,65.0,65.0,56.0,29.37,10.0,S,16.0,0.0,Fair,False,False,False,False,False,False,False,False,False,False,False,False,False,Day,Day,Day,Day
C-220774,2,2020-12-07 16:25:00.000000000,2020-12-08 18:29:58.000000000,30.75336,-85.380624,30.74685,-85.430644,3.00401624727,Construction on I-10 WB near MM 128 Expect delays.,,FL-8 W,R,Cottondale,Jackson,FL,32431,US,US/Central,KMAI,2020-12-07 16:53:00,52.0,52.0,50.0,29.81,10.0,NW,14.0,0.0,Fair,False,False,False,False,False,False,False,False,False,False,False,False,False,Day,Day,Day,Day
C-220775,2,2021-03-15 23:23:00.000000000,2021-12-22 18:30:24.000000000,45.846056,-94.709437,45.866431,-94.688266,1.73773596123,Construction on MN-28 NB near 410TH ST Allow extra time.,31900.0,State Highway 28,L,Burtrum,Todd,MN,56318-4723,US,US/Central,K14Y,2021-12-11 23:15:00,21.0,10.0,80.0,28.29,10.0,SW,10.0,0.0,Fair,False,False,False,False,False,False,False,False,False,False,False,False,False,Night,Night,Night,Night
C-220776,2,2016-07-21 09:00:56.000000000,2016-07-21 15:00:56.000000000,25.92444,-80.31115,25.92446,-80.29805400000002,0.8137949748890001,Between 77th Ave and 59th Ave - Construction work.,6721.0,NW 167th St,R,Hialeah,Miami-Dade,FL,33014,US,US/Eastern,KOPF,2016-07-21 08:53:00,84.0,,76.0,30.09,10.0,ENE,6.9,,Clear,False,False,False,False,False,False,False,False,False,False,False,False,False,Day,Day,Day,Day
C-220777,2,2021-04-11 20:35:00.000000000,2021-04-12 01:56:11.000000000,29.742797,-95.358081,29.728804,-95.337972,1.54604680945,Roadwork on I-45 (Houston) (North) (I-45 HOV) from Dumble St (I-45 HOV) to I-45 N - I-45 S.,,I-45 N,R,Houston,Harris,TX,77003,US,US/Central,KMCJ,2021-04-11 20:53:00,71.0,71.0,55.0,29.69,10.0,S,9.0,0.0,Partly Cloudy,False,False,True,False,False,False,False,False,False,False,False,True,False,Night,Night,Day,Day
C-220778,2,2020-05-20 08:01:00.000000000,2020-05-20 16:01:00.000000000,37.20689,-122.14524,37.212,-122.15652,0.714105011106,Between Saratoga Toll Road and Watermans Gap Junction - Construction work.,19715.0,Highway 9,L,Boulder Creek,Santa Cruz,CA,95006,US,US/Pacific,KSJC,2020-05-20 07:53:00,58.0,58.0,65.0,30.08,10.0,WSW,5.0,0.0,Cloudy,False,False,False,False,False,False,False,False,False,False,False,False,False,Day,Day,Day,Day
C-220779,2,2019-06-03 08:00:00.000000000,2019-06-03 18:00:00.000000000,39.733974,-86.044037,,,5.19000005722,Right hand shoulder closed due to construction on I-465 Northbound between Exit 52 Emerson Ave and Exits 48 49 I-74.,,I-465 N,R,Indianapolis,Marion,IN,46239,US,US/Eastern,KMQJ,2019-06-03 08:06:00,54.0,54.0,100.0,29.17,10.0,CALM,0.0,,Fair,False,False,False,False,False,False,False,False,False,False,False,False,False,Day,Day,Day,Day
C-220780,2,2020-06-26 09:10:13.000000000,2020-06-26 20:53:22.000000000,41.56531,-81.58397,41.60182,-81.50194,4.93315491167,Between 140th St/152nd St/Exit 180 and 156th St/Exit 181 - Roadwork. Two lanes closed.,,OH-2 E,R,Cleveland,Cuyahoga,OH,44110,US,US/Eastern,KCGF,2020-06-26 08:45:00,73.0,73.0,53.0,29.11,20.0,W,5.0,0.0,Fair,False,False,False,False,False,False,False,False,False,False,False,False,False,Day,Day,Day,Day
C-220781,2,2021-06-23 10:37:30.000000000,2021-06-23 11:02:30.000000000,40.429867,-78.39014399999998,40.428156,-78.39022800000002,0.118301363413,Slow traffic on US-22 E - US-22 W - PA-36 from Allegheny St to S Juniata St due to roadwork.,,Strawberry Aly,R,Hollidaysburg,Blair,PA,16648,US,US/Eastern,KAOO,2021-06-23 10:53:00,66.0,66.0,40.0,28.63,10.0,NW,5.0,0.0,Fair,False,False,False,False,False,False,False,False,False,False,False,False,False,Day,Day,Day,Day
C-220782,4,2021-07-31 04:31:28.000000000,2021-08-07 23:59:00.000000000,37.735658,-122.40893,37.734011,-122.411163,0.166846870687,Closed road from exit [431] to I-280 S due to roadwork.,9.0,Alemany Blvd,R,San Francisco,San Francisco,CA,94110,US,US/Pacific,KSFO,2021-07-31 04:56:00,59.0,59.0,87.0,29.95,10.0,W,6.0,0.0,Fair,False,False,False,False,True,False,False,False,False,False,False,False,False,Night,Night,Night,Day
C-220783,2,2020-10-07 17:47:00.000000000,2020-10-08 00:45:00.000000000,37.616339,-77.753967,37.626659,-77.786027,1.89387875483,On VA-6 (River Rd W) in the County of Goochland from Dover Rd; Merry Go Round Rd; Millers Ln; River Rd W; Sabot Ridge Ln; Seddon Row; Turkey Trot Rd; Yellow Gate Ln; Rt. 644E/W (Goochland County);MILLER to Blue Goose Rd; Cardwell Rd; Dover Farm Rd; Dover Rd; Mill Field Ln; River Rd W; Rt. 642N/S (Goochland County) motorists can expect potential delays in this area from 10/07/20 at 10:47 AM until 10/07/20 at 5:00 PM due to guardrail repairs. The east through lanes are alternating closures. The west through lanes are alternating closures.,701.0,Millers Ln,R,Manakin Sabot,Goochland,VA,23103-3011,US,US/Eastern,KOFP,2020-10-07 17:54:00,79.0,79.0,44.0,29.59,10.0,SSW,10.0,0.0,Fair,False,False,False,False,False,False,False,False,False,False,False,False,False,Day,Day,Day,Day
C-220784,2,2021-12-10 13:30:43.000000000,2021-12-10 23:59:00.000000000,40.728547,-74.127482,40.72888,-74.127875,0.0308674227599,Barrier repairs on New Jersey Turnpike - Western Spur northbound Entrance ramp Interchange 15E - US 1&amp;9 (Newark) to Interchange 15E - US 1&amp;9 (Newark) Not currently Scheduled,,New Jersey Tpke N,R,Newark,Essex,NJ,07105,US,US/Eastern,KEWR,2021-12-10 13:51:00,50.0,50.0,50.0,30.11,10.0,WSW,8.0,0.0,Mostly Cloudy,False,False,False,False,False,False,False,False,False,False,False,False,False,Day,Day,Day,Day
C-220785,2,2021-06-10 14:24:00.000000000,2021-09-17 06:45:00.000000000,41.427623,-73.322447,41.426417,-73.339802,0.902949369778,Construction on I-84 WB near EXIT 10 Construction. Right lane closed.,,I-84 W,R,Newtown,Fairfield,CT,06470,US,US/Eastern,KOXC,2021-09-16 19:30:00,68.0,68.0,88.0,29.49,10.0,E,3.0,0.0,Cloudy,False,False,False,False,False,False,False,False,False,False,False,False,False,Day,Day,Day,Day
C-220786,2,2021-06-20 16:11:00.000000000,2021-06-20 18:00:00.000000000,36.999431,-120.104953,37.015961,-120.12506299999998,1.59234516096,Slow traffic on CA-99 N from Avenue 17 (CA-99) to Road 23/Exit 159 (CA-99) due to roadwork.,,CA-99 N,R,Madera,Madera,CA,93638,US,US/Pacific,KMAE,2021-06-20 15:53:00,106.0,106.0,16.0,29.46,10.0,W,10.0,0.0,Fair,False,False,False,False,False,False,False,False,False,False,False,False,False,Day,Day,Day,Day
C-220787,2,2020-12-28 04:48:31.000000000,2020-12-30 11:59:00.000000000,41.817348,-87.74282099999998,,,0.0,Construction work on I-55 Stevenson Expy Northbound at Exit 286 IL-50 Cicero Ave.,,Adlai E Stevenson Expy N,R,Chicago,Cook,IL,60632,US,US/Central,KMDW,2020-12-28 04:53:00,30.0,21.0,72.0,29.42,10.0,WNW,10.0,0.0,Mostly Cloudy,False,False,False,False,False,False,False,False,False,False,False,False,False,Night,Night,Night,Night
C-220788,2,2020-05-08 19:35:58.000000000,2020-05-16 00:48:03.000000000,40.04087,-84.20234,40.03947,-84.20344,0.112883119546,At Staunton Road - Roadwork. Right lane closed.,125.0,N Market St,L,Troy,Miami,OH,45373-1459,US,US/Eastern,KDAY,2020-05-09 07:56:00,33.0,25.0,56.0,29.1,10.0,WNW,10.0,0.0,Fair,True,False,False,False,False,False,False,False,False,False,False,True,False,Day,Day,Day,Day
C-220789,2,2021-01-26 16:16:13.000000000,2021-01-27 03:50:59.000000000,27.837007,-82.786951,27.83967,-82.787735,0.190128565526,Stationary traffic on US-19 Alt N - FL-595 - County Hwy-694 from US-19 Alt to 110th Ln due to roadwork.,7109.0,Seminole Blvd,R,Seminole,Pinellas,FL,33772-5934,US,US/Eastern,KPIE,2021-01-26 15:53:00,74.0,74.0,85.0,29.99,10.0,SW,10.0,0.0,Cloudy,False,False,True,False,False,False,False,False,False,False,False,False,False,Day,Day,Day,Day
C-220790,2,2021-07-12 10:46:20.000000000,2021-07-12 12:48:42.000000000,40.804589,-73.93791,40.805526,-73.940148,0.133757661024,Slow traffic from 2nd Ave (E 125th St) to 5th Ave (New York) (East) (E 125th St) due to roadwork.,123.0,E 125th St,L,New York,New York,NY,10035-1614,US,US/Eastern,KNYC,2021-07-12 10:51:00,80.0,80.0,81.0,30.01,6.0,CALM,0.0,0.0,Haze,True,False,False,False,False,False,False,False,True,False,False,False,False,Day,Day,Day,Day
C-220791,2,2021-11-11 23:54:30.000000000,2021-11-12 01:57:41.933291600,40.580184,-111.977245,40.573258,-111.977278,0.4785441574229999,Stationary traffic on UT-154 from W 9000 S (Bangerter Hwy/UT-154) to W 9800 S (Bangerter Hwy/UT-154) due to roadwork.,9400.0,Bangerter Hwy,R,South Jordan,Salt Lake,UT,84009,US,,,,,,,,,,,,,False,False,False,False,False,False,False,False,False,False,False,True,False,Night,Night,Night,Night
C-220792,2,2020-10-04 20:45:33.000000000,2020-10-05 02:44:30.000000000,40.749453,-73.8871,40.750427,-73.877803,0.491262301699,Slow traffic from 79th St to 89th St due to resurfacing work.,3665.0,79th St,L,Jackson Heights,Queens,NY,11372-6749,US,US/Eastern,KLGA,2020-10-04 20:51:00,62.0,62.0,58.0,30.1,10.0,E,7.0,0.0,Partly Cloudy,True,False,False,False,False,False,False,False,False,False,False,True,False,Night,Night,Night,Night
C-220793,2,2021-06-03 16:48:44.000000000,2021-06-03 17:10:44.000000000,25.84791400000001,-80.18195300000002,25.848459,-80.184662,0.172605375668,Stationary traffic on US-1 N - FL-934 - US-1 S - FL-5 from NE 7th Ct to Miami due to roadwork.,719.0,NE 79th St,L,Miami,Miami-Dade,FL,33138-4711,US,US/Eastern,KOPF,2021-06-03 16:53:00,82.0,82.0,71.0,30.01,10.0,SE,16.0,0.0,Partly Cloudy,True,False,False,False,False,False,False,False,True,True,False,False,False,Day,Day,Day,Day
C-220794,3,2021-07-29 20:00:00.000000000,2021-07-30 05:00:00.000000000,38.991631,-104.813942,,,1.70000004768,Entry ramp to I-25 Northbound from Interquest Pkwy Westbound closed due to construction.,,I-25 N,R,Usaf Academy,El Paso,CO,80840,US,US/Mountain,KAFF,2021-07-29 19:58:00,81.0,81.0,24.0,23.73,10.0,SE,12.0,0.0,Fair,False,False,False,False,False,False,False,False,False,False,False,False,False,Day,Day,Day,Day
C-220795,2,2021-07-12 09:48:30.000000000,2021-07-12 10:36:00.000000000,39.650222,-79.712561,39.653961,-79.736324,1.29025569752,Slow traffic on I-68 W from WV-26/Exit 23 (I-68) to Exit 15 (I-68) due to roadwork.,,I-68 W,R,Bruceton Mills,Preston,WV,26525,US,US/Eastern,KMGW,2021-07-12 09:53:00,77.0,77.0,76.0,28.81,10.0,SW,7.0,0.0,Partly Cloudy,False,False,False,False,False,False,False,False,False,False,False,False,False,Day,Day,Day,Day
C-220796,2,2021-05-04 04:28:00.000000000,2021-05-04 07:18:30.000000000,45.580169,-118.636938,45.580874,-118.585934,2.4669788738,Slow traffic on Old Oregon Trail Hwy No 6 - I-84 E - US-30 E - Old Oregon Trl from OR-331/Market Rd/Exit 216 (I-84) to Poverty Flat Rd/Exit 224 (I-84) due to roadwork.,,I-84 E,R,Pendleton,Umatilla,OR,97801,US,US/Pacific,KPDT,2021-05-04 04:53:00,51.0,51.0,80.0,28.54,10.0,WSW,9.0,0.0,Cloudy,False,False,False,False,False,False,False,False,False,False,False,False,False,Night,Night,Day,Day
C-220797,2,2021-05-18 08:27:00.000000000,2021-05-18 15:45:00.000000000,37.40961,-79.88530899999998,37.406462,-79.888019,0.263496356634,Construction on US-11 SB near LEE HWY Construction. Left lane closed.,4651.0,Lee Hwy,L,Troutville,Botetourt,VA,24175-6003,US,US/Eastern,KROA,2021-05-18 08:54:00,59.0,59.0,87.0,29.15,10.0,CALM,0.0,0.0,Cloudy,False,False,False,False,False,False,False,False,False,False,False,False,False,Day,Day,Day,Day
C-220798,2,2021-04-08 15:27:00.000000000,2021-04-08 18:53:30.000000000,40.485923,-104.991672,40.517578,-104.991941,2.1871978555,Slow traffic on US-87 N - I-25 N from CO-392/Exit 262 (I-25) to CO-68/Harmony Rd/Exit 265 (I-25) due to roadwork.,,I-25 N,R,Fort Collins,Larimer,CO,80528,US,US/Mountain,KFNL,2021-04-08 15:56:00,69.0,69.0,13.0,24.69,10.0,NNW,18.0,0.0,Fair,False,False,False,False,True,False,False,False,False,False,False,False,False,Day,Day,Day,Day
C-220799,2,2020-10-07 19:48:00.000000000,2020-10-07 20:35:30.000000000,42.869126,-71.340691,42.859653,-71.33120100000002,0.812021187217,Stationary traffic on I-93 from NH-28/Rockingham Rd/Exit 5 (I-93) to NH-111/Indian Rock Rd/Exit 3 (I-93) due to roadwork.,,I-93 S,R,Londonderry,Rockingham,NH,03053,US,US/Eastern,KMHT,2020-10-07 19:53:00,57.0,57.0,64.0,29.22,10.0,WSW,9.0,0.0,Fair,False,False,False,False,False,False,False,False,False,False,False,False,False,Night,Night,Night,Day
C-220800,2,2016-06-02 02:59:00.000000000,2016-06-02 03:01:00.000000000,34.070652,-118.264778,,,0.0,Intermittent lane closures due to resurfacing work on Bonnie Brae St both ways between Kent St and London St.,2136.0,London St,L,Los Angeles,Los Angeles,CA,90026-4808,US,US/Pacific,KCQT,2016-06-02 02:47:00,64.0,,80.0,29.93,5.0,Calm,,,Haze,False,False,False,False,False,False,False,False,False,True,False,False,False,Night,Night,Night,Night
C-220801,2,2016-04-21 10:28:17.000000000,2016-04-21 15:00:00.000000000,37.685769,-122.100779,37.68528,-122.10018,0.0470561486006999,At Mattox Rd/Hampton Rd - Roadwork. Right lane blocked.,,Mattox Rd,R,Hayward,Alameda,CA,94541,US,US/Pacific,KHWD,2016-04-21 10:54:00,64.9,,70.0,29.94,10.0,West,6.9,0.0,Overcast,False,False,True,True,False,False,False,False,False,False,False,True,False,Day,Day,Day,Day
C-220802,4,2019-06-03 07:00:00.000000000,2019-08-16 20:00:00.000000000,40.02858300000001,-84.34195,40.03191500000001,-84.342551,0.2324046048849999,Closed at West Penny Road - Closed due to roadwork.,,S State Route 48,R,Ludlow Falls,Miami,OH,45339,US,US/Eastern,KDAY,2019-06-03 06:56:00,53.0,53.0,61.0,29.01,10.0,CALM,0.0,0.0,Fair,False,False,False,False,False,False,False,False,False,False,False,False,False,Day,Day,Day,Day
C-220803,2,2018-12-06 08:32:34.000000000,2018-12-11 08:31:50.000000000,37.31714,-121.946624,37.317141,-121.946613,0.000608380188943,At Hatton St - Construction work.,3028.0,Tisch Way,L,San Jose,Santa Clara,CA,95128,US,US/Pacific,KSJC,2018-12-07 08:53:00,48.9,,86.0,30.15,10.0,South,4.6,,Mostly Cloudy,False,False,False,False,False,False,False,False,False,False,False,False,False,Day,Day,Day,Day
C-220804,3,2020-03-18 09:43:26.000000000,2020-03-24 14:00:54.000000000,34.06169000000001,-118.31115,34.0617,-118.30785,0.188891298593,Between Crenshaw Blvd and S Normandie Ave - Roadwork.,3894.0,Wilshire Blvd,L,Los Angeles,Los Angeles,CA,90010-3206,US,US/Pacific,KCQT,2020-03-20 09:52:00,62.0,62.0,56.0,30.02,10.0,SE,3.0,0.0,Partly Cloudy,True,False,False,False,False,False,False,False,True,False,False,True,False,Day,Day,Day,Day
C-220805,2,2021-08-30 11:58:30.000000000,2021-08-30 14:00:49.000000000,33.510937,-112.116975,33.509453,-112.117517,0.107183498465,Slow traffic from W Medlock Dr to N 28th Ave due to roadwork.,5029.0,N 27th Ave,R,Phoenix,Maricopa,AZ,85017,US,US/Mountain,KPHX,2021-08-30 11:51:00,93.0,93.0,31.0,28.58,10.0,E,8.0,0.0,Mostly Cloudy,True,False,False,False,False,False,False,False,True,False,False,False,False,Day,Day,Day,Day
C-220806,2,2016-09-06 00:01:00.000000000,2016-09-09 23:59:00.000000000,42.270569,-71.417709,,,0.0,Intermittent lane closures due to gas main work on Arlington St both ways between South St and Campbell Rd.,167.0,Arlington St,R,Framingham,Middlesex,MA,01702-8723,US,US/Eastern,KOWD,2016-09-06 00:26:00,63.0,,93.0,30.02,1.8,NNE,9.2,0.02,Light Rain,False,False,False,False,False,False,False,False,False,False,False,False,False,Night,Night,Night,Night
C-220807,2,2016-04-22 08:00:00.000000000,2016-04-22 16:00:00.000000000,38.837293,-122.722271,38.88883,-122.731659,3.5965083908099995,Between Forestry Rd and Salmina Rd - Construction work.,15433.0,State Highway 175,L,Cobb,Lake,CA,95426,US,US/Pacific,KSTS,2016-04-22 07:53:00,53.1,,93.0,29.78,3.0,NW,3.5,0.27,Light Rain,False,False,False,False,False,False,False,False,False,False,False,False,False,Day,Day,Day,Day
C-220808,2,2021-12-31 12:57:30.000000000,2021-12-31 13:17:30.000000000,37.116785,-113.468226,37.115629,-113.456997,0.623807606341,Stationary traffic from S Country Way to S 3110 E due to roadwork.,2328.0,E Washington Dam Rd,R,Washington,Washington,UT,84780-2968,US,US/Mountain,KSGU,2021-12-31 12:56:00,48.0,48.0,74.0,26.63,10.0,SSW,3.0,0.0,Cloudy,False,False,False,False,False,False,False,False,False,False,False,False,False,Day,Day,Day,Day
C-220809,2,2021-11-04 20:14:00.000000000,2021-11-04 20:35:00.000000000,40.758019,-73.981794,40.762398,-73.978615,0.3452857807639999,Slow traffic from W 42nd St (6th Ave) to W 57th St (6th Ave) due to roadwork.,99.0,W 47th St,R,New York,New York,NY,10036-2802,US,US/Eastern,KNYC,2021-11-04 19:51:00,47.0,47.0,41.0,30.18,10.0,N,3.0,0.0,Fair,True,False,True,False,False,False,True,False,True,False,False,True,False,Night,Night,Night,Night
C-220810,2,2020-08-27 02:00:00.000000000,2020-08-27 12:45:00.000000000,29.737473,-95.52126,29.737463,-95.522189,0.05573900818,Construction on FM-1093 WB near FONDREN Expect delays.,8900.0,Westheimer Rd,R,Houston,Harris,TX,77063-3602,US,US/Central,KMCJ,2020-08-27 01:53:00,81.0,81.0,74.0,29.58,10.0,NW,12.0,0.0,Cloudy,False,False,False,False,False,False,False,False,False,False,False,True,False,Night,Night,Night,Night
C-220811,2,2021-10-21 06:44:30.000000000,2021-10-21 06:59:00.000000000,34.000871000000004,-81.172188,34.00566,-81.162407,0.650661834532,Slow traffic on I-20 E from US-1/Exit 58 (I-20) to US-378/Exit 61 (I-20) due to roadwork.,,I-20 E,R,Lexington,Lexington,SC,29073,US,US/Eastern,KCAE,2021-10-21 06:56:00,55.0,55.0,83.0,29.92,10.0,W,3.0,0.0,Fair,False,False,False,False,False,False,False,False,False,False,False,False,False,Night,Night,Day,Day
C-220812,2,2021-09-29 17:30:30.000000000,2021-09-29 19:53:13.000000000,45.224229,-93.398629,45.22492,-93.396255,0.125006190175,Slow traffic on County Hwy-116 from Sunfish Lake Blvd (CR-116) to 7th Ave (CR-116) due to roadwork.,,Bunker Lake Blvd NW,R,Anoka,Anoka,MN,55303,US,US/Central,KANE,2021-09-29 17:45:00,82.0,82.0,48.0,29.0,10.0,ESE,9.0,0.0,Mostly Cloudy,False,False,True,False,False,False,False,False,False,True,False,False,False,Day,Day,Day,Day
C-220813,2,2021-11-26 18:26:30.000000000,2021-11-26 20:27:59.000000000,25.927734,-80.18823499999998,25.928634,-80.18888000000003,0.0739812217986,Slow traffic on FL-915 - FL-826 from NE 166th St to NE 5th Ave due to roadwork.,16599.0,NE 6th Ave,R,Miami,Miami-Dade,FL,33162-3605,US,US/Eastern,KHWO,2021-11-26 18:53:00,71.0,71.0,61.0,30.0,10.0,CALM,0.0,0.0,Fair,False,False,False,False,False,False,False,False,True,False,False,False,False,Night,Night,Night,Day
C-220814,2,2021-05-28 17:26:03.000000000,2021-05-28 19:19:12.000000000,45.353955,-93.920563,45.368345,-93.977803,2.95137233935,Slow traffic on I-94 W - US-52 W from MN-25/Exit 193 (I-94) to CR-8/Exit 183 (I-94) due to roadwork.,,I-94 W,R,Monticello,Wright,MN,55362,US,US/Central,KMGG,2021-05-28 17:35:00,61.0,61.0,37.0,29.11,10.0,E,5.0,0.0,Fair,False,False,False,False,False,False,False,False,False,False,False,False,False,Day,Day,Day,Day
C-220815,2,2019-08-06 08:55:06.000000000,2019-08-10 08:54:47.000000000,34.06707,-118.39919,34.06705,-118.395772,0.1956367788329999,At Crescent Dr - Roadwork.,101.0,S Beverly Dr,R,Beverly Hills,Los Angeles,CA,90212-3002,US,US/Pacific,KSMO,2019-08-06 08:51:00,70.0,70.0,78.0,29.77,9.0,SSW,3.0,0.0,Mostly Cloudy,False,False,False,False,False,False,False,False,True,False,False,True,False,Day,Day,Day,Day
C-220816,2,2020-11-23 18:30:54.000000000,2020-12-12 16:40:54.000000000,38.549955,-121.479834,38.548993,-121.479749,0.0666263748288,Construction on 26TH ST near PORTOLA WAY Drive with caution.,2978.0,26th St,R,Sacramento,Sacramento,CA,95818-3500,US,US/Pacific,KSAC,2020-11-23 18:53:00,49.0,49.0,71.0,30.0,10.0,CALM,0.0,0.0,Fair,False,False,False,False,False,False,False,False,False,True,False,False,False,Night,Night,Night,Night
C-220817,2,2019-02-19 08:33:43.000000000,2019-02-24 08:31:22.000000000,33.90286500000001,-118.1001,33.90263,-118.1001,0.0162369535945,At Rosecrans Ave - Construction work. Lane blocked.,14239.0,Studebaker Rd,L,Norwalk,Los Angeles,CA,90650,US,US/Pacific,KFUL,2019-02-19 08:53:00,48.9,,46.0,30.15,10.0,Calm,,,Clear,False,False,False,False,False,False,False,False,True,False,False,False,False,Day,Day,Day,Day
C-220818,2,2021-04-13 10:50:00.000000000,2021-10-31 17:12:00.000000000,41.058576,-75.962068,41.067048,-75.961912,0.585415863535,Roadwork on PA 309 both directions between SUNNYSIDE DR and OLD TURNPIKE RD. There is a lane restriction.,98.0,Brookview Dr,L,Drums,Luzerne,PA,18222-9758,US,US/Eastern,KAVP,2021-04-13 10:54:00,54.0,54.0,53.0,29.05,10.0,VAR,5.0,0.0,Fair,False,False,False,False,False,False,False,False,False,False,False,False,False,Day,Day,Day,Day
C-220819,4,2017-08-03 22:01:19.000000000,2017-08-04 04:30:00.000000000,40.64219,-74.14211999999998,40.63848,-74.1437,0.269389208874,Closed between New York/New Jersey State Line and RT-440/Dr Martin L King Jr Expy - Closed due to roadwork.,,Bayonne Brg S,R,Staten Island,Richmond,NY,10302-1116,US,US/Eastern,KEWR,2017-08-03 21:51:00,77.0,,74.0,30.09,10.0,SW,5.8,,Mostly Cloudy,False,False,False,False,False,False,False,False,False,False,False,False,False,Night,Night,Night,Night
C-220820,2,2021-04-07 12:44:30.000000000,2021-04-07 14:08:00.000000000,40.753712,-76.83783000000003,40.72575300000001,-76.837203,1.93206176204,Stationary traffic on PA-147 from Hallowing Run Rd (PA-147) to PA-225 (PA-147) due to roadwork.,7024.0,State Route 147,R,Sunbury,Northumberland,PA,17801,US,US/Eastern,KSEG,2021-04-07 11:53:00,59.0,59.0,48.0,29.53,10.0,SSE,5.0,0.0,Fair,False,False,False,False,False,False,False,False,False,False,False,False,False,Day,Day,Day,Day
C-220821,2,2021-06-11 16:06:18.000000000,2021-06-11 18:29:18.000000000,39.740096,-104.849391,39.741542,-104.846942,0.1640463077789999,Stationary traffic on US-40 E - I-70 Bus E - US-287 S from Oswego St to E 16th Ave due to roadwork.,11900.0,E Colfax Ave,R,Aurora,Arapahoe,CO,80010-5110,US,US/Mountain,KBKF,2021-06-11 15:58:00,77.0,77.0,19.0,24.46,10.0,SE,13.0,0.0,Fair,False,False,False,False,False,False,False,False,False,False,False,False,False,Day,Day,Day,Day
C-220822,4,2017-11-13 21:00:54.000000000,2017-11-14 03:00:54.000000000,25.819099,-80.206162,25.93199,-80.20376,7.80145442105,Closed between I-195/SR-112/Airport Expy and US-441/Florida's Tpke/Exit 12 - Closed. Construction work.,,I-95 N,R,Miami,Miami-Dade,FL,33127,US,US/Eastern,KMIA,2017-11-13 20:53:00,80.1,,74.0,30.0,10.0,NE,11.5,,Overcast,False,False,False,False,True,False,False,False,False,False,False,False,False,Night,Night,Night,Night
C-220823,2,2020-11-27 14:32:00.000000000,2020-11-28 01:28:25.000000000,40.717187,-73.983642,40.718117,-73.98653900000002,0.164757654461,Slow traffic from exit [32A] to Norfolk St due to roadwork.,,Williamsburg Brg W,R,New York,New York,NY,10002,US,US/Eastern,KJRB,2020-11-27 14:51:00,60.0,60.0,51.0,29.89,10.0,CALM,0.0,0.0,Cloudy,True,False,True,False,False,False,True,False,True,False,False,True,False,Day,Day,Day,Day
C-220824,2,2018-05-25 10:00:53.000000000,2018-05-25 16:00:53.000000000,40.85881,-73.92296999999998,40.860949,-73.921491,0.166779458743,Between Dyckman St/Harlem River Drwy and 201st - Construction work.,,Harlem River Dr S,R,New York,New York,NY,10040,US,US/Eastern,KLGA,2018-05-25 09:51:00,80.1,,35.0,30.01,10.0,SW,9.2,,Partly Cloudy,False,False,False,False,False,False,False,False,False,False,False,True,False,Day,Day,Day,Day
C-220825,2,2019-01-08 21:03:40.000000000,2019-01-12 21:03:20.000000000,40.72583,-74.01093,40.743955,-74.008391,1.2593533732,Between Canal St and 15th St - Construction work.,,West St,R,New York,New York,NY,10013,US,US/Eastern,KJRB,2019-01-08 20:56:00,44.1,42.5,89.0,29.69,10.0,Variable,3.5,,Overcast,True,False,True,False,False,False,False,False,False,False,False,True,False,Night,Night,Night,Night
C-220826,2,2021-09-07 15:06:00.000000000,2021-09-07 15:27:00.000000000,46.619811,-120.511931,46.614324,-120.511933,0.379115604948,Slow traffic from I-82 (N 1st St) to E I St (N 1st St) due to roadwork.,1399.0,N 1st St,R,Yakima,Yakima,WA,98901-1701,US,US/Pacific,K1YT,2021-09-07 14:53:00,84.0,84.0,23.0,28.86,7.0,SSE,5.0,0.0,Smoke,False,False,False,False,False,False,False,False,False,False,False,True,False,Day,Day,Day,Day
C-220827,2,2020-06-20 13:20:17.000000000,2020-06-22 15:00:00.000000000,42.36405,-83.07944,42.36715,-83.08136999999998,0.235764280678,Between M-10/Milwaukee St W and General Motors Blvd/Grand Blvd W - Roadwork.,,MI-10 N,R,Detroit,Wayne,MI,48202,US,US/Eastern,KDET,2020-06-20 12:53:00,88.0,88.0,42.0,29.35,10.0,SSE,7.0,0.0,Fair,False,False,False,False,False,False,False,False,True,False,False,True,False,Day,Day,Day,Day
C-220828,2,2020-12-18 17:39:00.000000000,2020-12-18 23:01:38.000000000,46.352577,-123.616071,46.35504,-123.612485,0.241257094702,Maintenance on SR 4 both directions at milepost 16.7 near Pierce County Line to milepost 17 near Hull Creek traffic will be alternated through the work zone beginning at 9:39 am on December 18 2020 until further notice.,3894.0,State Route 4 W,L,Grays River,Wahkiakum,WA,98621,US,US/Pacific,KAST,2020-12-18 17:55:00,50.0,50.0,86.0,29.92,3.0,S,20.0,0.1,Heavy Rain,False,False,False,False,False,False,False,False,False,False,False,False,False,Night,Night,Day,Day
C-220829,2,2017-04-17 20:01:59.000000000,2017-04-18 02:01:59.000000000,35.260388,-81.101656,35.27557,-81.23325,7.497232157230001,Between Main St/Exit 22 and NC-274/Exit 14 - Construction work.,,I-85 S,R,Lowell,Gaston,NC,28098,US,US/Eastern,KAKH,2017-04-17 19:54:00,73.0,,61.0,30.03,10.0,Calm,,,Mostly Cloudy,False,False,False,False,True,False,False,False,False,False,False,False,False,Night,Day,Day,Day
C-220830,2,2020-11-23 08:00:00.000000000,2020-11-30 08:45:00.000000000,39.731695,-104.905829,39.731672,-104.906925,0.0582587695754,Construction on E 10TH AVE WB near N PONTIAC ST Expect delays.,998.0,N Pontiac St,R,Denver,Denver,CO,80220-4828,US,US/Mountain,KBKF,2020-11-23 07:58:00,46.0,41.0,56.0,24.2,10.0,SSW,10.0,0.0,Mostly Cloudy,False,False,False,False,False,False,False,False,False,False,False,False,False,Day,Day,Day,Day
C-220831,2,2017-09-11 11:50:01.000000000,2017-09-20 00:00:00.000000000,39.876419,-86.155174,,,0.0,Intermittent lane closures due to maintenance work on Washington Blvd both ways at Pennsylvania St.,6700.0,Washington Blvd W,L,Indianapolis,Marion,IN,46220-1059,US,US/Eastern,KEYE,2017-09-11 11:53:00,66.9,,54.0,30.22,10.0,Variable,5.8,,Clear,False,False,False,False,False,False,False,False,False,False,False,False,False,Day,Day,Day,Day
C-220832,2,2019-06-20 21:04:26.000000000,2019-06-24 21:03:59.000000000,34.89053,-85.07042,34.93127,-85.15374,5.49637476909,Between US-41/US-76/Exit 345 and GA-2/Battlefield Pky/Exit 350 - Construction work.,,I-75 N,R,Ringgold,Catoosa,GA,30736,US,US/Eastern,KCHA,2019-06-20 20:53:00,81.0,81.0,62.0,29.12,10.0,W,5.0,0.0,Partly Cloudy,False,False,False,False,True,False,False,False,False,False,False,False,False,Night,Day,Day,Day
C-220833,2,2021-10-07 14:03:02.000000000,2021-10-07 14:24:00.000000000,25.847609,-80.191315,25.847835,-80.184618,0.416719050115,Slow traffic on FL-934 from NE 2nd Ave (NE 82nd St/FL-934) to US-1/FL-5/Biscayne Blvd (NE 82nd St/FL-934) due to roadwork.,276.0,NE 79th St,R,Miami,Miami-Dade,FL,33138-4819,US,US/Eastern,KOPF,2021-10-07 13:53:00,90.0,90.0,57.0,30.05,10.0,ESE,13.0,0.0,Fair,False,False,True,False,False,False,False,False,True,False,False,True,False,Day,Day,Day,Day
C-220834,2,2020-10-21 17:29:30.000000000,2020-10-21 19:05:00.000000000,47.779881,-120.9111,47.783524,-120.928693,0.854708299264,Stationary traffic on US-2 from White Pine Rd (US-2) to NFD-6700 (US-2) due to roadwork.,24631.0,US Highway 2,R,Leavenworth,Chelan,WA,98826,US,US/Pacific,KEAT,2020-10-21 17:55:00,48.0,48.0,50.0,28.78,10.0,CALM,0.0,0.0,Fair,False,False,False,False,False,False,False,False,False,False,False,False,False,Day,Day,Day,Day
C-220835,2,2021-11-08 08:42:00.000000000,2021-11-08 09:05:30.000000000,41.260633,-95.913442,41.260663,-95.909733,0.192651849005,Stationary traffic from W Broadway / N 40th St to S 38th St due to roadwork.,116.0,S 37th St,R,Council Bluffs,Pottawattamie,IA,51501,US,US/Central,KOMA,2021-11-08 08:52:00,46.0,42.0,89.0,29.04,7.0,N,7.0,0.0,Partly Cloudy,False,False,False,False,False,True,False,False,False,True,False,False,False,Day,Day,Day,Day
C-220836,3,2020-02-24 09:00:00.000000000,2020-02-24 15:00:00.000000000,42.913479,-85.766663,,,0.709999978542,Entry ramp to I-196 Westbound from M-11 Southbound closed due to construction work.,,Gerald R Ford Fwy W,R,Grandville,Kent,MI,49418,US,US/Eastern,KGRR,2020-02-24 08:53:00,33.0,33.0,89.0,28.96,5.0,CALM,0.0,0.0,Cloudy,False,False,False,False,False,False,False,False,False,False,False,False,False,Day,Day,Day,Day
C-220837,2,2021-08-11 14:44:00.000000000,2021-08-11 15:32:30.000000000,41.772358,-87.907264,41.760056,-87.890625,1.2073767403,Slow traffic on I-294 S - Tri State Tollway S from I-55/Adlai E Stevenson Expy (La Grange) (North) (I-294) to I-55/Adlai E Stevenson Expy (La Grange) (South) (I-294) due to roadwork.,,I-294 S,R,Willowbrook,Cook,IL,60527,US,US/Central,KMDW,2021-08-11 14:53:00,88.0,88.0,46.0,29.11,10.0,WSW,21.0,0.0,Mostly Cloudy / Windy,False,False,False,False,False,False,False,False,False,False,False,False,False,Day,Day,Day,Day
C-220838,2,2018-05-31 09:00:00.000000000,2018-05-31 15:00:00.000000000,42.281281,-83.743904,,,0.25,One lane blocked due to construction work on I-94 Bus Huron St Westbound from State St / I-94 Bus Huron St to Division St.,398.0,E Huron St,R,Ann Arbor,Washtenaw,MI,48104-1909,US,US/Eastern,KARB,2018-05-31 09:53:00,78.1,,76.0,29.72,10.0,SSW,12.7,,Partly Cloudy,False,False,True,False,False,False,False,False,False,False,False,True,False,Day,Day,Day,Day
C-220839,2,2020-08-20 04:51:22.000000000,2020-08-21 05:40:12.000000000,39.640291,-75.797392,39.641611,-75.804822,0.4057041243,Construction on I-95 SB near MM 108 Expect delays.,,I-95 S,R,Elkton,Cecil,MD,21921,US,US/Eastern,KILG,2020-08-20 04:51:00,64.0,64.0,75.0,29.95,10.0,N,8.0,0.0,Fair,False,False,False,False,True,False,False,False,False,False,False,False,False,Night,Night,Night,Day
C-220840,2,2021-12-30 12:23:00.000000000,2021-12-30 14:44:35.000000000,26.703072,-81.754285,26.702744,-81.76018,0.364571041846,Slow traffic on FL-80 - FL-31 from Lakeview Dr to Bayshore Rd due to roadwork.,12258.0,Palm Beach Blvd,R,Fort Myers,Lee,FL,33905-4805,US,US/Eastern,KFMY,2021-12-30 12:53:00,82.0,82.0,60.0,30.06,10.0,S,9.0,0.0,Fair,False,False,False,False,False,False,False,False,False,False,False,False,False,Day,Day,Day,Day
C-220841,2,2020-09-14 06:31:30.000000000,2020-09-14 22:39:19.000000000,40.715236,-74.005424,40.71363,-74.006757,0.131097217078,Queuing traffic from Walker St (Broadway) to Park Row/Vesey St/Ann St (Broadway) due to major roadwork.,85.0,Duane St,R,New York,New York,NY,10007-1104,US,US/Eastern,KJRB,2020-09-14 06:51:00,70.0,70.0,71.0,29.97,10.0,WNW,6.0,0.0,Fair,True,False,True,False,False,False,True,False,True,False,False,True,False,Night,Day,Day,Day
C-220842,2,2018-11-19 00:01:00.000000000,2018-11-21 23:59:00.000000000,35.391075,-97.423561,,,0.239999994636,Intermittent lane closures due to maintenance work on OK-77H Sooner Rd Northbound between 77th St and I-240.,,S Sooner Rd,R,Oklahoma City,Oklahoma,OK,73135,US,US/Central,KTIK,2018-11-19 00:26:00,30.2,24.3,86.0,30.26,10.0,NW,5.8,,Light Freezing Rain,False,False,False,False,False,False,False,False,False,False,False,False,False,Night,Night,Night,Night
C-220843,4,2018-10-16 16:19:46.000000000,2018-10-16 21:15:10.000000000,32.8434,-96.90906,32.84557,-96.91052,0.172228137225,At TX-12-LOOP/N Walton Walker Blvd - Roadwork.,1627.0,Frontage Rd,L,Irving,Dallas,TX,75062,US,US/Central,KDFW,2018-10-16 15:53:00,48.9,,86.0,30.26,8.0,NW,12.7,0.0,Light Rain,False,False,False,False,False,False,False,False,False,False,False,False,False,Day,Day,Day,Day
C-220844,2,2019-06-06 13:15:00.000000000,2021-08-13 01:36:04.000000000,39.771001,-76.671875,39.771094,-76.665359,0.346096252311,Roadwork on PA 851 both directions between LC FROM MOUNT AIRY RD TO 2097/0010 SH and WOLFE RD. There is a traffic disruption.,15999.0,Mount Airy Rd,L,Shrewsbury,York,PA,17361,US,US/Eastern,KTHV,2019-06-06 13:53:00,82.0,82.0,58.0,29.28,10.0,NW,7.0,0.0,Partly Cloudy,False,False,False,False,False,False,False,False,False,False,False,True,False,Day,Day,Day,Day
C-220845,2,2018-04-23 05:15:00.000000000,2018-04-27 05:44:00.000000000,36.608955,-121.83197,,,0.0,Intermittent lane closures due to construction work on Broadway Ave both ways at Vallejo St.,1601.0,Vallejo St,L,Seaside,Monterey,CA,93955-4521,US,US/Pacific,KMRY,2018-04-23 05:03:00,46.9,,80.0,29.97,10.0,Calm,,,Mostly Cloudy,False,False,True,False,False,False,False,False,True,True,False,False,False,Night,Night,Night,Day
C-220846,2,2020-11-21 18:27:30.000000000,2020-11-21 20:11:10.000000000,35.066708,-81.769243,35.055875,-81.787927,1.29492015347,Slow traffic on I-85 S from Green River Rd/Exit 86 (I-85) to SC-110/Exit 83 (I-85) due to roadwork.,,I-85 S,R,Cowpens,Cherokee,SC,29330,US,US/Eastern,KSPA,2020-11-21 18:35:00,55.0,55.0,67.0,29.44,10.0,CALM,0.0,0.0,Fair,False,False,False,False,False,False,False,False,False,False,False,False,False,Night,Night,Night,Day
C-220847,2,2020-12-21 13:55:30.000000000,2020-12-22 00:55:43.000000000,33.626246,-112.014414,33.628048,-112.013381,0.137962779754,Slow traffic from 31st St / Janice Way to E Tierra Buena Ln due to roadwork.,3159.0,E Greenway Rd,L,Phoenix,Maricopa,AZ,85032-4445,US,US/Mountain,KSDL,2020-12-21 13:53:00,74.0,74.0,19.0,28.31,10.0,VAR,3.0,0.0,Fair,False,False,False,False,False,False,False,False,False,False,False,False,False,Day,Day,Day,Day
C-220848,2,2021-03-16 07:00:00.000000000,2021-03-16 23:59:00.000000000,40.241922,-74.279841,40.245592,-74.29149100000002,0.664681109338,Curb work on NJ 33 westbound East of CR 537/West Main St (Freehold Twp) Tuesday March 16th 2021 07:00 AM thru 03:30 PM right shoulder closed,,NJ-33 W,R,Freehold,Monmouth,NJ,07728,US,US/Eastern,KBLM,2021-03-16 06:56:00,32.0,24.0,45.0,30.14,10.0,E,9.0,0.0,Fair,False,False,False,False,True,False,False,False,False,False,False,False,False,Night,Day,Day,Day
C-220849,2,2021-02-13 06:51:30.000000000,2021-02-13 18:07:09.000000000,33.4673,-112.134482,33.465936,-112.135249,0.104097149763,Slow traffic from W Coronado Rd to N 36th Ave due to roadwork.,1581.0,N 35th Ave,R,Phoenix,Maricopa,AZ,85009,US,US/Mountain,KPHX,2021-02-13 06:51:00,50.0,50.0,66.0,28.66,10.0,E,8.0,0.0,Mostly Cloudy,False,False,False,False,False,False,False,False,False,False,False,False,False,Night,Day,Day,Day
C-220850,2,2021-09-08 07:52:10.000000000,2021-09-08 08:50:34.000000000,35.074104,-81.749076,35.064285,-81.77328299999998,1.52780093935,Slow traffic on I-85 S from Hyatt St/Exit 90 (I-85) to SC-110/Exit 83 (I-85) due to roadwork.,,I-85 S,R,Gaffney,Cherokee,SC,29341,US,US/Eastern,KEHO,2021-09-08 07:55:00,68.0,68.0,98.0,29.05,5.0,SSW,3.0,0.05,Rain,False,False,False,False,False,False,False,False,False,False,False,False,False,Day,Day,Day,Day
C-220851,2,2021-09-14 16:26:31.000000000,2021-10-27 17:15:56.000000000,38.911092,-94.766712,38.91286,-94.768342,0.150339177422,Slow traffic from W 119th Plz to I-35 N due to roadwork.,11923.0,S Strang Line Rd,R,Olathe,Johnson,KS,66062-5287,US,US/Central,KOJC,2021-10-27 14:53:00,56.0,56.0,93.0,28.43,7.0,SE,10.0,0.01,Light Rain,False,False,False,False,False,False,False,False,False,False,False,False,False,Day,Day,Day,Day
C-220852,2,2019-10-30 06:00:00.000000000,2019-10-30 19:00:00.000000000,38.816444,-77.137268,,,0.0,Left hand shoulder closed and right hand shoulder closed due to construction work on VA-236 Duke St both ways at I-395 Exits 3A 3B.,,Henry Shirley Memorial Hwy S,R,Alexandria,Alexandria,VA,22312,US,US/Eastern,KDCA,2019-10-30 05:52:00,60.0,60.0,86.0,30.24,10.0,CALM,0.0,0.0,Cloudy,False,False,False,False,False,False,False,False,False,False,False,False,False,Night,Night,Night,Night
C-220853,2,2020-12-13 17:55:00.000000000,2020-12-14 00:37:00.000000000,40.489657,-79.95299200000002,40.478815,-79.967052,1.05218807788,Slow traffic on PA-28 S from Butler St/Exit 4 (PA-28) to Grant Ave/Exit 3 (PA-28) due to roadwork.,,PA-28 S,R,Pittsburgh,Allegheny,PA,15209,US,US/Eastern,KAGC,2020-12-13 17:53:00,39.0,39.0,79.0,28.75,10.0,NW,3.0,0.0,Cloudy,False,False,False,False,True,False,False,False,False,True,False,False,False,Night,Night,Day,Day
C-220854,2,2020-10-07 16:00:00.000000000,2020-10-07 23:45:00.000000000,40.854517,-74.17746600000002,40.849317,-74.172666,0.438197311803,Construction on NJ-3 EB near GARDEN STATE PKWY Construction. Right lane closed.,,State Route 3,R,Clifton,Passaic,NJ,07013,US,US/Eastern,KCDW,2020-10-07 15:53:00,74.0,74.0,45.0,29.41,10.0,W,10.0,0.0,Light Rain,False,False,False,False,True,False,False,False,False,False,False,False,False,Day,Day,Day,Day
C-220855,2,2021-11-30 12:33:00.000000000,2021-11-30 12:53:00.000000000,30.519598,-92.076778,30.519188,-92.07354,0.194799896471,Stationary traffic on LA-31 from LA-182/S Union St (Creswell Ln/LA-31) to I-49 (Creswell Ln/LA-31) due to roadwork.,813.0,Creswell Ln,R,Opelousas,St. Landry,LA,70570-5881,US,US/Central,KOPL,2021-11-30 12:35:00,74.0,74.0,34.0,30.11,10.0,WSW,3.0,0.0,Fair,False,False,False,False,False,False,False,False,False,False,False,False,False,Day,Day,Day,Day
C-220856,2,2021-02-03 13:28:00.000000000,2021-02-04 01:04:53.000000000,38.963321,-85.827033,38.959124,-85.83470200000002,0.503835223434,Stationary traffic on US-50 W - US-50 E from S CR-700 W (US-50) to US-31 (US-50) due to roadwork.,11445.0,E US Highway 50,R,Seymour,Jackson,IN,47274-7553,US,US/Eastern,KBAK,2021-02-03 13:45:00,32.0,27.0,69.0,29.39,10.0,NNE,5.0,,Fair,False,False,False,False,False,False,False,False,False,False,False,True,False,Day,Day,Day,Day
C-220857,2,2021-07-01 06:00:00.000000000,2021-07-02 23:59:59.000000000,43.07542,-76.171925,43.075745,-76.172344,0.0308452176330999,Line striping on NY 370 westbound between Park Street; Ramp (Syracuse) and Town of Cato; Town of Lysander Line; Cayuga-Onondaga County Line (Lysander) ; Mobile lane closure Thursday July 1st 2021 thru Friday July 16th 2021 Monday thru Friday 06:00 AM thru 05:00 PM 1 Left lane of 3 lanes closed,2179.0,Park St,L,Syracuse,Onondaga,NY,13204,US,US/Eastern,KSYR,2021-07-01 05:54:00,68.0,68.0,84.0,29.44,10.0,SW,3.0,0.0,Mostly Cloudy,False,False,False,False,False,False,False,False,False,False,False,False,False,Day,Day,Day,Day
C-220858,2,2021-04-20 09:54:30.000000000,2021-04-20 10:38:30.000000000,32.231195,-89.510237,32.236835,-89.50774100000002,0.416096279985,Stationary traffic on MS-35 from West Brook Rd (MS-35) to Morton Marathon Rd (MS-35) due to roadwork.,9499.0,Highway 35 S,L,Pulaski,Scott,MS,39152-9747,US,US/Central,KJAN,2021-04-20 09:54:00,68.0,68.0,39.0,29.7,10.0,SSE,5.0,0.0,Fair,False,False,False,False,False,False,False,False,False,False,False,False,False,Day,Day,Day,Day
C-220859,2,2021-06-21 15:54:37.000000000,2021-06-21 16:25:19.000000000,41.119428000000006,-85.15055500000003,41.116535,-85.14818000000002,0.235027011374,Slow traffic on US-27 S from US-30/IN-1/IN-3 (Lima Rd/US-27) to N Clinton St/Edgewood Ave (IN-1/Northrop St/US-27) due to roadwork.,4503.0,Lima Rd,L,Fort Wayne,Allen,IN,46808-1251,US,US/Eastern,KFWA,2021-06-21 15:54:00,70.0,70.0,63.0,28.87,10.0,WNW,15.0,0.0,Cloudy,False,False,False,False,False,False,False,False,False,False,False,False,False,Day,Day,Day,Day
C-220860,3,2020-05-29 14:17:51.000000000,2020-06-06 05:52:27.000000000,32.7467,-97.33746,32.75895,-97.34341,0.914288317926,Between I-30/West Fwy and Franklin St - Construction work.,995.0,W Lancaster Ave,L,Fort Worth,Tarrant,TX,76102-4526,US,US/Central,KFTW,2020-05-30 13:53:00,84.0,,38.0,29.36,10.0,,,0.0,Fair,False,False,False,False,False,False,False,False,False,False,False,True,False,Day,Day,Day,Day
C-220861,2,2021-07-20 16:05:00.000000000,2021-07-20 16:26:00.000000000,37.34028,-120.591635,37.335498,-120.581045,0.66903293515,Slow traffic on CA-99 S from Atwater Blvd (CA-99) to Buhach Rd (CA-99) due to roadwork.,,CA-99 S,R,Atwater,Merced,CA,95301,US,US/Pacific,KMER,2021-07-20 16:45:00,102.0,102.0,15.0,29.67,10.0,WNW,13.0,0.0,Fair,False,False,False,False,False,False,False,False,False,False,False,False,False,Day,Day,Day,Day
C-220862,2,2019-06-02 06:00:00.000000000,2019-06-02 16:00:00.000000000,43.851231,-89.132072,,,0.699999988079,Single alternate line traffic due to maintenance work on WI-73 both ways between CR-D and Mechanic St.,101.0,S Mechanic St,R,Princeton,Green Lake,WI,54968,US,US/Central,KY50,2019-06-02 05:56:00,48.0,48.0,80.0,29.01,10.0,CALM,0.0,0.0,Fair,False,False,True,False,False,False,False,False,False,False,False,False,False,Day,Day,Day,Day
C-220863,2,2020-05-15 07:02:35.000000000,2020-05-18 07:02:35.000000000,42.48264,-73.66591,42.51412,-73.78687,6.5345950778,Between I-90/Exit B1 and I-87 - Roadwork. Right lane closed.,,I-90 W,R,Nassau,Rensselaer,NY,12123,US,US/Eastern,KPSF,2020-05-15 06:54:00,54.0,54.0,86.0,28.7,10.0,CALM,0.0,0.0,Cloudy,False,False,False,False,True,False,False,False,False,False,False,False,False,Day,Day,Day,Day
C-220864,2,2020-04-01 00:03:36.000000000,2020-04-01 12:00:00.000000000,39.71447,-86.11717,39.69976,-86.10736,1.14232504368,At I-74/I-465/Exit 106 - Roadwork. Left lane closed.,,I-65 S,R,Indianapolis,Marion,IN,46227,US,US/Eastern,KIND,2020-04-01 00:35:00,41.0,37.0,93.0,29.12,10.0,NNW,6.0,0.0,Light Rain,False,False,False,False,False,False,False,False,False,False,False,False,False,Night,Night,Night,Night
C-220865,3,2018-04-23 09:00:00.000000000,2018-04-26 15:00:00.000000000,40.262005,-86.655235,,,17.0400009155,Right lane closed due to construction work on I-65 Southbound between Exit 168 IN-38 and Exit 158 IN-28.,,I-65 N,R,Frankfort,Clinton,IN,46041,US,US/Eastern,KTYQ,2018-04-23 08:55:00,46.6,,58.0,30.13,10.0,East,5.8,,Scattered Clouds,False,False,False,False,False,False,False,False,False,False,False,False,False,Day,Day,Day,Day
C-220866,2,2021-10-26 04:39:35.000000000,2021-12-28 02:59:30.000000000,41.061427,-75.964063,41.060251,-75.965003,0.0948704085699,Roadwork on S Mountain Blvd from Tracy Ln / Sand Springs Dr to SR 3021.,271.0,Sand Springs Dr,R,Drums,Luzerne,PA,18222,US,US/Eastern,KAVP,2021-10-26 04:54:00,59.0,59.0,93.0,28.56,10.0,ENE,5.0,0.14,Light Rain,False,False,False,False,False,False,False,False,False,False,False,False,False,Night,Night,Night,Night
C-220867,2,2021-05-10 08:00:00.000000000,2021-09-24 17:00:00.000000000,40.955795,-81.102049,40.948396,-81.10119,0.513183665234,Construction on OH-225 SB near US-62T Allow extra time.,12820.0,Union Ave NE,R,Alliance,Stark,OH,44601-9344,US,US/Eastern,KCAK,2021-05-10 07:51:00,42.0,37.0,85.0,28.74,5.0,NW,8.0,0.0,Mist,False,False,False,False,False,False,False,False,False,False,False,False,False,Day,Day,Day,Day
C-220868,2,2021-08-07 20:41:48.000000000,2021-08-07 20:55:48.000000000,40.807364,-73.793762,40.797789,-73.793663,0.6615897542629999,Slow traffic on I-295 S from Throgs Neck Bridge Toll Plaza (I-295) to Bell Blvd/Cross Island Pkwy/Exit 7 (I-295) due to roadwork.,,Erben Ave,R,Bronx,Bronx,NY,10465,US,US/Eastern,KLGA,2021-08-07 20:51:00,80.0,80.0,62.0,30.01,10.0,SSW,10.0,0.0,Cloudy,False,False,False,False,False,False,False,False,False,False,False,False,False,Night,Night,Day,Day
C-220869,2,2021-09-17 06:37:30.000000000,2021-09-17 06:59:00.000000000,39.304249,-76.953277,39.284726,-76.963102,1.44760514829,Slow traffic on MD-32 from I-70/US-40 (MD-32) to Burntwoods Rd (MD-32) due to roadwork.,,State Route 32,R,West Friendship,Howard,MD,21794,US,US/Eastern,KGAI,2021-09-17 06:56:00,70.0,70.0,97.0,29.64,2.0,VAR,3.0,0.0,Light Rain,False,False,False,False,False,False,False,False,False,False,False,False,False,Night,Day,Day,Day
C-220871,4,2018-05-28 23:45:09.000000000,2018-06-30 18:00:00.000000000,41.287562,-83.636786,41.253938,-83.64871,2.40430449525,At Cygnet Rd/Exit 171 - Roadwork.,,I-75 S,R,Portage,Wood,OH,43451,US,US/Eastern,KTDZ,2018-06-02 01:53:00,64.9,,87.0,29.91,10.0,NE,8.1,,Mostly Cloudy,False,False,False,False,False,False,False,False,False,False,False,False,False,Night,Night,Night,Night
C-220872,2,2020-09-24 07:25:00.000000000,2020-09-24 08:48:30.000000000,41.058737,-114.519654,41.07831,-114.573386,3.10855244731,Slow traffic on I-80 from NV-233/Exit 378 (I-80) to Exit 373 (I-80) due to roadwork.,,I-80 W,R,Montello,Elko,NV,89830,US,US/Pacific,,,,,,,,,,,,False,False,False,False,False,False,False,False,False,False,False,False,False,Day,Day,Day,Day
C-220873,2,2021-02-25 05:19:30.000000000,2021-02-25 20:08:06.000000000,33.567602,-112.097577,33.566705,-112.09969,0.136526154334,Slow traffic from N 18th Ave to W Alice Ave due to roadwork.,1814.0,W Dunlap Ave,R,Phoenix,Maricopa,AZ,85021-2943,US,US/Mountain,KDVT,2021-02-25 04:53:00,50.0,50.0,36.0,28.34,10.0,ENE,7.0,0.0,Fair,True,False,False,False,False,True,True,False,True,False,False,False,False,Night,Night,Night,Night
C-220875,2,2021-07-06 15:10:00.000000000,2021-07-06 15:40:30.000000000,44.63585,-123.078375,44.63743,-123.073334,0.270819700115,Stationary traffic on OR-99E from Burkhart St/Santiam Rd (Pacific Blvd SE/OR-99E) to Waverly Dr (Pacific Blvd/OR-99E) due to roadwork.,3846.0,Columbus St SE,L,Albany,Linn,OR,97321,US,US/Pacific,KCVO,2021-07-06 14:56:00,88.0,88.0,32.0,29.64,10.0,VAR,5.0,0.0,Fair,False,False,True,False,False,False,False,False,False,False,False,True,False,Day,Day,Day,Day
C-220876,2,2020-12-03 15:52:17.000000000,2020-12-04 16:39:39.000000000,38.832978,-76.060299,38.833549,-76.060311,0.0394576288397,Construction on US-50 WB near AIRPORT RD Expect delays.,10351.0,Ocean Gtwy,R,Easton,Talbot,MD,21601-6017,US,US/Eastern,KESN,2020-12-03 15:50:00,54.0,54.0,44.0,30.19,10.0,S,7.0,0.0,Partly Cloudy,False,False,False,False,False,False,False,False,False,False,False,False,False,Day,Day,Day,Day
C-220877,2,2020-09-14 07:00:00.000000000,2020-09-21 07:44:00.000000000,42.326426,-83.734771,42.331045,-83.73124399999998,0.366482823488,Construction on PONTIAC TRL NB near M-14 Drive with caution.,3705.0,Pontiac Trl,L,Ann Arbor,Washtenaw,MI,48105-9236,US,US/Eastern,KARB,2020-09-14 06:53:00,55.0,55.0,86.0,29.4,10.0,NE,5.0,0.0,Fair,False,False,True,False,False,False,True,False,False,True,False,False,False,Night,Day,Day,Day
