ID,Severity,Start_Time,End_Time,Start_Lat,Start_Lng,End_Lat,End_Lng,Distance(mi),Description,Number,Street,Side,City,County,State,Zipcode,Country,Timezone,Airport_Code,Weather_Timestamp,Temperature(F),Wind_Chill(F),Humidity(%),Pressure(in),Visibility(mi),Wind_Direction,Wind_Speed(mph),Precipitation(in),Weather_Condition,Amenity,Bump,Crossing,Give_Way,Junction,No_Exit,Railway,Roundabout,Station,Stop,Traffic_Calming,Traffic_Signal,Turning_Loop,Sunrise_Sunset,Civil_Twilight,Nautical_Twilight,Astronomical_Twilight
C-226761,2,2021-06-28 05:24:28.000000000,2021-06-28 08:09:28.000000000,46.652033,-96.435833,46.661527,-96.420106,0.993257687207,Construction on MN-9 NB near 2ND AVE Allow extra time.,16434.0,Highway 9 S,R,Barnesville,Clay,MN,56514,US,US/Central,KJKJ,2021-06-28 05:15:00,64.0,64.0,83.0,29.05,10.0,CALM,0.0,0.0,Fair,False,False,False,False,False,False,False,False,False,False,False,False,False,Night,Day,Day,Day
C-226762,2,2020-11-21 13:01:00.000000000,2020-11-21 15:01:00.000000000,33.872705,-118.28521299999998,33.872615,-118.281213,0.229551318321,Lane closure due to Guardrail Repair between Artesia Freeway Route 91 and Harbor Freeway Route 110,,Artesia Fwy E,R,Gardena,Los Angeles,CA,90248,US,US/Pacific,KHHR,2020-11-21 12:53:00,70.0,70.0,57.0,29.97,10.0,W,9.0,0.0,Fair,False,False,False,False,False,False,False,False,False,False,False,False,False,Day,Day,Day,Day
C-226763,2,2020-06-17 13:56:00.000000000,2020-11-03 20:08:37.000000000,41.013647,-78.31094300000002,40.985647,-78.184933,6.84976362191,Roadwork on I-80 eastbound between 5.9 miles east of Exit 123: PA 970 - WOODLAND and 5.9 miles west of Exit 133: PA 53 - KYLERTOWN/PHILIPSBURG. There is a lane restriction.,,I-80 E,R,Woodland,Clearfield,PA,16881,US,US/Eastern,KFIG,2020-06-17 13:54:00,78.0,78.0,36.0,28.63,10.0,E,8.0,0.0,Fair,False,False,False,False,False,False,False,False,False,False,False,False,False,Day,Day,Day,Day
C-226764,2,2020-10-08 03:11:00.000000000,2020-10-08 13:45:00.000000000,47.095244,-122.616817,47.0999,-122.607421,0.546631420229,Road work on I-5 northbound at milepost 119.5 near Pendleton Ave beginning at 8:11 pm on October 7 2020 until about 6:00 am on October 8 2020. All traffic exiting at Exit 120 using exit and on ramps.,,Pendleton Ave,R,Tacoma,Pierce,WA,98433,US,US/Pacific,KGRF,2020-10-08 03:16:00,54.0,54.0,100.0,29.54,10.0,CALM,0.0,0.0,Cloudy,False,False,False,False,False,False,False,False,False,False,False,False,False,Night,Night,Night,Night
C-226765,2,2021-04-07 04:30:00.000000000,2021-04-11 18:59:04.000000000,25.849467,-80.121498,25.844415,-80.121534,0.349067133376,Stationary traffic on FL-A1A from FL-A1A/Abbott Ave (FL-A1A) to FL-907/63rd St (FL-A1A) due to roadwork.,6580.0,Indian Creek Dr,L,Miami Beach,Miami-Dade,FL,33141-5807,US,US/Eastern,KOPF,2021-04-07 04:53:00,60.0,60.0,80.0,30.05,10.0,CALM,0.0,0.0,Fair,False,False,True,False,False,False,False,False,False,False,False,True,False,Night,Night,Night,Night
C-226766,2,2021-12-15 17:35:00.000000000,2021-12-15 20:13:59.000000000,33.492025,-112.203246,33.494822,-112.203833,0.196191818076,Stationary traffic from W Clarendon Ave to N 69th Dr due to roadwork.,3872.0,N 67th Ave,L,Phoenix,Maricopa,AZ,85033-4036,US,US/Mountain,KGEU,2021-12-15 17:58:00,53.0,53.0,47.0,28.96,10.0,SW,3.0,0.0,Fair,False,False,False,False,False,False,False,False,True,False,False,False,False,Night,Day,Day,Day
C-226767,2,2021-07-13 06:00:00.000000000,2021-07-13 17:45:00.000000000,43.337893,-116.608729,43.33973,-116.605758,0.195959517775,Survey crews will be working off the shoulder of the highway from 6am to 5pm Monday through Friday. Work began June 15th and and will end August 15th. Traffic will not be restricted. However please drive with caution in these areas. Thank you!,,Highway 45 S,R,Melba,Owyhee,ID,83641,US,US/Mountain,KMAN,2021-07-13 05:55:00,73.0,,25.0,27.25,10.0,,,0.0,,False,False,False,False,False,False,False,False,False,False,False,False,False,Night,Day,Day,Day
C-226768,2,2021-11-02 02:09:00.000000000,2021-11-02 02:36:00.000000000,34.222097,-86.899283,34.233299,-86.919597,1.3949060746899995,Stationary traffic on AL-157 from I-65 (AL-157) to CR-1107 (AL-157) due to roadwork.,,County Road 1184,R,Cullman,Cullman,AL,35057,US,US/Central,K3A1,2021-11-02 01:53:00,49.0,46.0,74.0,29.57,10.0,N,7.0,0.0,Fair,False,False,False,False,False,False,False,False,False,False,False,False,False,Night,Night,Night,Night
C-226769,2,2020-10-08 11:27:30.000000000,2020-10-08 17:41:00.000000000,40.98848,-73.666365,40.989134,-73.67402299999998,0.401945844761,Slow traffic on I-287 from I-95 (I-287) to I-95/Exit 12 (I-287) due to roadwork.,,New England Trwy S,R,Rye,Westchester,NY,10580,US,US/Eastern,KHPN,2020-10-08 11:56:00,60.0,60.0,46.0,29.47,10.0,WNW,18.0,0.0,Fair,False,False,False,False,False,False,False,False,False,False,False,False,False,Day,Day,Day,Day
C-226770,4,2020-07-08 03:00:00.000000000,2020-08-31 15:30:00.000000000,33.78602,-117.85311000000002,33.78971,-117.8531,0.254955364816,Closed between Almond Ave and Maple Ave - Closed due to roadwork.,200.0,S Glassell St,L,Orange,Orange,CA,92866-1918,US,US/Pacific,KSNA,2020-07-08 03:02:00,67.0,67.0,84.0,29.8,10.0,CALM,0.0,0.0,Cloudy,True,False,True,False,False,False,False,False,False,True,False,False,False,Night,Night,Night,Night
C-226771,2,2021-12-15 07:22:30.000000000,2021-12-15 07:44:30.000000000,35.370124,-78.661776,35.37509199999999,-78.662079,0.343680325686,Stationary traffic on NC-55 from US-421/NC-82/W Jackson Blvd (NC-55) to NC-27/Stewart St (NC-55) due to roadwork.,2993.0,NC Highway 55 E,R,Dunn,Harnett,NC,28334-6898,US,US/Eastern,KHRJ,2021-12-15 07:15:00,37.0,37.0,100.0,30.31,5.0,N,3.0,0.0,Mostly Cloudy,False,False,False,False,False,False,False,False,False,True,False,False,False,Day,Day,Day,Day
C-226772,4,2019-03-01 02:11:58.000000000,2019-03-01 07:11:44.000000000,30.757153,-85.321163,30.756773,-85.32422700000002,0.183809942369,Closed at Jackson Rest Area - Closed due to roadwork.,,FL-8 W,R,Marianna,Jackson,FL,32448,US,US/Central,KMAI,2019-03-01 01:53:00,64.9,,100.0,30.01,10.0,SSE,8.1,0.01,Overcast,False,False,False,False,False,False,False,False,False,False,False,False,False,Night,Night,Night,Night
C-226773,2,2021-01-27 07:01:00.000000000,2021-01-27 13:44:00.000000000,33.72381,-117.976437,33.73043,-117.985927,0.711762582955,Construction on I-405 NB near NEWLAND Drive with caution.,,I-405 N,R,Westminster,Orange,CA,92683,US,US/Pacific,KSLI,2021-01-27 06:56:00,47.0,43.0,67.0,30.13,10.0,ENE,8.0,0.0,Mostly Cloudy,False,False,False,False,True,False,False,False,False,False,False,False,False,Day,Day,Day,Day
C-226774,2,2021-06-16 13:22:37.000000000,2021-06-16 16:11:17.000000000,26.003449,-80.3117,26.007858,-80.31264200000003,0.310198305638,Stationary traffic on FL-823 - FL-820 from Washington St to NW 129th Ave due to roadwork.,599.0,S Flamingo Rd,L,Hollywood,Broward,FL,33025,US,US/Eastern,KHWO,2021-06-16 13:18:00,73.0,73.0,93.0,30.04,10.0,E,16.0,0.1,T-Storm,False,False,False,False,False,False,False,False,False,False,False,False,False,Day,Day,Day,Day
C-226775,2,2021-02-06 14:38:00.000000000,2021-02-06 15:59:00.000000000,34.881343,-98.112028,34.878482,-98.117666,0.375764706848,Stationary traffic on H. E. Bailey Tpke W - I-44 W from Chickasha Toll Plaza (I-44) to Exit 62 (I-44) due to roadwork.,,H. E. Bailey Tpke W,R,Cement,Caddo,OK,73017,US,US/Central,KCHK,2021-02-06 14:46:00,43.0,38.0,87.0,28.65,7.0,N,8.0,0.0,Cloudy,False,False,False,False,False,False,False,False,False,False,False,False,False,Day,Day,Day,Day
C-226776,2,2021-07-27 20:53:00.000000000,2021-07-27 21:33:30.000000000,43.315574,-96.72736,43.346312,-96.727414,2.12379526418,Slow traffic on SD-115 - SD-44 from US-18 (SD-115) to CR-116/276th St (SD-115) due to roadwork.,47398.0,281st St,R,Worthing,Lincoln,SD,57077-5702,US,US/Central,KFSD,2021-07-27 20:56:00,89.0,89.0,63.0,28.43,10.0,ESE,9.0,0.0,Fair,False,False,False,False,False,False,False,False,False,False,False,False,False,Day,Day,Day,Day
C-226777,4,2019-03-15 04:32:18.000000000,2019-03-15 09:31:33.000000000,40.76008,-73.9631,40.7505,-73.94053000000002,1.35408956641,Closed between E 59th St and Bridge Plz S/Queens Plz S - Closed due to roadwork. Lane blocked.,324.0,E 59th St,R,New York,New York,NY,10022-2006,US,US/Eastern,KNYC,2019-03-15 04:51:00,50.0,,80.0,29.86,10.0,Calm,,,Clear,True,False,False,False,False,False,True,False,True,True,False,False,False,Night,Night,Night,Night
C-226778,2,2018-10-03 17:02:43.000000000,2018-10-03 17:30:00.000000000,39.076467,-76.56375600000001,39.075622,-76.559157,0.2534957311569999,At Evergreen Rd - Construction work. look out for flagman.,208.0,Benfield Rd,R,Severna Park,Anne Arundel,MD,21146-2828,US,US/Eastern,KNAK,2018-10-03 16:54:00,80.1,,62.0,30.04,10.0,East,3.5,,Clear,False,False,True,False,False,False,False,False,False,False,False,False,False,Day,Day,Day,Day
C-226779,2,2020-12-09 07:37:00.000000000,2020-12-09 09:05:30.000000000,35.145996999999994,-97.476906,35.147666,-97.476884,0.115323615292,Stationary traffic on OK-74 from OK-74/Cottonwood Rd (S Main Ave/OK-74) to I-35 (Washington) (N Main Ave/OK-74) due to roadwork.,101.0,S Main Ave,R,Washington,McClain,OK,73093-9181,US,US/Central,KOUN,2020-12-09 07:35:00,35.0,35.0,68.0,28.82,10.0,CALM,0.0,0.0,Fair,False,False,False,False,False,False,False,False,False,False,False,False,False,Day,Day,Day,Day
C-226780,2,2019-10-29 21:31:35.000000000,2019-11-02 21:31:13.000000000,38.88921,-77.15895,38.88596,-77.16416,0.3590758440079999,Between Vienna and Jefferson St - Roadwork. Left lane blocked.,6700.0,Lee Hwy,L,Arlington,Arlington,VA,22205-1926,US,US/Eastern,KDCA,2019-10-29 21:52:00,62.0,62.0,75.0,30.24,10.0,CALM,0.0,0.0,Cloudy,False,False,True,False,False,False,False,False,False,False,False,False,False,Night,Night,Night,Night
C-226781,2,2021-10-05 08:47:00.000000000,2021-10-05 09:23:00.000000000,42.095085,-122.605938,42.076993,-122.60212,1.26527599654,Slow traffic on OR-99 S - Pacific Highway 1 S - I-5 S from OR-99/Exit 11 (I-5) to Old Siskiyou Hwy/Exit 6 (I-5) due to roadwork.,,I-5 S,R,Ashland,Jackson,OR,97520,US,US/Pacific,KMFR,2021-10-05 08:53:00,52.0,52.0,66.0,28.52,10.0,NNE,3.0,0.0,Fair,False,False,False,False,False,False,False,False,False,False,False,False,False,Day,Day,Day,Day
C-226782,2,2021-03-18 11:07:50.000000000,2021-12-30 17:00:00.000000000,26.01815,-97.608391,,,16.25,Intermittent lane closures due to construction work on FM-1732 Cavazos-Olmito Rd both ways from Frontage Rd to US-281 Military Hwy.,26603.0,FM 1732,L,San Benito,Cameron,TX,78586,US,US/Central,KHRL,2021-03-18 10:52:00,66.0,66.0,32.0,30.22,10.0,N,26.0,0.0,Fair / Windy,False,False,False,False,False,False,False,False,False,False,False,False,False,Day,Day,Day,Day
C-226783,2,2021-10-12 18:22:32.000000000,2021-10-12 20:30:52.000000000,28.999902,-81.302728,28.998909,-81.301778,0.0894601843889,Stationary traffic on FL-15A - US-92 W - US-17 S from W Chipola Ave to Taylor Rd E / S State Road 15A due to roadwork.,1588.0,S Woodland Blvd,R,Deland,Volusia,FL,32720-7709,US,US/Eastern,KDED,2021-10-12 18:30:00,80.0,80.0,76.0,29.88,10.0,NE,9.0,0.0,Fair,False,False,False,False,False,False,False,False,False,False,False,False,False,Day,Day,Day,Day
C-226784,2,2020-07-22 13:30:00.000000000,2020-07-23 01:46:00.000000000,38.516159,-119.478993,38.515949,-119.478368,0.0367718268626,Construction on US-395 SB near LARSON LN Expect long delays.,98.0,Thomas Ln,R,Coleville,Mono,CA,96107-9755,US,US/Pacific,KBAN,2020-07-22 13:35:00,88.0,88.0,17.0,25.17,10.0,VAR,3.0,0.0,Fair,True,False,False,False,False,False,False,False,False,False,False,False,False,Day,Day,Day,Day
C-226785,2,2020-09-30 20:18:30.000000000,2020-10-01 01:14:30.000000000,39.712229,-84.028638,39.709231,-84.028944,0.207779628587,Stationary traffic from Nutter Park Ln to US Highway 35 / US-35 W due to construction work.,819.0,Factory Rd,L,Dayton,Greene,OH,45434-6134,US,US/Eastern,KFFO,2020-09-30 19:56:00,65.0,65.0,39.0,28.92,10.0,WNW,15.0,0.0,Cloudy,False,False,False,False,False,False,False,False,False,False,False,True,False,Night,Night,Night,Day
C-226786,2,2020-08-07 07:00:00.000000000,2020-12-26 08:45:00.000000000,28.52425,-81.331108,28.523294,-81.331114,0.0660543133561,Construction on FL-15 SB near CURRY FORD RD Allow extra time.,,Curry Ford Rd,R,Orlando,Orange,FL,32812,US,US/Eastern,KORL,2020-08-07 06:53:00,79.0,79.0,84.0,29.95,10.0,CALM,0.0,0.0,Fair,False,False,True,False,False,False,False,False,False,False,False,True,False,Day,Day,Day,Day
C-226787,2,2021-06-03 14:19:00.000000000,2021-06-03 14:52:00.000000000,39.740039,-104.981616,39.740136,-104.987391,0.306896363754,Slow traffic on US-40 W - US-40 E - I-70 Bus E - US-287 S - I-70 Bus W - US-287 N from Ogden St (Colfax Ave) to Broadway (Colfax Ave) due to roadwork.,423.0,E Colfax Ave,L,Denver,Denver,CO,80203,US,US/Mountain,KBKF,2021-06-03 13:58:00,80.0,80.0,30.0,24.43,10.0,ENE,8.0,0.0,Fair,True,False,True,False,False,False,False,False,True,False,False,True,False,Day,Day,Day,Day
C-226788,2,2016-11-22 02:05:29.000000000,2016-11-22 06:00:00.000000000,41.094528,-73.632339,,,3.22,Left lane closed due to construction on CT-15 Southbound from Exit 33 Den Rd to Exit 31 North St.,,CT-15 S,R,Greenwich,Fairfield,CT,06830,US,US/Eastern,KHPN,2016-11-22 01:56:00,35.1,23.0,52.0,29.84,10.0,WNW,24.2,,Scattered Clouds,False,False,False,False,False,False,False,False,False,False,False,False,False,Night,Night,Night,Night
C-226789,4,2020-06-09 18:02:16.000000000,2020-06-16 03:58:17.000000000,40.73111,-75.36794,40.72721,-75.39301999999998,1.34052984797,Closed at PA-512/N Walnut St - Bridge closed. Roadwork.,3200.0,Bath Pike,L,Nazareth,Northampton,PA,18064-8927,US,US/Eastern,KABE,2020-06-09 17:51:00,88.0,88.0,40.0,29.47,10.0,SW,14.0,0.0,Fair,False,False,False,False,False,False,False,False,False,False,False,False,False,Day,Day,Day,Day
C-226790,4,2020-07-14 14:30:00.000000000,2020-07-14 20:46:00.000000000,35.768941,-119.250894,35.76690100000001,-119.25101399999998,0.141111030593,Construction on CA-99 SB near 9TH AVE Use alternate exit ramp.,,CA-99 S,R,Delano,Kern,CA,93215,US,US/Pacific,KPTV,2020-07-14 14:56:00,97.0,97.0,20.0,29.38,10.0,VAR,6.0,0.0,Fair,False,False,False,False,False,False,False,False,False,False,False,False,False,Day,Day,Day,Day
C-226791,2,2020-09-26 15:22:30.000000000,2020-09-26 22:10:00.000000000,40.441419,-80.15754100000002,40.452296,-80.171609,1.05449457078,Stationary traffic on Parkway West - US-22 W - US-30 W - I-376 W - Penn Lincoln Pkwy W from exit [60B] to exit [59] due to roadwork.,,I-376 W,R,Pittsburgh,Allegheny,PA,15205,US,US/Eastern,KPIT,2020-09-26 15:51:00,75.0,75.0,53.0,28.68,10.0,SSE,7.0,0.0,Mostly Cloudy,False,False,False,False,True,False,False,False,False,False,False,False,False,Day,Day,Day,Day
C-226792,3,2018-08-28 02:10:38.000000000,2018-08-28 06:00:00.000000000,37.98885,-122.040443,,,1.12999999523,Intermittent lane closures due to bridge maintenance work on CA-242 Northbound from Exit 1C Concord Ave to Exit 2 Grant St.,,Grant St,R,Concord,Contra Costa,CA,94520,US,US/Pacific,KCCR,2018-08-28 02:11:00,61.0,,75.0,29.91,10.0,SSW,11.5,,Overcast,False,False,False,False,False,False,False,False,False,False,False,False,False,Night,Night,Night,Night
C-226793,2,2017-07-06 08:00:00.000000000,2017-07-06 17:00:00.000000000,46.96365,-122.891563,,,0.0,Intermittent lane closures due to utility work on 85th Ave Westbound from 88th Ave to Dead End.,930.0,85th Ave SE,L,Olympia,Thurston,WA,98501,US,US/Pacific,KOLM,2017-07-06 07:54:00,57.0,,81.0,30.17,10.0,Calm,,,Clear,False,False,False,False,False,False,False,False,False,False,False,False,False,Day,Day,Day,Day
C-226794,2,2021-07-05 18:33:21.000000000,2021-07-05 20:35:19.000000000,25.889347,-80.186409,25.890307,-80.185905,0.0733558119766999,Slow traffic on FL-915 - FL-922 from NE 123rd St to NE 6th Ct due to roadwork.,12401.0,NE 6th Ave,R,North Miami,Miami-Dade,FL,33161-5515,US,US/Eastern,KOPF,2021-07-05 18:53:00,76.0,76.0,91.0,30.03,10.0,NE,5.0,0.07,Light Rain,False,False,False,False,False,False,False,False,False,False,False,False,False,Day,Day,Day,Day
C-226795,2,2020-11-15 04:00:00.000000000,2020-11-15 16:00:00.000000000,34.470773,-83.067691,34.44927,-83.116196,3.1373670495,Lane closed on I-85 S - GA-403 S from GA-77/Exit 177 (I-85) to GA-17/Exit 173 (I-85) due to roadwork.,,GA-403 S,R,Lavonia,Franklin,GA,30553,US,US/Eastern,KTOC,2020-11-15 03:55:00,55.0,55.0,85.0,29.05,10.0,NNE,3.0,,Partly Cloudy,False,False,False,False,False,False,False,False,False,False,False,False,False,Night,Night,Night,Night
C-226796,2,2021-12-08 18:17:36.000000000,2021-12-08 20:21:05.000000000,26.274985,-80.132584,26.274162,-80.135827,0.2088114787159999,Slow traffic on FL-834 from NW 8th Ave to NW 9th Ave due to roadwork.,,W Sample Rd,R,Pompano Beach,Broward,FL,33064,US,US/Eastern,KPMP,2021-12-08 17:53:00,78.0,78.0,76.0,29.99,10.0,SSE,6.0,0.0,Fair,False,False,False,False,False,False,False,False,False,False,False,False,False,Night,Night,Day,Day
C-226797,2,2020-07-22 05:20:56.000000000,2020-07-27 08:59:00.000000000,40.549759,-80.35652900000002,,,2.25999999046,Lane closed and single alternate line traffic due to construction work on PA-151 Westbound from Park Rd to Plunkett Rd.,3930.0,State Route 151,L,Aliquippa,Beaver,PA,15001-5916,US,US/Eastern,KPIT,2020-07-22 04:51:00,70.0,70.0,97.0,28.75,6.0,CALM,0.0,0.0,Partly Cloudy,False,False,False,False,False,False,False,False,False,False,False,False,False,Night,Night,Day,Day
C-226798,2,2021-07-26 02:44:53.000000000,2021-08-02 02:04:12.000000000,44.765599,-93.577552,44.768598,-93.574703,0.249936743696,Roadwork from Chestnut Blvd to Johnson Memorial Dr.,,Chestnut Blvd,R,Shakopee,Scott,MN,55379,US,US/Central,KFCM,2021-07-26 02:53:00,75.0,75.0,60.0,29.01,9.0,CALM,0.0,0.0,Partly Cloudy,False,False,False,False,False,False,False,False,False,False,False,False,False,Night,Night,Night,Night
C-226799,2,2020-05-19 08:19:18.000000000,2020-05-20 05:00:00.000000000,42.67002,-73.62063,42.69061,-73.63758,1.66286833907,At RT-136/Whiteview Rd - Roadwork. Roadway reduced to 1 lane.,2.0,Snyders Corner Rd,R,Wynantskill,Rensselaer,NY,12198-3121,US,US/Eastern,KALB,2020-05-19 07:51:00,57.0,57.0,44.0,29.97,10.0,N,7.0,0.0,Mostly Cloudy,False,False,True,False,False,False,False,False,False,False,False,True,False,Day,Day,Day,Day
C-226800,2,2020-08-28 14:21:00.000000000,2020-08-29 07:44:00.000000000,47.615266,-122.316856,47.615265,-122.315552,0.0607354850146,Construction on E PINE ST EB near 11TH AVE Allow extra time.,1200.0,E Pine St,L,Seattle,King,WA,98122-3922,US,US/Pacific,KBFI,2020-08-28 13:53:00,74.0,74.0,50.0,30.01,10.0,NNW,7.0,0.0,Fair,True,False,True,False,False,False,False,False,True,False,False,True,False,Day,Day,Day,Day
C-226801,4,2018-12-05 10:44:34.000000000,2018-12-05 14:00:00.000000000,34.06929,-118.23734,34.06691,-118.2402,0.232026850761,Ramp closed to Hill St/Exit 24B - Closed. Maintenance work.,,Stadium Way,R,Los Angeles,Los Angeles,CA,90012,US,US/Pacific,KCQT,2018-12-05 10:47:00,57.9,,51.0,29.95,10.0,East,5.8,,Overcast,False,False,False,False,False,False,False,False,False,True,False,False,False,Day,Day,Day,Day
C-226802,2,2021-10-29 14:55:43.000000000,2021-10-29 16:57:56.000000000,25.747524,-80.33769000000002,25.746905,-80.335719,0.129905082705,Slow traffic on County Hwy-913 - FL-973 - FL-972 from SW 88th Ave to SW 25th St due to roadwork.,2401.0,SW 88th Ave,L,Miami,Miami-Dade,FL,33165-2032,US,US/Eastern,KMIA,2021-10-29 14:53:00,85.0,85.0,57.0,29.75,10.0,W,14.0,0.0,Cloudy,False,False,True,False,False,False,False,False,False,False,False,True,False,Day,Day,Day,Day
C-226803,2,2018-11-19 08:02:19.000000000,2018-11-25 08:00:23.000000000,26.769561,-80.07036,26.7692,-80.06141,0.552674722332,At Old Dixie Hwy - Construction work.,1140.0,Dr Martin Luther King Jr Blvd,R,Riviera Beach,Palm Beach,FL,33404-7450,US,US/Eastern,KPBI,2018-11-20 07:53:00,73.0,,96.0,30.08,10.0,Calm,,,Scattered Clouds,False,False,True,False,False,False,True,False,False,False,False,True,False,Day,Day,Day,Day
C-226804,2,2021-08-29 05:57:27.000000000,2021-08-29 08:42:27.000000000,46.345498,-93.869877,46.348012,-93.869886,0.1737013871319999,Construction on MN-6 NB near MN-18 Allow extra time.,1813.0,State Highway 6,L,Deerwood,Crow Wing,MN,56444,US,US/Central,KAIT,2021-08-29 05:55:00,61.0,61.0,94.0,28.54,10.0,CALM,0.0,0.0,Fair,False,False,False,False,False,False,False,False,False,False,False,False,False,Night,Night,Day,Day
C-226805,4,2021-10-12 09:42:44.000000000,2021-10-14 23:59:00.000000000,43.813894,-91.242475,43.812754,-91.242477,0.0787665614045,Closed road from Vine St to Main St / 10th St S due to roadwork.,255.0,10th St N,L,La Crosse,La Crosse,WI,54601-3477,US,US/Central,KLSE,2021-10-12 09:53:00,62.0,62.0,78.0,29.18,10.0,NW,14.0,0.0,Cloudy,False,False,False,False,False,False,False,False,False,False,False,False,False,Day,Day,Day,Day
C-226806,2,2021-11-17 15:09:30.000000000,2021-11-17 17:13:56.000000000,33.509221000000004,-112.049618,33.510042,-112.047524,0.133306015474,Slow traffic from N 15th St to E Medlock Dr due to roadwork.,1513.0,E Camelback Rd,R,Phoenix,Maricopa,AZ,85014-3404,US,US/Mountain,KPHX,2021-11-17 14:51:00,80.0,80.0,15.0,28.75,10.0,S,6.0,0.0,Mostly Cloudy,False,False,False,False,False,False,False,False,False,True,False,False,False,Day,Day,Day,Day
C-226807,4,2020-03-21 19:14:49.000000000,2020-03-21 20:44:49.000000000,28.48685,-81.41734,28.50783,-81.41785,1.44991070056,Closed between W Oak Ridge Rd and I-4 - Closed due to roadwork.,2798.0,Americana Blvd,L,Orlando,Orange,FL,32839,US,US/Eastern,KORL,2020-03-21 18:53:00,85.0,85.0,40.0,30.05,10.0,S,6.0,0.0,Fair,False,False,True,False,False,False,False,False,False,False,False,True,False,Day,Day,Day,Day
C-226808,2,2021-12-03 09:00:00.000000000,2021-12-03 15:00:00.000000000,41.007881,-75.285271,,,0.0,Lane blocked due to construction work on Golden Slipper Rd Eastbound from PA-715 to Pocono Ln.,3391.0,Route 611,R,Bartonsville,Monroe,PA,18321-7812,US,US/Eastern,KMPO,2021-12-03 08:53:00,34.0,21.0,64.0,27.86,10.0,WNW,25.0,0.0,Fair / Windy,False,False,False,False,False,False,False,False,False,False,False,False,False,Day,Day,Day,Day
C-226809,2,2021-11-08 08:30:30.000000000,2021-11-08 08:52:30.000000000,40.798474,-107.547455,40.825842,-107.556442,1.94847465436,Slow traffic on CO-13 from US-40/Yampa Ave/Victory Way (CO-13) to CR-4 (CO-13) due to roadwork.,53300.0,N Highway 13,R,Craig,Moffat,CO,81625-9240,US,US/Mountain,KCAG,2021-11-08 08:53:00,40.0,40.0,73.0,23.98,10.0,CALM,0.0,0.0,Fair,False,False,False,False,False,False,False,False,False,False,False,False,False,Day,Day,Day,Day
C-226810,2,2021-02-03 14:51:30.000000000,2021-02-04 03:58:38.000000000,28.664729,-81.358034,28.663074,-81.35710300000002,0.127521038159,Slow traffic on County Hwy-427 - FL-436 from Galloway St to A C L Railroad due to roadwork.,2748.0,S Ronald Reagan Blvd,L,Altamonte Springs,Seminole,FL,32701-3797,US,US/Eastern,KORL,2021-02-03 14:53:00,59.0,59.0,22.0,29.92,10.0,WNW,14.0,0.0,Fair,False,False,True,False,False,False,True,False,False,False,False,False,False,Day,Day,Day,Day
C-226811,4,2018-07-24 18:32:14.000000000,2018-07-24 20:32:06.000000000,41.726217,-81.266801,41.726531,-81.26567800000002,0.0618399263126,At OH-283/OH-535 - Roadwork.,,OH-2 E,R,Painesville,Lake,OH,44077,US,US/Eastern,KCGF,2018-07-24 18:45:00,75.2,,78.0,29.95,6.0,ENE,4.6,,Mostly Cloudy,False,False,False,False,False,False,False,False,False,False,False,False,False,Day,Day,Day,Day
C-226812,1,2020-12-03 09:00:00.000000000,2020-12-03 15:00:00.000000000,38.68531,-90.235283,,,0.469999998808,Road closed due to bridge maintenance work on Shreve Ave Northbound from Bircher Ave to I-70 WB ramps.,5290.0,Shreve Ave,R,Saint Louis,St. Louis City,MO,63115-2226,US,US/Central,KSTL,2020-12-03 08:51:00,42.0,42.0,58.0,29.61,10.0,CALM,0.0,0.0,Cloudy,False,False,False,False,False,False,False,False,False,False,False,False,False,Day,Day,Day,Day
C-226813,2,2020-07-23 02:01:00.000000000,2020-07-23 13:46:00.000000000,39.162291,-122.9121,39.162244,-122.911475,0.0336398037267,Construction on CA-20 EB near VAN SLEEPER RD Expect long delays.,132.0,E State Highway 20,R,Upper Lake,Lake,CA,95485-8792,US,US/Pacific,KUKI,2020-07-23 01:56:00,63.0,63.0,70.0,29.18,10.0,SSE,7.0,0.0,Fair,False,False,False,False,False,False,False,False,False,False,False,False,False,Night,Night,Night,Night
C-226814,2,2021-06-17 08:09:38.000000000,2021-06-18 09:02:37.000000000,39.029884,-76.947417,39.033073,-76.94326,0.313574395429,Construction on I-95 NB near EXIT 4A Allow extra time.,,I-95 N,R,Hyattsville,Prince George's,MD,20783,US,US/Eastern,KCGS,2021-06-17 08:15:00,65.0,65.0,39.0,29.98,10.0,N,5.0,0.0,Fair,False,False,False,False,False,False,False,False,False,False,False,False,False,Day,Day,Day,Day
C-226815,2,2020-05-29 06:00:00.000000000,2020-05-29 18:30:00.000000000,39.73982,-103.59349,39.73982,-103.59349,0.0,At CR-3 - Maintenance work.,13867.0,Highway 71,L,Woodrow,Washington,CO,80757-9634,US,US/Mountain,KAKO,2020-05-29 05:53:00,52.0,52.0,93.0,25.48,10.0,SSE,8.0,0.0,Fair,False,False,False,False,False,False,False,False,False,True,False,False,False,Day,Day,Day,Day
C-226816,2,2021-12-09 16:24:30.000000000,2021-12-09 18:29:09.000000000,39.175312,-84.24002,39.175089,-84.23568900000002,0.232490142842,Slow traffic on OH-131 - OH-31 from Willnean Dr (OH-131) to Sugar Camp Rd (OH-131) due to roadwork.,1098.0,State Route 131,L,Milford,Clermont,OH,45150-2959,US,US/Eastern,KI69,2021-12-09 16:53:00,51.0,51.0,46.0,29.32,10.0,S,6.0,0.0,Fair,False,False,False,False,False,False,False,False,False,False,False,False,False,Day,Day,Day,Day
C-226817,2,2020-10-01 17:25:30.000000000,2020-10-02 02:27:00.000000000,29.680754,-95.381318,29.680587,-95.392982,0.70026477815,Slow traffic on I-610 from Scott St/Exit 37 (I-610) to Fannin St/Exit 1 (I-610) due to roadwork.,,I-610 W,R,Houston,Harris,TX,77054,US,US/Central,KMCJ,2020-10-01 17:53:00,86.0,86.0,29.0,30.03,10.0,NNE,7.0,0.0,Partly Cloudy,False,False,False,False,False,False,False,False,False,False,False,True,False,Day,Day,Day,Day
C-226818,2,2019-05-01 18:37:36.000000000,2019-05-05 18:38:12.000000000,40.373459,-75.92673,40.366464,-75.92693,0.483423126149,Between E Bellevue Ave and Bern St - Roadwork. Open.,2661.0,N 5th Street Hwy,L,Reading,Berks,PA,19605,US,US/Eastern,KRDG,2019-05-01 18:54:00,58.0,58.0,81.0,29.85,10.0,E,6.0,0.0,Cloudy,False,False,False,False,False,False,False,False,False,False,False,True,False,Day,Day,Day,Day
C-226819,4,2018-11-04 19:00:00.000000000,2018-11-05 00:01:00.000000000,40.115538,-83.03477,40.113353,-83.035108,0.1520218740709999,Closed at I-270 - Closed due to roadwork.,,Hard Rd,R,Columbus,Franklin,OH,43235,US,US/Eastern,KOSU,2018-11-04 18:53:00,54.0,,53.0,30.12,10.0,SE,10.4,,Mostly Cloudy,False,False,False,False,False,False,False,False,False,False,False,False,False,Night,Night,Night,Night
C-226820,2,2021-12-03 18:32:30.000000000,2021-12-03 19:14:00.000000000,33.450148,-111.955904,33.450958,-111.956463,0.06458060591,Slow traffic from Center Pkwy to N 56th St due to roadwork.,1947.0,N Priest Dr,L,Phoenix,Maricopa,AZ,85008,US,US/Mountain,KPHX,2021-12-03 18:51:00,71.0,71.0,27.0,28.76,9.0,WSW,3.0,0.0,Fair,True,False,False,False,False,False,False,False,True,False,False,False,False,Night,Night,Night,Day
C-226821,2,2021-09-14 22:33:30.000000000,2021-09-14 22:55:00.000000000,34.256640000000004,-86.219525,34.261745,-86.21197099999998,0.557223665853,Stationary traffic on County Hwy-34 - AL-75 from Edmondson St (AL-75) to S Broad St/S Hambrick St (AL-75) due to roadwork.,1001.0,Horton Rd,R,Albertville,Marshall,AL,35950-2569,US,US/Central,K8A0,2021-09-14 22:35:00,73.0,73.0,88.0,28.93,10.0,WSW,5.0,0.0,Fair,False,False,False,False,False,False,False,False,False,False,False,False,False,Night,Night,Night,Night
C-226822,2,2020-07-02 00:37:30.000000000,2020-07-08 00:37:31.000000000,43.663026,-116.478756,43.663126,-116.512866,1.70493496537,Construction on US-20 WB near N FOX RUN AVE Allow extra time.,6872.0,W Chinden Blvd,L,Meridian,Ada,ID,83646-5026,US,US/Mountain,KMAN,2020-07-02 00:35:00,61.0,61.0,52.0,27.22,10.0,NW,5.0,0.0,,False,False,False,False,False,False,False,False,False,False,False,False,False,Night,Night,Night,Night
C-226823,4,2021-06-12 09:00:00.000000000,2021-06-12 17:00:00.000000000,35.061784,-80.81947199999998,35.060982,-80.818789,0.0675475379409999,Closed road from NC-51/Pineville Matthews Rd (Elm Ln) to Ballantyne Commons Pkwy (Elm Ln) due to roadwork.,10900.0,Elm Ln,L,Charlotte,Mecklenburg,NC,28277,US,US/Eastern,KEQY,2021-06-12 08:53:00,76.0,76.0,85.0,29.07,10.0,VAR,3.0,0.0,Fair,False,False,True,False,False,False,False,False,False,False,False,False,False,Day,Day,Day,Day
C-226824,2,2020-04-23 21:02:08.000000000,2020-04-27 21:02:02.000000000,33.63292,-84.40753000000002,33.63136,-84.41223000000002,0.2910734775169999,Ramp to I-285/Exit 238 (South) - Construction work.,,GA-407 W,R,Atlanta,Clayton,GA,30349,US,US/Eastern,KATL,2020-04-23 20:52:00,62.0,62.0,90.0,28.59,10.0,S,23.0,0.02,Cloudy / Windy,False,False,False,False,False,False,False,False,False,False,False,False,False,Night,Night,Day,Day
C-226825,2,2019-07-17 00:00:00.000000000,2019-07-21 00:00:00.000000000,41.56335,-87.30618,41.56243,-87.30702,0.0769834242508999,At I-80/I-94/US-6/Exit 259 - Roadwork.,,I-65 S,R,Lake Station,Lake,IN,46405,US,US/Central,KGYY,2019-07-17 00:15:00,73.0,73.0,100.0,29.24,4.0,CALM,0.0,0.01,Fair,False,False,False,False,False,False,False,False,False,False,False,False,False,Night,Night,Night,Night
C-226826,2,2021-10-09 16:53:31.000000000,2021-10-09 17:14:41.000000000,29.611426,-95.26269,29.611885,-95.266503,0.231229904513,Stationary traffic from Blackhawk Blvd (Fuqua St) to Monroe Rd (Fuqua St) due to roadwork.,8725.0,Fuqua St,L,Houston,Harris,TX,77075,US,US/Central,KHOU,2021-10-09 16:53:00,88.0,88.0,48.0,29.86,10.0,S,12.0,0.0,Partly Cloudy,False,False,False,False,False,False,False,False,False,False,False,False,False,Day,Day,Day,Day
C-226827,2,2020-04-05 07:17:50.000000000,2020-04-06 07:17:50.000000000,35.80239,-78.68916999999998,35.80237,-78.68911999999997,0.00312410979865,At I-440/US-1 - Long-term roadwork.,3698.0,Wade Ave,R,Raleigh,Wake,NC,27607,US,US/Eastern,KRDU,2020-04-05 06:51:00,47.0,45.0,90.0,29.65,10.0,E,5.0,0.0,Fair,False,False,False,False,False,False,False,False,False,False,False,False,False,Day,Day,Day,Day
C-226828,2,2020-08-25 16:18:00.000000000,2020-08-25 22:38:30.000000000,34.878383,-98.117598,34.882513,-98.109468,0.54201172053,Stationary traffic on I-44 from Exit 62 (I-44) to Chickasha Toll Plaza (I-44) due to roadwork.,,H. E. Bailey Tpke E,R,Cement,Caddo,OK,73017,US,US/Central,KCHK,2020-08-25 16:45:00,93.0,93.0,26.0,28.69,10.0,ESE,13.0,0.0,Fair,False,False,False,False,False,False,False,False,False,False,False,False,False,Day,Day,Day,Day
C-226829,3,2018-05-23 21:17:24.000000000,2018-05-24 11:21:10.000000000,34.01211,-118.49701,34.04012,-118.57928,5.093084953380001,Between Ocean Ave and CA-27/Topanga Canyon Blvd - Roadwork.,,Moomat Ahiko Way,R,Santa Monica,Los Angeles,CA,90401,US,US/Pacific,KSMO,2018-05-23 20:51:00,59.0,,81.0,29.99,10.0,SW,5.8,,Clear,False,False,True,False,False,False,False,False,True,False,False,True,False,Night,Night,Night,Day
C-226830,2,2021-08-12 08:06:20.000000000,2021-08-12 10:09:04.000000000,25.890198,-80.188048,25.890307,-80.185905,0.133418729622,Slow traffic on FL-922 from Griffing Blvd/NE North Miami Blvd (NE 125th St/North Miami Blvd/FL-922) to NE 10th Ave (NE 125th St/North Miami Blvd/FL-922) due to roadwork.,506.0,NE 125th St,R,North Miami,Miami-Dade,FL,33161-4719,US,US/Eastern,KOPF,2021-08-12 07:53:00,83.0,83.0,77.0,30.06,10.0,NE,3.0,0.0,Fair,False,False,False,False,False,False,False,False,True,False,False,False,False,Day,Day,Day,Day
C-226831,2,2020-01-06 17:00:00.000000000,2020-09-01 00:45:00.000000000,38.31316500000001,-77.468113,38.312486,-77.46731199999998,0.063927157916,Construction on US-1 SB near CANAL ST Construction. Drive with caution.,2013.0,Princess Anne St,R,Fredericksburg,Fredericksburg,VA,22401-3438,US,US/Eastern,KEZF,2020-01-06 16:55:00,54.0,54.0,35.0,29.98,10.0,CALM,0.0,0.0,Fair,False,False,False,False,False,False,False,False,False,False,False,False,False,Day,Day,Day,Day
C-226832,2,2021-03-23 08:00:00.000000000,2021-04-02 17:45:00.000000000,34.259501,-78.079801,34.26377100000001,-78.079351,0.29614587378,Construction on US-17 NB near MM 0 Drive with caution.,,I-140 E,R,Leland,Brunswick,NC,28451,US,US/Eastern,KILM,2021-03-23 07:53:00,55.0,55.0,86.0,30.03,10.0,N,13.0,0.0,Cloudy,False,False,False,False,True,False,False,False,False,False,False,False,False,Day,Day,Day,Day
C-226833,2,2021-06-21 04:05:32.000000000,2021-06-25 02:30:07.000000000,32.92781,-96.377942,32.922487,-96.380407,0.394591791214,Roadwork from Memorial Pkwy to Gettysburg Blvd.,,Williamsburg Pkwy,R,Royse City,Rockwall,TX,75189,US,US/Central,KF46,2021-06-21 04:15:00,79.0,79.0,95.0,29.17,10.0,SSW,12.0,0.0,Cloudy,False,False,True,False,False,False,False,False,False,False,False,False,False,Night,Night,Night,Night
C-226834,2,2019-03-29 04:11:51.000000000,2019-03-29 06:01:00.000000000,37.619884000000006,-122.410515,,,0.109999999404,One lane closed due to construction on CA-82 El Camino Real Southbound between Crystal Springs Rd and Chapman Ave.,291.0,El Camino Real,L,San Bruno,San Mateo,CA,94066-4838,US,US/Pacific,KSFO,2019-03-29 03:56:00,46.9,,90.0,30.31,8.0,SW,5.8,,Scattered Clouds,False,False,False,False,False,False,False,False,False,False,False,False,False,Night,Night,Night,Night
C-226835,2,2020-08-24 07:00:00.000000000,2020-08-29 01:10:25.000000000,40.876221,-74.239863,40.87602,-74.239739,0.0153243961237,Construction construction on NJ 23 northbound between CR 527/North Mountain Ave (Cedar Grove Twp) and CR 631/Main St (Little Falls Twp) right lane closed until 4:00 P.M.,1295.0,Pompton Ave,L,Cedar Grove,Essex,NJ,07009-1073,US,US/Eastern,KCDW,2020-08-24 06:53:00,73.0,73.0,90.0,29.84,10.0,CALM,0.0,0.0,Fair,False,False,False,False,False,False,False,False,False,False,False,False,False,Day,Day,Day,Day
C-226836,4,2021-02-04 06:29:29.000000000,2021-02-11 23:59:00.000000000,42.364459,-71.083117,42.364292,-71.081906,0.0628907577218,Closed road from 3rd St to Kendall St due to roadwork.,500.0,3rd St,L,Cambridge,Middlesex,MA,02142,US,US/Eastern,KBOS,2021-02-04 06:54:00,30.0,21.0,85.0,29.67,10.0,WNW,10.0,0.0,Light Snow,True,False,True,False,False,False,False,False,False,False,False,False,False,Night,Day,Day,Day
C-226837,3,2019-01-11 06:31:01.000000000,2019-01-15 06:30:55.000000000,29.60637,-97.88562,29.65339,-97.58593,18.2897957906,Between TX-130/Exit 614 and US-183/Exit 632 - Construction work.,,TX-130 N,R,Seguin,Guadalupe,TX,78155,US,US/Central,KBAZ,2019-01-11 06:14:00,52.0,,83.0,30.09,10.0,NNE,4.6,,Overcast,False,False,False,False,False,False,False,False,False,False,False,False,False,Night,Night,Night,Day
C-226838,2,2017-05-30 07:01:56.000000000,2017-05-30 13:01:56.000000000,42.38012,-75.18782,42.44331,-75.09957,6.2712872415100005,Between State Hwy/Exit 12 and RT-205/Exit 13 - Construction work.,,I-88 E,R,Otego,Otsego,NY,13825,US,US/Eastern,KBGM,2017-05-30 06:53:00,55.0,,96.0,30.03,6.0,SSE,9.2,,Overcast,False,False,False,False,True,False,False,False,False,False,False,False,False,Day,Day,Day,Day
C-226839,2,2021-06-16 23:56:00.000000000,2021-06-18 01:13:33.000000000,27.43624,-82.45974100000002,27.39486,-82.450731,2.91200186546,Construction on I-75 SB near MM 215 Construction. Right lane closed.,,I-75 S,R,Bradenton,Manatee,FL,34203,US,US/Eastern,KSRQ,2021-06-16 23:53:00,74.0,74.0,93.0,29.99,10.0,SE,10.0,0.0,Mostly Cloudy,False,False,False,False,False,False,False,False,False,False,False,False,False,Night,Night,Night,Night
C-226840,2,2021-10-17 13:27:00.000000000,2021-10-17 13:48:30.000000000,28.593125,-81.36936,28.593045,-81.36389,0.3318936318609999,Slow traffic on FL-424A - FL-426 from I-4 (FL-426) to FL-527/Orange Ave (FL-426) due to roadwork.,1491.0,W Fairbanks Ave,R,Winter Park,Orange,FL,32789-4862,US,US/Eastern,KORL,2021-10-17 13:53:00,82.0,82.0,54.0,29.88,10.0,NE,8.0,0.0,Fair,False,False,True,False,False,False,False,False,False,False,False,False,False,Day,Day,Day,Day
C-226841,2,2021-05-26 07:55:18.000000000,2021-07-10 02:58:27.000000000,41.702833,-75.069231,41.705002,-75.066709,0.1984545230559999,Roadwork roadwork on CR-114 eastbound at NEWMAN RD (Cochecton) 1 Right lane of 2 lanes closed for Interstate bridge rehabilitation to occur fromk 5/26 through 11/30 during the hours of 7:00 AM to 5:50 PM. There will be alternating lanes blocked with flagger personnel present. This work is weather dependent. IR# 43546 D264380,1794.0,Cochecton Tpke,R,Damascus,Wayne,PA,18415-3001,US,US/Eastern,KMSV,2021-05-26 07:56:00,64.0,64.0,87.0,28.58,9.0,SSE,3.0,0.0,Fair,False,False,False,False,False,False,False,False,False,False,False,False,False,Day,Day,Day,Day
C-226842,2,2019-01-17 09:02:58.000000000,2019-01-21 09:02:27.000000000,29.7705,-95.17783,29.79369,-95.07563,6.33467634092,Between Freeport St/Exit 780 and Monmouth Dr/Exit 786 - Construction work. Lane blocked.,1273.0,Freeport St,R,Houston,Harris,TX,77015-5124,US,US/Central,KHOU,2019-01-17 08:53:00,61.0,,90.0,30.19,10.0,WSW,16.1,,Overcast,False,False,False,False,False,False,False,False,False,False,False,True,False,Day,Day,Day,Day
C-226843,2,2021-09-12 23:00:00.000000000,2021-09-14 23:59:59.000000000,40.725011,-74.00699300000002,40.731552,-74.039439,1.75795362621,Tunnel repairs on Holland Tunnel North Tube westbound New York Side (New York) to New Jersey Side (Jersey City) Sunday September 12th 2021 thru Wednesday September 15th 2021 Sunday/Tuesday 11:00 PM thru 05:00 AM 1 Left lane of 2 lanes closed Monday September 13th 2021 thru Tuesday September 14th 2021 11:00 PM thru 05:00 AM 1 Left lane of 2 lanes closed,,Holland Tunl W,R,New York,New York,NY,10013,US,US/Eastern,KJRB,2021-09-12 22:51:00,78.0,78.0,60.0,29.93,10.0,VAR,3.0,0.0,Cloudy,False,False,True,False,False,False,False,False,False,False,False,True,False,Night,Night,Night,Night
C-226844,2,2021-02-16 07:00:30.000000000,2021-02-16 15:41:34.000000000,26.229061,-80.248062,26.229905,-80.252845,0.302126512428,Stationary traffic on FL-817 from NW 71st Ave to Canal Access Rd due to roadwork.,7129.0,Southgate Blvd,L,Fort Lauderdale,Broward,FL,33321,US,US/Eastern,KFXE,2021-02-16 06:53:00,77.0,77.0,88.0,29.98,10.0,S,8.0,0.0,Partly Cloudy,False,False,False,False,False,False,False,False,False,False,False,False,False,Day,Day,Day,Day
C-226845,2,2021-04-09 06:02:00.000000000,2021-04-09 16:25:00.000000000,33.305345,-111.957331,33.305315,-111.963062,0.33094457404,Stationary traffic from Kyrene Rd (W Chandler Blvd) to 56th St (W Chandler Blvd) due to roadwork.,6714.0,W Chandler Blvd,R,Chandler,Maricopa,AZ,85226,US,US/Mountain,KCHD,2021-04-09 06:47:00,61.0,61.0,34.0,28.5,10.0,NE,5.0,,Fair,False,False,True,False,False,False,False,False,False,False,False,True,False,Night,Day,Day,Day
C-226846,2,2021-08-20 11:40:01.000000000,2021-08-20 14:01:57.000000000,25.685194,-80.418423,25.684322,-80.41662099999998,0.1273568683489999,Slow traffic on FL-825 - FL-94 from SW 139th Ave to SW 90th St due to roadwork.,13724.0,SW 88th St,L,Miami,Miami-Dade,FL,33186-1302,US,US/Eastern,KTMB,2021-08-20 11:53:00,91.0,91.0,50.0,29.98,10.0,NE,7.0,0.0,Fair,False,False,True,False,False,False,False,False,False,False,False,False,False,Day,Day,Day,Day
C-226847,2,2019-07-04 06:31:46.000000000,2019-07-31 15:00:00.000000000,38.708191,-75.092773,,,0.0,Intermittent lane closures due to construction work on Jefferson St both ways at Rosevelt St.,1.0,Jefferson St,R,Rehoboth Beach,Sussex,DE,19971,US,US/Eastern,KGED,2019-07-04 06:54:00,76.0,76.0,94.0,29.94,4.0,CALM,0.0,0.0,Fair,False,False,False,False,False,False,False,False,False,False,False,False,False,Day,Day,Day,Day
C-226848,2,2019-01-21 07:58:12.000000000,2019-10-22 18:11:21.000000000,40.31895,-76.42359,40.2942,-76.42454000000002,1.7107945747100002,Between Colebrook Rd and PA-419/Main St - Roadwork. Traffic problem.,,Arborvitae St,R,Lebanon,Lebanon,PA,17042,US,US/Eastern,KMUI,2019-01-21 07:56:00,5.2,-12.1,45.0,30.16,10.0,West,13.8,,Clear,False,False,False,False,False,False,False,False,False,True,False,False,False,Day,Day,Day,Day
C-226849,2,2021-03-11 07:49:00.000000000,2021-03-11 16:15:00.000000000,38.371438,-78.263838,38.378341,-78.253789,0.723719852341,Construction on US-29 NB near MADISON CL Expect delays.,,Fairground Rd,R,Madison,Madison,VA,22727,US,US/Eastern,KOMH,2021-03-11 07:55:00,52.0,52.0,50.0,29.83,10.0,SSW,6.0,0.0,Fair,False,False,False,False,False,False,False,False,False,False,False,False,False,Day,Day,Day,Day
C-226850,4,2021-10-08 22:00:00.000000000,2021-10-11 06:00:00.000000000,47.643789,-122.304609,47.644154,-122.304332,0.0283244078592,Closed road from E Montlake Pl E / Montlake Blvd E to Montlake Blvd E due to roadwork.,,E Montlake Pl E,R,Seattle,King,WA,98112,US,US/Pacific,KBFI,2021-10-08 21:53:00,46.0,44.0,86.0,30.1,10.0,SSE,5.0,0.0,Fair,False,False,False,False,False,False,False,False,False,False,False,False,False,Night,Night,Night,Night
C-226851,2,2021-05-22 22:01:00.000000000,2021-05-23 06:59:00.000000000,33.77426,-118.071689,33.774432,-118.044711,1.5494666391499998,Lane closure due to Utility Work between Seal Beach Blvd and Garden Grove Frwy East Rte 22,,CA-22 E,R,Seal Beach,Orange,CA,90740,US,US/Pacific,KSLI,2021-05-22 21:58:00,56.0,56.0,77.0,30.07,10.0,WNW,5.0,0.0,Fair,False,False,False,False,True,False,False,False,False,False,False,False,False,Night,Night,Night,Night
C-226852,2,2018-06-18 07:00:00.000000000,2018-06-18 17:00:00.000000000,40.607716,-75.485619,,,0.289999991655,Road closed due to construction on 12th St both ways between Liberty St and Allen St.,1173.0,W Allen St,R,Allentown,Lehigh,PA,18102-2245,US,US/Eastern,KXLL,,,,,,,,,,,False,False,False,False,False,False,False,False,False,False,False,False,False,Day,Day,Day,Day
C-226853,2,2019-08-21 07:02:31.000000000,2019-08-25 07:02:08.000000000,37.481511,-122.228702,37.48213,-122.22959,0.0648050514256,At El Camino Real - Construction work.,1407.0,El Camino Real,L,Redwood City,San Mateo,CA,94063-1906,US,US/Pacific,KSQL,2019-08-21 06:47:00,59.0,59.0,82.0,29.98,10.0,CALM,0.0,0.0,Fair,False,False,False,False,False,False,False,False,False,False,False,False,False,Day,Day,Day,Day
C-226854,2,2019-02-26 05:27:47.000000000,2019-03-03 23:59:00.000000000,42.985821,-71.444489,,,0.0,Intermittent lane closures due to maintenance work on Massabesic St both ways between Hall St and Belmont St.,120.0,Massabesic St,L,Manchester,Hillsborough,NH,03103-4244,US,US/Eastern,KMHT,2019-02-26 05:53:00,19.9,6.2,50.0,30.17,10.0,NW,15.0,,Clear,False,False,False,False,False,False,False,False,False,False,False,False,False,Night,Night,Day,Day
C-226855,2,2021-08-19 16:57:22.000000000,2021-08-19 19:03:20.000000000,40.242911,-79.576844,40.239427,-79.579299,0.273334630524,Stationary traffic on US-119 S from Fairview St (US-119) to Burton Ave (US-119) due to roadwork.,219.0,N 4th St,R,Youngwood,Westmoreland,PA,15697-1309,US,US/Eastern,KLBE,2021-08-19 16:47:00,75.0,75.0,89.0,28.82,10.0,SW,7.0,0.0,Fair,False,False,False,False,False,False,False,False,False,False,False,False,False,Day,Day,Day,Day
C-226856,2,2018-11-30 10:31:00.000000000,2021-11-19 10:19:06.000000000,31.95633,-92.704007,31.957079,-92.670603,1.95889945047,Road Maintenance Operations on LA-156 Both Directions from US-167 to 2021 Ft Before LA-501 . Lane(s) alternating.,1051.0,Highway 156,L,Winnfield,Winn,LA,71483,US,US/Central,KIER,2018-11-30 10:35:00,72.0,,88.0,29.89,10.0,South,6.9,,Overcast,False,False,False,False,False,False,False,False,False,False,False,False,False,Day,Day,Day,Day
C-226857,2,2020-11-19 05:01:00.000000000,2020-11-19 13:01:00.000000000,33.106183,-117.312525,33.033158,-117.279528,5.39516048305,Lane closure due to Highway Construction between Poinsettia Ln / Aviara Pkwy and Santa Fe Dr,,I-5 S,R,Carlsbad,San Diego,CA,92011,US,US/Pacific,KCRQ,2020-11-19 04:53:00,51.0,51.0,86.0,29.74,10.0,ESE,3.0,0.0,Fair,False,False,False,False,False,False,False,False,False,False,False,False,False,Night,Night,Night,Day
C-226858,3,2021-01-08 22:00:00.000000000,2021-01-09 05:00:00.000000000,33.598178999999995,-117.678078,,,0.600000023842,Exit ramp from I-5 Southbound at Exit 89 to La Paz Rd lane closed due to construction work.,,I-5 S,R,Laguna Hills,Orange,CA,92653,US,US/Pacific,KSNA,2021-01-08 21:53:00,53.0,53.0,83.0,30.03,7.0,SSW,3.0,0.0,Fair,False,False,False,False,False,False,False,False,False,False,False,False,False,Night,Night,Night,Night
C-226859,2,2018-10-18 09:03:02.000000000,2018-10-23 09:01:41.000000000,27.954684000000004,-82.46093,27.952952000000003,-82.46094599999998,0.119673786787,At Harrison St - Construction work.,1288.0,N Tampa St,L,Tampa,Hillsborough,FL,33602-3323,US,US/Eastern,KTPF,2018-10-18 08:55:00,,,,30.18,10.0,NE,5.8,,Mostly Cloudy,False,False,True,False,False,False,False,False,False,False,False,False,False,Day,Day,Day,Day
C-226860,2,2017-03-29 07:00:00.000000000,2017-04-07 18:00:00.000000000,39.42009,-77.43740799999998,,,0.0,Intermittent lane closures due to water main work on Baughmans Ln between US-40 Patrick St and Key Pkwy.,130.0,Baughmans Ln,R,Frederick,Frederick,MD,21702-4011,US,US/Eastern,KFDK,2017-03-29 06:55:00,53.6,,94.0,30.1,10.0,NNE,8.1,,Overcast,False,False,True,False,False,False,False,False,False,False,False,False,False,Day,Day,Day,Day
C-226861,2,2021-08-20 14:02:06.000000000,2021-08-20 14:33:07.000000000,44.88293,-93.207045,44.883459,-93.210519,0.173956081602,Stationary traffic at Northwest Dr due to roadwork.,,Glumack Dr,R,Saint Paul,Hennepin,MN,55111,US,US/Central,KMSP,2021-08-20 13:53:00,88.0,88.0,48.0,28.91,10.0,S,16.0,0.0,Mostly Cloudy,False,False,False,False,False,False,False,False,False,False,False,False,False,Day,Day,Day,Day
C-226862,2,2021-04-23 22:28:30.000000000,2021-04-24 00:09:30.000000000,35.117644,-81.57679399999998,35.11006,-81.60245400000002,1.54204318041,Stationary traffic on I-85 S from SC-5/Exit 99 (I-85) to SC-18/Shelby Hwy/Exit 96 (I-85) due to roadwork.,,I-85 S,R,Gaffney,Cherokee,SC,29341,US,US/Eastern,KEHO,2021-04-23 22:35:00,50.0,50.0,67.0,29.23,10.0,CALM,0.0,0.0,Mostly Cloudy,False,False,False,False,False,False,False,False,False,False,False,False,False,Night,Night,Night,Night
C-226863,2,2021-11-18 09:00:00.000000000,2021-11-18 15:45:00.000000000,42.690186,-73.801625,42.690585,-73.802075,0.0358091277871999,Construction on NY-5 WB near OSBORNE RD Construction. Right lane closed.,1121.0,Central Ave,R,Albany,Albany,NY,12205-3402,US,US/Eastern,KALB,2021-11-18 08:51:00,52.0,52.0,86.0,29.65,5.0,SSE,13.0,0.0,Cloudy,False,False,True,False,False,False,False,False,True,False,False,True,False,Day,Day,Day,Day
C-226864,2,2021-06-24 15:43:07.000000000,2021-06-24 17:51:03.000000000,39.697344,-104.900337,39.696529,-104.896598,0.206598004814,Stationary traffic on CO-83 from Leetsdale Dr / S Quebec St to S Trenton St due to roadwork.,1049.0,S Parker Rd,R,Denver,Arapahoe,CO,80231-2505,US,US/Mountain,KAPA,2021-06-24 15:53:00,80.0,80.0,30.0,24.17,10.0,VAR,7.0,0.0,Mostly Cloudy,False,False,True,False,False,False,False,False,True,False,False,False,False,Day,Day,Day,Day
C-226865,2,2020-12-12 17:34:00.000000000,2020-12-13 00:45:00.000000000,37.586921,-77.476605,37.583651,-77.47449499999998,0.253759073358,Construction on I-195 SB near MM 3 Expect delays.,,I-195 S,R,Richmond,Richmond City,VA,23227,US,US/Eastern,KOFP,2020-12-12 17:54:00,58.0,58.0,67.0,29.77,10.0,S,9.0,0.0,Fair,False,False,False,False,False,False,False,False,False,False,False,False,False,Night,Night,Day,Day
C-226866,2,2020-03-31 21:14:42.000000000,2020-04-01 06:00:00.000000000,37.50456,-121.96379,37.52782,-121.99832,2.48271437118,Between Fremont Blvd and Mowry Ave - Construction work.,,I-880 N,R,Fremont,Alameda,CA,94538,US,US/Pacific,KPAO,2020-03-31 20:47:00,55.0,55.0,77.0,30.09,10.0,WNW,15.0,,Fair,False,False,False,False,True,False,False,False,False,False,False,False,False,Night,Night,Night,Night
C-226867,2,2021-08-21 16:43:00.000000000,2021-08-21 17:25:00.000000000,39.097059,-84.517501,39.097927,-84.512173,0.291922815114,Slow traffic on US-42 N from US-42/US-127 (2nd St W) to I-71/Main St (2nd St) due to roadwork.,,W 2nd St,R,Cincinnati,Hamilton,OH,45202,US,US/Eastern,KLUK,2021-08-21 16:53:00,87.0,87.0,49.0,29.35,10.0,SSW,8.0,0.0,Fair,False,False,True,False,False,False,False,False,False,False,False,True,False,Day,Day,Day,Day
C-226868,2,2021-10-27 17:48:30.000000000,2021-11-06 16:47:43.000000000,47.206418,-122.471507,47.207053,-122.463897,0.359889888615,Stationary traffic from S Oakes St to Tacoma due to roadwork.,2599.0,S 56th St,R,Tacoma,Pierce,WA,98409-6911,US,US/Pacific,KTCM,2021-11-06 13:58:00,46.0,40.0,89.0,29.56,10.0,SSE,10.0,0.02,Fair,False,False,False,False,False,False,False,False,True,False,False,False,False,Day,Day,Day,Day
C-226869,3,2019-10-04 21:03:06.000000000,2019-10-08 21:02:56.000000000,33.66513,-84.41891,33.65694000000001,-84.43431,1.05098040222,Between Sylvan Rd/Central Ave/Exit 75 and Virginia Ave/Exit 73 - Construction work. 2 right lanes blocked.,,GA-403 S,R,Atlanta,Fulton,GA,30354,US,US/Eastern,KATL,2019-10-04 20:52:00,87.0,87.0,41.0,28.9,10.0,NNW,9.0,0.0,Fair,False,False,False,False,True,False,False,False,False,False,False,False,False,Night,Night,Night,Night
C-226870,2,2021-05-26 20:56:15.000000000,2021-05-27 05:45:00.000000000,40.743728,-73.732112,40.764144,-73.75838,1.96978649717,Construction on CROSS ISLAND PKWY NB near NORTHERN BLVD Right Lanes closed. Expect long delays.,,Cross Island Pkwy N,R,Bellerose,Queens,NY,11426,US,US/Eastern,KJFK,2021-05-26 20:51:00,67.0,67.0,87.0,29.9,10.0,SSW,14.0,0.0,Mostly Cloudy,False,False,False,False,True,False,False,False,False,False,False,False,False,Night,Night,Day,Day
C-226871,2,2021-05-04 06:00:00.000000000,2021-05-05 16:35:21.000000000,40.380459,-79.810005,40.367953,-79.779825,1.808391998,Construction on US-30 EB near THOMAS AVE Allow extra time.,523.0,Lincoln Hwy,L,East Mc Keesport,Allegheny,PA,15035-1405,US,US/Eastern,KAGC,2021-05-04 05:53:00,63.0,63.0,97.0,28.42,8.0,SW,7.0,0.0,Cloudy,False,False,False,False,False,False,False,False,False,False,False,True,False,Night,Day,Day,Day
C-226872,4,2019-08-21 04:33:16.000000000,2019-08-21 06:33:06.000000000,29.77041,-95.45624,29.75726,-95.45573,0.90909324124,Between I-10/Exit 11 and Post Oak Blvd/Exit 9 - Roadwork.,,I-610 S,R,Houston,Harris,TX,77024,US,US/Central,KMCJ,2019-08-21 04:53:00,80.0,80.0,85.0,29.94,10.0,CALM,0.0,0.0,Fair,False,False,False,False,False,False,False,False,False,False,False,False,False,Night,Night,Night,Night
C-226873,2,2021-06-26 15:31:48.000000000,2021-06-26 18:38:24.000000000,41.65918900000001,-87.57494,41.662205,-87.590579,0.8337363859,Slow traffic from S Torrence Ave / S Brainard Ave to I-94 W due to roadwork.,1975.0,E 130th St,R,Chicago,Cook,IL,60633-2310,US,US/Central,KGYY,2021-06-26 15:45:00,75.0,75.0,94.0,29.17,7.0,SSW,3.0,0.0,Mostly Cloudy,False,False,False,False,False,False,False,False,False,False,False,False,False,Day,Day,Day,Day
C-226874,2,2021-09-15 15:39:30.000000000,2021-09-15 16:04:30.000000000,38.314254,-111.52323,38.305588,-111.492234,1.78394854368,Stationary traffic on UT-24 from E 400 N (Main St/UT-24) to State St (UT-24) due to roadwork.,1110.0,W Main St,L,Torrey,Wayne,UT,84775,US,US/Mountain,K4HV,2021-09-15 15:35:00,90.0,90.0,13.0,25.45,10.0,ESE,6.0,,Fair,False,False,False,False,False,False,False,False,False,False,False,False,False,Day,Day,Day,Day
C-226875,3,2020-05-14 09:04:23.000000000,2020-05-14 11:02:38.000000000,41.42928,-73.80525,41.42879,-73.80458,0.0484864193229,At CR-21/Peekskill Hollow Rd - Roadwork. Ramp restrictions.,,Taconic State Pkwy,R,Putnam Valley,Putnam,NY,10579,US,US/Eastern,KSWF,2020-05-14 08:45:00,50.0,50.0,43.0,29.8,10.0,CALM,0.0,0.0,Fair,False,False,False,False,False,False,False,False,False,False,False,False,False,Day,Day,Day,Day
C-226876,4,2021-04-13 15:16:00.000000000,2021-07-07 11:06:54.000000000,41.588231,-75.316098,41.586452,-75.316865,0.129150044338,Roadwork on GRANGE RD both directions between ROOSEVELT HW and BEECH GROVE RD. All lanes closed.,96.0,Grange Rd,R,Honesdale,Wayne,PA,18431-8006,US,US/Eastern,KMSV,2021-04-13 14:56:00,59.0,59.0,46.0,28.53,10.0,CALM,0.0,0.0,Fair,False,False,False,False,False,False,False,False,False,False,False,False,False,Day,Day,Day,Day
C-226877,2,2021-02-10 04:23:40.000000000,2021-02-14 11:52:14.000000000,31.904407,-106.452584,31.878277,-106.493636,3.00986212251,Roadwork on US-54/Gateway Blvd (TX-375 Loop/Woodrow Bean Transmountain Dr) from Tom Mays Park Access Rd (TX-375 Loop/Woodrow Bean Transmountain Dr) to TX-375 Loop.,,Woodrow Bean Transmountain Dr,R,El Paso,El Paso,TX,79924,US,US/Mountain,KBIF,2021-02-10 04:51:00,51.0,51.0,21.0,25.89,10.0,SSW,7.0,0.0,Fair,False,False,False,False,False,False,False,False,False,False,False,False,False,Night,Night,Night,Night
C-226878,2,2021-03-31 23:28:00.000000000,2021-04-02 00:13:23.000000000,26.639817,-81.80157,26.629577,-81.80467,0.732964430659,Construction on I-75 SB near MM 138 Construction. Left lane closed.,,I-75 S,R,Fort Myers,Lee,FL,33905,US,US/Eastern,KFMY,2021-03-31 23:53:00,76.0,76.0,91.0,30.08,10.0,NW,5.0,0.0,Fair,False,False,False,False,False,False,False,False,False,False,False,False,False,Night,Night,Night,Night
C-226879,2,2020-09-23 07:11:30.000000000,2020-09-23 09:20:30.000000000,32.854236,-83.634266,32.856845,-83.638908,0.324170782958,Stationary traffic on I-16 from US-129/US-23/Spring St/Exit 1 (I-16) to I-75 (I-16) due to roadwork.,,GA-404 W,R,Macon,Macon-Bibb County,GA,31211,US,US/Eastern,KMCN,2020-09-23 07:53:00,59.0,59.0,94.0,29.72,9.0,CALM,0.0,0.0,Mostly Cloudy,False,False,False,False,False,False,False,False,False,False,False,False,False,Night,Day,Day,Day
C-226880,2,2021-09-28 16:16:44.000000000,2021-09-28 16:38:44.000000000,32.779194,-97.334002,32.781674,-97.328789,0.347943286608,Stationary traffic from US-287 Bus/N Main St (W Northside Dr) to I-35W/US-287/E Northside Dr (W Northside Dr) due to roadwork.,1075.0,E Northside Dr,R,Fort Worth,Tarrant,TX,76102,US,US/Central,KFTW,2021-09-28 15:53:00,88.0,88.0,46.0,29.04,10.0,SSE,14.0,0.0,Fair,False,False,False,False,False,False,False,False,False,False,False,False,False,Day,Day,Day,Day
C-226881,2,2021-05-24 05:35:30.000000000,2021-05-24 12:02:00.000000000,40.163334000000006,-75.284126,40.16702100000001,-75.290279,0.412848311008,Slow traffic on PA-73 from Penllyn Blue Bell Pike (Skippack Pike/PA-73) to US-202/DeKalb Pike (Skippack Pike/PA-73) due to roadwork.,1187.0,Skippack Pike,R,Blue Bell,Montgomery,PA,19422-1244,US,US/Eastern,KLOM,2021-05-24 05:35:00,63.0,63.0,54.0,29.86,10.0,NE,6.0,0.0,Cloudy,False,False,False,False,False,False,False,False,False,False,False,True,False,Night,Day,Day,Day
C-226882,2,2020-09-15 13:35:30.000000000,2020-09-15 19:49:24.000000000,25.809024,-80.260307,25.808529,-80.259425,0.0646493095035,Queuing traffic on US-27 from FL-953/8th Ave/Le Jeune Rd (US-27) to NW 37th Ave/N Douglas Rd/SE 12th St (US-27) due to roadwork.,,E Okeechobee Rd,R,Hialeah,Miami-Dade,FL,33010,US,US/Eastern,KMIA,2020-09-15 13:53:00,89.0,89.0,61.0,29.99,10.0,SE,13.0,0.0,Partly Cloudy,False,False,False,False,False,False,False,False,True,False,False,False,False,Day,Day,Day,Day
C-226883,2,2021-09-25 11:41:00.000000000,2021-09-25 16:12:42.000000000,42.676945,-83.30341800000002,42.67787,-83.300696,0.152323763615,Slow traffic from Hollywood Ave to W New York Ave / E New York Ave due to roadwork.,14682.0,Hollywood Ave,R,Pontiac,Oakland,MI,48340,US,US/Eastern,KPTK,2021-09-25 11:38:00,53.0,53.0,89.0,28.89,10.0,W,18.0,0.01,Mostly Cloudy,False,False,False,False,False,False,False,False,True,False,False,False,False,Day,Day,Day,Day
C-226885,2,2021-09-07 16:44:00.000000000,2021-09-07 17:07:05.000000000,40.198597,-75.256865,40.201516,-75.254543,0.235992010375,Slow traffic on US-202 N from School House Ln to Wayne Cir due to roadwork.,996.0,Dekalb Pike,L,Ambler,Montgomery,PA,19002-1918,US,US/Eastern,KLOM,2021-09-07 16:35:00,81.0,81.0,48.0,29.6,10.0,SW,6.0,0.0,Partly Cloudy,False,False,False,False,False,False,False,False,False,False,False,False,False,Day,Day,Day,Day
C-226886,4,2020-07-08 06:01:00.000000000,2020-07-08 11:59:00.000000000,33.702675,-117.9544,33.70166500000001,-117.9544,0.0697843537441999,Full closure due to Bridge Work between Brookhurst St and Talbert Ave,17705.0,Brookhurst St,R,Fountain Valley,Orange,CA,92708,US,US/Pacific,KSNA,2020-07-08 05:53:00,66.0,66.0,81.0,29.81,10.0,ESE,8.0,0.0,Cloudy,False,False,False,False,False,False,False,False,False,False,False,True,False,Day,Day,Day,Day
C-226887,4,2021-12-18 09:17:00.000000000,2021-12-20 23:59:00.000000000,40.746959,-73.97131,40.747553,-73.972759,0.0862397243768,Closed road from 1st Ave (E 39th St) to 2nd Ave (E 39th St) due to roadwork.,,E 39th St,R,New York,New York,NY,10016,US,US/Eastern,KNYC,2021-12-18 09:21:00,39.0,35.0,86.0,30.1,5.0,E,6.0,0.01,Light Rain,False,False,True,False,False,False,False,False,False,False,False,True,False,Day,Day,Day,Day
C-226888,2,2021-12-09 14:25:00.000000000,2021-12-09 17:53:30.000000000,39.974972,-75.11669599999998,40.015805,-75.05242199999998,4.4197746137000005,Slow traffic on The Officers O'Hanlon and Lorenzo Memorial Hwy - I-95 N from Girard Ave/Exit 23 (I-95) to Cottman Ave/Exit 30 (I-95) due to roadwork.,,I-95 N,R,Philadelphia,Philadelphia,PA,19125,US,US/Eastern,KPNE,2021-12-09 14:54:00,39.0,39.0,46.0,30.11,10.0,SSW,3.0,0.0,Fair,False,False,True,False,False,False,True,False,False,False,False,False,False,Day,Day,Day,Day
C-226889,2,2021-11-02 07:44:00.000000000,2021-11-02 09:45:55.000000000,39.819957,-74.92896999999998,39.824363,-74.928043,0.308374514698,Slow traffic on NJ-73 from Cross Keys/Walker Ave (NJ-73) to Cooper Rd (NJ-73) due to roadwork.,593.0,N Route 73,R,West Berlin,Camden,NJ,08091-9242,US,US/Eastern,KVAY,2021-11-02 07:54:00,45.0,45.0,90.0,30.16,10.0,CALM,0.0,0.0,Cloudy,False,False,False,False,False,False,False,False,False,False,False,True,False,Day,Day,Day,Day
C-226890,2,2021-05-07 05:05:00.000000000,2021-12-20 13:40:30.000000000,40.714465,-73.994667,40.716288,-73.996101,0.146645965376,Stationary traffic from Nassau St/Flatbush Ave (Manhattan Bridge) to Canal St/Bowery (Manhattan Bridge) due to roadwork.,,Manhattan Brg,R,New York,New York,NY,10002,US,US/Eastern,KJRB,2021-09-20 10:51:00,70.0,,65.0,30.25,10.0,,,0.0,Mostly Cloudy,True,False,True,False,False,False,False,False,False,False,False,True,False,Night,Night,Day,Day
C-226891,2,2021-04-06 18:30:00.000000000,2021-04-07 05:45:00.000000000,33.498698,-86.899462,33.495828,-86.912832,0.795463487923,Construction on I-20 WB near MM 118 Construction. Expect long delays.,,I-20 W,R,Birmingham,Jefferson,AL,35218,US,US/Central,KBHM,2021-04-06 18:53:00,75.0,75.0,38.0,29.35,10.0,S,10.0,0.0,Fair,False,False,False,False,True,False,False,False,False,False,False,False,False,Day,Day,Day,Day
C-226892,2,2020-07-14 19:00:00.000000000,2020-07-15 06:00:00.000000000,35.990311,-78.504532,,,0.0,Intermittent lane closures due to construction on US-1-ALT Main St Southbound at Chestnut Ave.,101.0,E Chestnut Ave,R,Wake Forest,Wake,NC,27587-2150,US,US/Eastern,KLHZ,2020-07-14 18:55:00,86.0,86.0,62.0,29.63,10.0,CALM,0.0,0.0,Mostly Cloudy,False,False,False,False,False,False,False,False,False,False,False,False,False,Day,Day,Day,Day
C-226893,4,2018-09-20 10:49:58.000000000,2018-10-31 16:00:00.000000000,42.73162,-94.1884,42.73162,-94.192123,0.188949308619,Closed at US-169/13th St N - Bridge closed. Roadwork.,,Nevada Ave,R,Humboldt,Humboldt,IA,50548,US,US/Central,KFOD,2018-09-24 02:56:00,60.1,,75.0,30.03,10.0,South,6.9,,Clear,False,False,False,False,False,False,False,False,False,False,False,False,False,Day,Day,Day,Day
C-226894,2,2021-06-22 20:01:00.000000000,2021-06-23 08:46:00.000000000,36.341676,-120.310268,36.316733,-120.288671,2.10126072808,Alternating Lanes closure due to AC Paving between TUO. Avenue Over-Crossing and Route 33/145,,CA-33 S,R,Coalinga,Fresno,CA,93210,US,US/Pacific,KNLC,2021-06-22 19:56:00,84.0,84.0,19.0,29.53,10.0,WSW,16.0,0.0,Fair,False,False,False,False,False,False,False,False,False,False,False,False,False,Day,Day,Day,Day
C-226895,2,2020-10-28 06:39:30.000000000,2020-10-28 08:55:43.000000000,32.278882,-90.21212,32.275055,-90.206399,0.426156995038,Roadwork on I-20 from Ellis Ave/Exit 42 (I-20) to I-55 (I-20).,,I-20 E,R,Jackson,Hinds,MS,39204,US,US/Central,KHKS,2020-10-28 06:53:00,72.0,72.0,91.0,29.55,10.0,ENE,6.0,0.03,Cloudy,False,False,False,False,False,False,False,False,False,False,False,False,False,Night,Night,Day,Day
C-226896,2,2021-06-28 06:48:56.000000000,2021-06-28 15:33:56.000000000,44.406681,-122.290829,44.397466,-122.128317,8.04740446117,Road maintenance operations are occurring causing no to minimum delays. Use caution.,52811.0,Highway 20,L,Blue River,Linn,OR,97413,US,US/Pacific,KEUG,2021-06-28 06:54:00,71.0,71.0,66.0,29.29,10.0,SSW,9.0,0.0,Fair,False,False,False,False,False,False,False,False,False,False,False,False,False,Day,Day,Day,Day
C-226897,2,2021-04-16 16:24:30.000000000,2021-11-30 19:37:30.000000000,33.448197,-112.072693,33.44827,-112.075682,0.172391010223,Stationary traffic from 3rd St (E Washington St) to 7th Ave (W Washington St) due to roadwork.,85.0,E Washington St,R,Phoenix,Maricopa,AZ,85004-2430,US,US/Mountain,KPHX,2021-11-30 18:51:00,68.0,68.0,26.0,28.8,10.0,SW,6.0,0.0,Fair,True,False,True,False,False,False,True,False,True,False,False,True,False,Day,Day,Day,Day
C-226898,2,2021-02-25 03:48:30.000000000,2021-02-25 20:36:17.000000000,25.763687,-80.23872,25.765222,-80.237299,0.138082300753,Slow traffic on FL-9 - US-41 S - US-41 N from SW 10th St to SW 25th Ave due to roadwork.,2699.0,SW 10th St,R,Miami,Miami-Dade,FL,33135-4805,US,US/Eastern,KMIA,2021-02-25 03:53:00,71.0,71.0,90.0,30.11,10.0,CALM,0.0,0.0,Partly Cloudy,False,False,True,False,False,False,False,False,True,False,False,True,False,Night,Night,Night,Night
C-226899,2,2021-12-03 10:29:30.000000000,2021-12-03 12:37:37.000000000,40.358085,-80.050107,40.355079,-80.049492,0.210203791853,Slow traffic on US-19 N - US-19 S from US-19/Washington Rd (Cochran Rd) to PA-88/Library Rd (Connor Rd) due to roadwork.,1485.0,Washington Rd,L,Pittsburgh,Allegheny,PA,15228,US,US/Eastern,KAGC,2021-12-03 10:53:00,42.0,38.0,60.0,28.75,10.0,NNW,7.0,0.0,Mostly Cloudy,False,False,False,False,False,False,False,False,False,False,False,False,False,Day,Day,Day,Day
C-226900,2,2020-11-05 16:01:00.000000000,2020-11-06 01:46:00.000000000,34.383419,-119.485234,34.384059,-119.483924,0.0868049861601,Construction on CA-150 EB near US-101 Expect delays.,6616.0,Rincon Rd,L,Carpinteria,Santa Barbara,CA,93013-3152,US,US/Pacific,KSBA,2020-11-05 15:53:00,79.0,79.0,27.0,29.85,10.0,CALM,0.0,0.0,Fair,False,False,False,False,False,False,False,False,False,True,False,False,False,Day,Day,Day,Day
C-226901,2,2021-04-10 05:08:30.000000000,2021-04-10 17:54:58.000000000,28.324475,-82.52147,28.321229,-82.503132,1.13768160556,Slow traffic on FL-52 from FL-589/Suncoast Pkwy (FL-52) to US-41/FL-45/Land O Lakes Blvd (FL-52) due to roadwork.,17777.0,State Road 52,L,Land O Lakes,Pasco,FL,34638-6819,US,US/Eastern,KBKV,2021-04-10 04:53:00,69.0,69.0,70.0,29.84,10.0,SSE,9.0,0.0,Fair,False,False,False,False,False,False,False,False,False,False,False,True,False,Night,Night,Night,Night
C-226902,2,2021-01-15 13:15:00.000000000,2021-01-16 01:50:00.000000000,33.567585,-112.093645,33.567609000000004,-112.099516,0.338003357685,Stationary traffic from N 7th Ave (W Dunlap Ave) to N 19th Ave (W Dunlap Ave) due to roadwork.,9699.0,N 15th Ln,R,Phoenix,Maricopa,AZ,85021,US,US/Mountain,KDVT,2021-01-15 21:53:00,59.0,59.0,18.0,28.43,10.0,NNE,6.0,0.0,Fair,False,False,True,False,False,False,False,False,False,True,False,True,False,Day,Day,Day,Day
C-226903,2,2021-03-09 04:02:00.000000000,2021-03-09 10:39:00.000000000,25.928427,-80.193628,25.928063,-80.202626,0.559688813293,Stationary traffic on FL-826 from FL-915/6th Ave (FL-826) to 2nd Ave (FL-826) due to roadwork.,335.0,NE 167th St,L,Miami,Miami-Dade,FL,33162-2304,US,US/Eastern,KHWO,2021-03-09 03:53:00,68.0,68.0,56.0,30.35,10.0,ENE,15.0,0.0,Cloudy,False,False,False,False,False,False,False,False,False,False,False,False,False,Night,Night,Night,Night
C-226904,2,2021-04-21 05:34:00.000000000,2021-04-21 15:51:40.000000000,30.458744,-91.09998,30.466356,-91.105412,0.617469708755,Slow traffic on US-190 W - US-61 N from US-190/Florida Blvd (US-61) to LA-37/Greenwell Springs Rd (US-61) due to roadwork.,8401.0,Airline Hwy,L,Baton Rouge,East Baton Rouge,LA,70815-8125,US,US/Central,KBTR,2021-04-21 05:53:00,49.0,45.0,71.0,30.09,10.0,N,9.0,0.0,Fair,False,False,False,False,False,False,False,False,False,False,False,True,False,Night,Night,Night,Day
C-226905,2,2021-03-19 06:13:30.000000000,2021-03-19 15:42:04.000000000,33.30039,-96.960547,33.298858,-96.970339,0.575300338422,Stationary traffic on FM-428 from FM-2931 (Spring Hill Rd/FM-428) to US-377 (Spring Hill Rd/FM-428) due to roadwork.,1633.0,Spring Hill Rd,L,Aubrey,Denton,TX,76227-3904,US,US/Central,KDTO,2021-03-19 05:53:00,39.0,33.0,79.0,29.64,10.0,NNW,9.0,0.0,Fair,False,False,False,False,False,False,False,False,False,False,False,False,False,Night,Night,Night,Day
C-226906,2,2021-12-30 17:55:30.000000000,2021-12-30 19:32:30.000000000,39.590851,-106.098815,39.630498,-106.062289,3.35918530498,Stationary traffic on CO-9 N - I-70 E - US-6 E from Main St/Exit 201 (I-70) to US-6/CO-9/Exit 205 (I-70) due to roadwork.,,I-70 E,R,Frisco,Summit,CO,80443,US,US/Mountain,KCCU,2021-12-30 16:53:00,18.0,11.0,71.0,20.41,10.0,ENE,5.0,0.0,Cloudy,False,False,False,False,True,False,False,False,False,False,False,False,False,Night,Night,Night,Day
C-226907,2,2021-12-22 10:11:00.000000000,2021-12-23 01:59:44.000000000,29.667095,-98.432483,29.662712,-98.435272,0.346045918891,Roadwork from Bulverde Oaks to Marshall Rd.,24229.0,Bulverde Rd,L,San Antonio,Bexar,TX,78261,US,US/Central,KSAT,2021-12-22 09:51:00,58.0,58.0,75.0,29.21,10.0,SSW,6.0,0.0,Fair,False,False,False,False,False,False,False,False,False,False,False,False,False,Day,Day,Day,Day
C-226908,2,2021-09-02 12:49:30.000000000,2021-09-02 13:09:30.000000000,35.135634,-91.820291,35.129803,-91.820372,0.4029097271819999,Stationary traffic on AR-13 from Fiddle Ln to Clayton Rd due to roadwork.,199.0,Fiddle Ln,R,Mc Rae,White,AR,72102-8030,US,US/Central,KSRC,2021-09-02 12:56:00,87.0,87.0,46.0,29.72,10.0,ESE,10.0,0.0,Fair,False,False,False,False,False,False,False,False,False,False,False,False,False,Day,Day,Day,Day
C-226909,2,2021-11-02 18:19:00.000000000,2021-11-02 20:24:24.000000000,33.496063,-111.930461,33.494793,-111.929727,0.0974087826393,Slow traffic from E 5th Ave to N Marshall Way due to roadwork.,4148.0,N Goldwater Blvd,R,Scottsdale,Maricopa,AZ,85251-3816,US,US/Mountain,KPHX,2021-11-02 17:51:00,82.0,82.0,17.0,28.8,10.0,WNW,5.0,0.0,Fair,False,False,False,False,False,False,False,False,True,False,False,False,False,Night,Night,Day,Day
C-226910,3,2019-05-12 12:33:21.000000000,2019-05-26 10:34:27.000000000,41.360715,-86.292263,41.36162,-86.33115500000002,2.01785742183,Between US-31 and N Queen Rd - Construction work.,,US Highway 30,R,Plymouth,Marshall,IN,46563,US,US/Central,KOXI,2019-05-12 12:30:00,52.0,52.0,67.0,29.08,10.0,NNW,7.0,,Cloudy,False,False,False,False,False,False,False,False,False,False,False,False,False,Day,Day,Day,Day
C-226911,2,2020-07-19 03:00:00.000000000,2020-07-19 13:45:00.000000000,30.23234,-92.032348,30.233566,-92.032413,0.0847973559031,Construction on LA-182 WB near OAKLAWN AVE Allow extra time.,2098.0,W University Ave,R,Lafayette,Lafayette,LA,70506-2548,US,US/Central,KLFT,2020-07-19 02:53:00,76.0,76.0,94.0,29.95,9.0,NE,3.0,0.0,Fair,False,False,False,False,False,False,False,False,False,False,False,False,False,Night,Night,Night,Night
C-226912,2,2021-03-30 08:51:00.000000000,2021-03-30 14:50:00.000000000,40.304633,-75.030819,40.307668,-75.037061,0.390057778763,Stationary traffic on PA-413 from Smith Rd (Durham Rd/PA-413) to PA-263/York Rd (Durham Rd/PA-413) due to roadwork.,1449.0,Durham Rd,R,New Hope,Bucks,PA,18938-9481,US,US/Eastern,KDYL,2021-03-30 08:54:00,46.0,43.0,51.0,29.97,10.0,SSE,6.0,0.0,Fair,False,False,False,False,False,False,False,False,False,False,False,False,False,Day,Day,Day,Day
C-226913,2,2020-05-06 10:00:00.000000000,2020-05-06 15:00:00.000000000,41.76624,-87.62553,41.76892,-87.62562,0.185228440209,At Marquette Rd/67th St/Exit 59B - Roadwork. Right lane closed. Left lane closed.,,I-94 W,R,Chicago,Cook,IL,60621,US,US/Central,KMDW,2020-05-06 09:53:00,51.0,51.0,38.0,29.44,10.0,N,12.0,0.0,Mostly Cloudy,False,False,False,False,True,False,True,False,True,False,False,False,False,Day,Day,Day,Day
C-226914,2,2020-11-09 13:53:30.000000000,2020-11-10 02:06:29.000000000,33.654726000000004,-112.101032,33.655355,-112.099756,0.0852893361228,Stationary traffic from N 27th Ave to W Wescott Dr due to roadwork.,1930.0,W Union Hills Dr,R,Phoenix,Maricopa,AZ,85027-5295,US,US/Mountain,KDVT,2020-11-09 13:53:00,58.0,58.0,36.0,28.39,10.0,W,13.0,0.0,Mostly Cloudy,True,False,False,False,False,False,False,False,True,False,False,False,False,Day,Day,Day,Day
C-226915,2,2021-06-30 08:52:29.000000000,2021-06-30 11:02:15.000000000,40.785198,-73.953399,40.787192,-73.951964,0.156897574244,Slow traffic from E 79th St (Park Ave) to E 97th St (Park Ave) due to roadwork.,1197.0,Park Ave,R,New York,New York,NY,10128-1741,US,US/Eastern,KNYC,2021-06-30 08:51:00,84.0,84.0,67.0,29.94,10.0,VAR,5.0,0.0,Fair,True,False,True,False,False,False,False,False,False,False,False,True,False,Day,Day,Day,Day
C-226916,2,2021-06-15 10:47:30.000000000,2021-06-15 11:08:30.000000000,45.185743,-93.392551,45.192749,-93.394529,0.493558024228,Stationary traffic on County Hwy-12 - US-169 N from CR-12 (US-169) to Main St (Anoka) (US-169) due to roadwork.,,Jefferson Hwy N,R,Champlin,Hennepin,MN,55316,US,US/Central,KMIC,2021-06-15 10:53:00,74.0,74.0,45.0,29.24,10.0,VAR,3.0,0.0,Fair,False,False,False,False,False,False,False,False,False,False,False,False,False,Day,Day,Day,Day
C-226917,3,2020-03-24 21:02:59.000000000,2020-03-28 21:02:38.000000000,25.78792,-80.25596,25.78472,-80.25584,0.2212249477099999,Between NW 21st St and NW 7th St - Construction work.,3699.0,NW 15th St,R,Miami,Miami-Dade,FL,33125-1717,US,US/Eastern,KMIA,2020-03-24 20:53:00,77.0,77.0,71.0,30.06,10.0,SSE,8.0,0.0,Fair,False,False,False,False,False,False,False,False,False,False,False,False,False,Night,Night,Night,Night
C-226918,2,2020-09-24 12:39:30.000000000,2020-09-24 16:08:38.000000000,39.316944,-84.464336,39.317682,-84.465098,0.0652623200184999,Stationary traffic on OH-747 from Peter Pl to Glades Dr due to roadwork.,9612.0,Princeton Glendale Rd,L,Cincinnati,Butler,OH,45246,US,US/Eastern,KHAO,2020-09-24 12:53:00,75.0,75.0,48.0,29.38,10.0,VAR,5.0,0.0,Fair,False,False,False,False,False,False,False,False,False,False,False,False,False,Day,Day,Day,Day
C-226919,2,2020-12-03 22:42:00.000000000,2020-12-04 00:28:00.000000000,41.671077,-72.821026,41.701561,-72.805009,2.2625858201599995,Road Work on I-84 Eastbound between Exits 36 and 37 (2.2 miles) in effect today until 3:43 pm. The left lane is closed. Reported Thursday December 3 at 2:42 pm.,,I-84 E,R,New Britain,Hartford,CT,06053,US,US/Eastern,KHFD,2020-12-03 22:53:00,45.0,41.0,39.0,30.1,10.0,S,8.0,0.0,Partly Cloudy,False,False,False,False,True,False,False,False,False,False,False,False,False,Night,Night,Night,Night
C-226920,2,2020-10-08 14:17:00.000000000,2020-10-08 16:10:00.000000000,40.117239,-88.40746899999998,40.121951,-88.407487,0.325569582002,Stationary traffic on IL-47 from IL-10/CR-1600 (CR-300/IL-47) to I-72 (CR-300/IL-47) due to roadwork.,1595.0,County Road 300,L,Seymour,Champaign,IL,61875-9731,US,US/Central,KCMI,2020-10-08 13:53:00,78.0,78.0,24.0,29.32,10.0,WNW,7.0,0.0,Fair,False,False,False,False,False,False,False,False,False,False,False,False,False,Day,Day,Day,Day
C-226921,3,2017-06-28 20:33:59.000000000,2017-06-29 02:33:59.000000000,39.26354,-76.56447,39.2467,-76.57630999999998,1.32479380847,Between Holabird Ave/Exit 10 and Harbor Tunnel Thwy (South) - Construction work.,,I-895 S,R,Baltimore,Baltimore City,MD,21224,US,US/Eastern,KDMH,2017-06-28 20:54:00,75.9,,50.0,30.14,,North,,,,False,False,False,False,False,False,False,False,False,False,False,False,False,Day,Day,Day,Day
C-226922,2,2021-08-08 10:18:00.000000000,2021-10-12 01:54:50.000000000,41.072195,-80.378357,41.066114,-80.380753,0.438302807267,Roadwork on I-376 eastbound 0 miles EAST of Exit 9: TO PA 18 - MITCHELL RD. There is a traffic disruption.,,I-376 E,R,New Castle,Lawrence,PA,16105,US,US/Eastern,KUCP,2021-08-08 09:56:00,74.0,74.0,73.0,28.95,10.0,SW,5.0,0.0,Fair,False,False,False,False,True,False,False,False,False,False,False,False,False,Day,Day,Day,Day
C-226923,2,2021-12-28 13:05:30.000000000,2021-12-28 13:33:30.000000000,32.838436,-97.325413,32.839422,-97.321057,0.261891344491,Slow traffic from Fort Worth to I-820 E due to roadwork.,2000.0,NE Loop 820,R,Fort Worth,Tarrant,TX,76106-1734,US,US/Central,KFTW,2021-12-28 12:53:00,77.0,77.0,25.0,28.91,10.0,W,15.0,0.0,Fair,False,False,False,False,False,False,False,False,False,False,False,False,False,Day,Day,Day,Day
C-226924,2,2019-04-17 08:00:00.000000000,2019-04-17 16:00:00.000000000,39.71093,-105.298101,39.711607,-105.300719,0.146802953944,At Mt Vernon Cntry Club Rd/Exit 254 - Construction work.,,I-70 E,R,Golden,Jefferson,CO,80401,US,US/Mountain,KBJC,2019-04-17 07:47:00,46.0,42.0,76.0,24.32,30.0,N,9.0,0.0,Mostly Cloudy,False,False,False,False,False,False,False,False,False,False,False,False,False,Day,Day,Day,Day
C-226925,2,2021-10-28 16:10:30.000000000,2021-10-28 18:14:37.000000000,33.494159,-112.258472,33.49487,-112.255082,0.20141347287,Slow traffic from N 99th Ave to W MacKenzie Dr due to roadwork.,9254.0,W Indian School Rd,R,Phoenix,Maricopa,AZ,85037-1900,US,US/Mountain,KGEU,2021-10-28 15:56:00,85.0,85.0,14.0,28.8,9.0,SW,5.0,0.0,Fair,False,False,False,False,False,False,False,False,False,False,False,False,False,Day,Day,Day,Day
C-226926,4,2017-12-15 20:57:17.000000000,2017-12-16 02:57:17.000000000,30.322135,-81.658635,30.322135,-81.658635,0.0,Closed at John T Alsop Jr Brg/Main St Brg - Closed. Construction work.,,S Main St,R,Jacksonville,Duval,FL,32202,US,US/Eastern,KNIP,2017-12-15 20:53:00,62.1,,49.0,30.14,10.0,NW,9.2,,Mostly Cloudy,False,False,False,False,False,False,False,False,False,False,False,False,False,Night,Night,Night,Night
C-226927,2,2020-06-01 06:00:00.000000000,2020-06-13 01:49:06.000000000,41.22965,-86.52463,41.22636,-86.4337,4.730611763030001,At IN-17/Thorn Rd - Temporary width limit. Resurfacing work.,,County Road 900,R,Culver,Starke,IN,46511,US,US/Central,KOXI,2020-06-01 05:55:00,48.0,48.0,76.0,29.55,10.0,CALM,0.0,,Fair,False,False,False,False,False,False,False,False,False,False,False,False,False,Night,Day,Day,Day
C-226928,4,2021-12-02 23:01:30.000000000,2021-12-03 01:59:27.000000000,32.77559,-96.792436,32.774555,-96.791484,0.0904024784241,Bridge closure from Cadiz St (S St Paul St) to I-30/US-67/R L Thornton Fwy (S St Paul St).,1222.0,S Saint Paul St,L,Dallas,Dallas,TX,75201,US,US/Central,KDAL,2021-12-02 22:53:00,65.0,65.0,81.0,29.52,10.0,SSE,9.0,0.0,Partly Cloudy,False,False,True,False,False,False,False,False,False,False,False,True,False,Night,Night,Night,Night
C-226929,4,2019-10-10 05:21:51.000000000,2019-10-10 10:21:20.000000000,41.08451,-84.99274,41.13645,-85.01205,3.72684331329,Closed between US-30/Exit 19 and IN-37/Exit 25 - Closed due to roadwork.,,Ronald Reagan Expy,R,New Haven,Allen,IN,46774,US,US/Eastern,KFWA,2019-10-10 04:54:00,49.0,49.0,93.0,29.29,10.0,CALM,0.0,0.0,Partly Cloudy,False,False,False,False,True,False,False,False,False,False,False,False,False,Night,Night,Night,Night
C-226930,2,2021-10-22 07:39:30.000000000,2021-10-22 09:43:49.000000000,26.099534,-80.13667099999998,26.100293,-80.137945,0.0948624796414,Stationary traffic on US-1 N - FL-A1A - FL-5 from SE 18th St to SE 4th Ave due to roadwork.,1778.0,S Federal Hwy,L,Fort Lauderdale,Broward,FL,33316-2947,US,US/Eastern,KFLL,2021-10-22 07:53:00,79.0,79.0,100.0,29.99,10.0,CALM,0.0,0.0,Light Rain,False,False,False,False,False,False,False,False,False,False,False,False,False,Day,Day,Day,Day
C-226931,2,2020-05-05 06:30:00.000000000,2020-05-05 16:30:00.000000000,38.84093,-121.01515,38.84189,-121.01503,0.0666433137561,At Pilot Hill - Roadwork on the hard shoulder.,4401.0,Rattlesnake Bar Rd,L,Pilot Hill,El Dorado,CA,95664-9604,US,US/Pacific,KAUN,2020-05-05 06:35:00,55.0,55.0,41.0,28.45,10.0,E,12.0,0.0,Fair,False,False,False,False,False,False,False,False,False,True,False,False,False,Day,Day,Day,Day
C-226932,2,2021-12-30 01:34:45.000000000,2021-12-30 03:59:00.000000000,38.660049,-122.874413,,,7.599999904630001,One lane closed due to construction on US-101 Southbound between Exit 513 CA-128 and Lytton Springs Rd.,,Redwood Hwy N,R,Geyserville,Sonoma,CA,95441,US,US/Pacific,KSTS,2021-12-30 01:15:00,41.0,36.0,93.0,29.74,10.0,NNW,8.0,0.0,Mostly Cloudy,False,False,False,False,False,False,False,False,False,False,False,False,False,Night,Night,Night,Night
C-226933,2,2020-11-20 06:50:30.000000000,2020-11-20 17:36:30.000000000,25.731351,-80.255876,25.726591,-80.261691,0.48904938963,Slow traffic on US-1 S - FL-5 from Douglas Rd/37th Ave (US-1) to Le Jeune Rd/42nd Ave (US-1) due to roadwork.,1.0,S Dixie Hwy,R,Coral Gables,Miami-Dade,FL,33133-4820,US,US/Eastern,KMIA,2020-11-20 06:53:00,73.0,73.0,81.0,30.22,10.0,NE,6.0,0.0,Light Rain,False,False,True,False,False,False,False,False,False,False,False,True,False,Day,Day,Day,Day
C-226934,2,2020-11-17 16:36:19.000000000,2020-11-18 17:23:29.000000000,38.403917,-75.060311,38.403412,-75.060507,0.036470382218,Construction on MD-528 SB near MP 86 Expect long delays.,101.0,86th St,L,Ocean City,Worcester,MD,21842,US,US/Eastern,KOXB,2020-11-17 16:53:00,49.0,43.0,43.0,30.08,10.0,NW,16.0,0.0,Fair,False,False,False,False,False,False,False,False,False,False,False,True,False,Day,Day,Day,Day
C-226935,2,2021-10-20 18:29:30.000000000,2021-10-20 21:09:05.000000000,25.945115,-80.205365,25.942485,-80.20445500000002,0.190308216351,Slow traffic on FL-7 - FL-860 - US-441 S from NW 187th St to NE 183rd St / N Miami Ave due to roadwork.,18536.0,NW 2nd Ave,L,Miami,Miami-Dade,FL,33169,US,US/Eastern,KHWO,2021-10-20 18:53:00,79.0,79.0,58.0,30.11,10.0,ENE,13.0,0.0,Mostly Cloudy,False,False,False,False,False,False,False,False,True,False,False,False,False,Day,Day,Day,Day
C-226936,2,2021-07-21 09:30:00.000000000,2021-08-05 05:00:00.000000000,33.639518,-112.14306100000002,33.639376,-112.143048,0.0098397223690699,42ND AVE - 39TH AVE - Construction - SPLICING IN MANHOLE &amp;#38; EXISTING UTILITY VAULTSLanesRestricted: EB&amp;#61;2 WB&amp;#61;ALL42ND AVE - 39TH AVE,16901.0,N 39th Ave,R,Glendale,Maricopa,AZ,85308-4203,US,US/Mountain,KDVT,2021-07-21 09:53:00,94.0,94.0,38.0,28.26,10.0,SE,7.0,0.0,Fair,False,False,True,False,False,False,False,False,False,False,False,True,False,Day,Day,Day,Day
C-226937,2,2021-06-30 09:02:05.000000000,2021-07-01 09:48:34.000000000,39.379496,-76.579605,39.381954,-76.57888,0.174189391318,Construction on MD-542 NB near SAYWARD AVE Expect delays.,6701.0,Loch Raven Blvd,R,Baltimore,Baltimore County,MD,21239-1425,US,US/Eastern,KDMH,,,,,,,,,,,False,False,True,False,False,False,False,False,False,False,False,True,False,Day,Day,Day,Day
C-226938,2,2021-12-30 12:52:39.000000000,2021-12-30 13:41:11.000000000,29.87780200000001,-81.324363,29.890996,-81.324597,0.911726349784,Stationary traffic on US-1 N - FL-5 from FL-312 (US-1) to CR-214/W King St (US-1) due to roadwork.,,US Highway 1 S,R,Saint Augustine,St. Johns,FL,32084,US,US/Eastern,KSGJ,2021-12-30 12:56:00,77.0,77.0,66.0,30.04,10.0,SW,10.0,0.0,Fair,False,False,False,False,False,False,False,False,False,False,False,True,False,Day,Day,Day,Day
C-226939,2,2021-03-30 05:32:00.000000000,2021-03-30 15:22:04.000000000,26.223149,-80.128912,26.231671,-80.12790600000002,0.592106267958,Stationary traffic on FL-814 - FL-811 from SW 6th St to Blanche Ely Ave due to roadwork.,566.0,S Dixie Hwy E,L,Pompano Beach,Broward,FL,33060-6912,US,US/Eastern,KPMP,2021-03-30 05:53:00,76.0,76.0,85.0,30.1,10.0,E,7.0,0.0,Partly Cloudy,False,False,False,False,False,False,False,False,False,False,False,False,False,Night,Night,Night,Night
C-226940,3,2019-07-17 04:31:08.000000000,2019-07-22 00:00:00.000000000,43.510479,-84.310677,,,0.0,Road closed due to construction work on Kent Rd both ways from Badour Rd to Kane Rd.,1478.0,E Kent Rd,L,Merrill,Midland,MI,48637-9308,US,US/Eastern,KMBS,2019-07-17 04:53:00,73.0,73.0,87.0,29.16,5.0,WSW,3.0,0.0,Partly Cloudy,False,False,False,False,False,False,False,False,False,False,False,False,False,Night,Night,Night,Day
C-226941,2,2016-11-04 17:48:52.000000000,2016-11-06 06:00:00.000000000,40.78707,-81.38255,40.7875,-81.38588,0.1767189575209999,Ramp to I-77/US-62 - Construction work.,1295.0,McKinley Ave SW,R,Canton,Stark,OH,44707-4040,US,US/Eastern,KCAK,2016-11-04 17:51:00,51.1,,59.0,30.35,10.0,NNW,5.8,,Scattered Clouds,False,False,False,False,True,False,False,False,False,False,False,False,False,Day,Day,Day,Day
C-226942,1,2021-09-13 00:00:00.000000000,2021-11-15 23:59:00.000000000,42.72975200000001,-83.61286199999998,,,0.850000023842,Road closed due to construction work on Milford Rd both ways between Water Rd and Rose Center Rd.,298.0,Demode Rd,R,Holly,Oakland,MI,48442-8934,US,US/Eastern,KPTK,2021-09-13 00:32:00,68.0,68.0,90.0,29.0,10.0,N,9.0,0.0,Cloudy,False,False,False,False,False,False,False,False,False,False,False,False,False,Night,Night,Night,Night
C-226943,2,2020-11-01 10:10:30.000000000,2020-11-02 09:57:58.000000000,38.924897,-81.721398,38.923941,-81.72056500000002,0.079799441785,Roadwork on US-33/WV-68 (Ohio River Rd/WV-2) from I-77 (Ohio River Rd/WV-2) to WV-2.,,US-33 E,R,Ravenswood,Jackson,WV,26164,US,US/Eastern,K3I2,2020-11-01 10:15:00,55.0,55.0,68.0,29.11,10.0,WSW,17.0,0.0,Cloudy,False,False,False,False,False,False,False,False,False,False,False,False,False,Day,Day,Day,Day
C-226944,2,2021-10-11 11:56:30.000000000,2021-10-11 12:17:30.000000000,35.541211,-83.298887,35.52119099999999,-83.30810699999998,1.4772083163799998,Stationary traffic on US-441 N - US-441 S from BIA NC-425 (US-441) to Blue Ridge Pkwy (US-441) due to roadwork.,1.0,Towstring Rd,L,Cherokee,Swain,NC,28719-9707,US,US/Eastern,K1A5,2021-10-11 18:15:00,,,,27.92,10.0,SSE,3.0,0.0,Fair,False,False,False,False,False,False,False,False,False,False,False,False,False,Day,Day,Day,Day
C-226945,2,2020-09-30 12:56:30.000000000,2020-09-30 20:26:30.000000000,44.943369,-92.903223,44.951426,-92.903165,0.5566929065640001,Stationary traffic on CR-19 from Tamarack Rd (Woodbury Dr/CR-19) to 10th St (Keats Ave N/CR-19) due to roadwork.,344.0,Woodbury Dr,L,Saint Paul,Washington,MN,55129,US,US/Central,KSGS,2020-09-30 12:55:00,59.0,59.0,46.0,28.92,10.0,NNW,15.0,0.0,Mostly Cloudy,False,False,True,False,False,False,False,False,False,False,False,True,False,Day,Day,Day,Day
C-226946,2,2021-09-29 09:11:30.000000000,2021-09-29 09:32:00.000000000,40.762176,-73.966124,40.763582,-73.969453,0.199469752036,Slow traffic from 3rd Ave (E 60th St) to Park Ave (E 60th St) due to roadwork.,1099.0,3rd Ave,R,New York,New York,NY,10022,US,US/Eastern,KNYC,2021-09-29 08:51:00,56.0,,62.0,29.92,10.0,,,0.0,Fair,True,False,True,False,False,False,True,False,True,False,False,True,False,Day,Day,Day,Day
C-226947,2,2019-09-03 09:43:17.000000000,2019-09-07 09:45:55.000000000,40.390524,-75.504723,40.40062800000001,-75.494562,0.879348303732,Between Kutztown Rd/Knight Rd and Geryville Pike - Roadwork. Open.,1506.0,Layfield Rd,L,Pennsburg,Montgomery,PA,18073-1715,US,US/Eastern,KUKT,2019-09-03 09:40:00,72.0,72.0,69.0,29.52,10.0,CALM,0.0,0.0,Fair,False,False,False,False,False,False,False,False,False,False,False,False,False,Day,Day,Day,Day
C-226948,2,2021-05-26 15:25:18.000000000,2021-05-26 17:44:58.000000000,26.681632,-80.24878199999998,26.681543,-80.245088,0.228135887785,Slow traffic on FL-80 - FL-700 - US-98 E - US-441 S from Big Blue Trl/F Rd (US-98) to Royal Palm Beach Blvd (US-98) due to roadwork.,12298.0,Southern Blvd,R,Wellington,Palm Beach,FL,33414,US,US/Eastern,KPBI,2021-05-26 15:53:00,86.0,86.0,55.0,30.15,10.0,E,13.0,0.0,Partly Cloudy,False,False,False,False,False,False,False,False,False,False,False,False,False,Day,Day,Day,Day
C-226949,4,2020-11-13 14:30:00.000000000,2020-11-13 23:00:00.000000000,38.961828,-119.760755,38.96101,-119.760592,0.0571928266633,Closed road from Bougainvillea Dr to Buckeye Rd due to roadwork.,1617.0,Heybourne Rd,R,Minden,Douglas,NV,89423,US,US/Pacific,KTVL,2020-11-13 14:40:00,35.0,25.0,89.0,23.76,1.0,SSW,16.0,0.05,Light Snow,False,False,True,False,False,False,False,False,False,False,False,False,False,Day,Day,Day,Day
C-226950,2,2021-09-15 16:39:29.000000000,2021-09-15 19:12:02.000000000,27.287496,-80.296901,27.286338,-80.297329,0.0842159964583,Slow traffic on US-1 S - FL-5 from SE Hillmoor Dr to US-1 due to roadwork.,1635.0,SE Tiffany Ave,L,Port Saint Lucie,St. Lucie,FL,34952-7518,US,US/Eastern,KSUA,2021-09-15 16:47:00,86.0,86.0,58.0,29.89,7.0,ESE,9.0,0.0,Partly Cloudy,False,False,False,False,False,False,False,False,False,False,False,False,False,Day,Day,Day,Day
C-226951,2,2020-02-18 08:56:00.000000000,2021-07-25 17:14:55.000000000,40.29099,-80.169635,40.317372,-80.148902,2.1251265063,Roadwork on I-79 northbound between Exit 48: SOUTHPOINTE/HENDERSONVILLE and Mile Post: 53.5. There is a traffic disruption.,,I-79 N,R,Canonsburg,Washington,PA,15317,US,US/Eastern,KAFJ,2020-02-18 10:53:00,50.0,50.0,71.0,28.72,10.0,SSW,12.0,0.0,Cloudy,False,False,False,False,False,False,False,False,False,False,False,False,False,Day,Day,Day,Day
C-226952,2,2019-04-23 08:02:49.000000000,2019-04-27 08:02:07.000000000,41.8269,-86.2456,41.82749,-86.24701,0.0832573666223,At M-51/S 11th St - Roadwork. Lane blocked.,1042.0,Oak St,R,Niles,Berrien,MI,49120-2756,US,US/Eastern,KSBN,2019-04-23 07:54:00,42.0,34.0,96.0,29.09,3.0,NW,17.0,0.0,Cloudy,False,False,False,False,False,False,False,False,False,False,False,True,False,Day,Day,Day,Day
C-226953,2,2021-09-15 16:48:03.000000000,2021-09-15 17:08:41.000000000,32.894378,-96.651037,32.894316,-96.648256,0.16139910536,Slow traffic from S Shiloh Rd (Miller Rd) to S 1st St (Miller Rd) due to roadwork.,1578.0,W Miller Rd,L,Garland,Dallas,TX,75041-1521,US,US/Central,KHQZ,2021-09-15 16:50:00,88.0,88.0,43.0,29.36,10.0,ENE,7.0,0.0,Mostly Cloudy,False,False,False,False,False,False,False,False,False,False,False,True,False,Day,Day,Day,Day
C-226954,2,2020-08-31 16:47:42.000000000,2020-09-01 17:34:23.000000000,38.955892,-76.962301,38.947075,-76.975047,0.916609572324,Construction on MD-500 WB near HAMILTON ST Expect delays.,5400.0,Queens Chapel Rd,L,Hyattsville,Prince George's,MD,20782-3901,US,US/Eastern,KCGS,2020-08-31 16:55:00,71.0,71.0,84.0,29.97,10.0,CALM,0.0,0.0,Cloudy,False,False,True,False,False,False,False,False,False,False,False,True,False,Day,Day,Day,Day
C-226955,4,2020-06-10 13:04:59.000000000,2020-06-10 18:04:23.000000000,38.61891,-90.06826,38.66192,-90.03016,3.6137029755,Closed between State St/Exit 19 and I-64/I-255/US-50/Exit 20 - Closed due to roadwork.,,I-64 W,R,Caseyville,St. Clair,IL,62232,US,US/Central,KCPS,2020-06-10 12:53:00,73.0,73.0,59.0,29.27,10.0,W,12.0,0.0,Mostly Cloudy,False,False,False,False,False,False,False,False,False,False,False,False,False,Day,Day,Day,Day
C-226956,2,2021-11-09 14:47:30.000000000,2021-11-09 15:07:30.000000000,38.971487,-103.249194,38.98242800000001,-103.263118,1.06339993124,Stationary traffic on US-40 W - US-40 E - US-287 S - US-287 N from CO-94 (US-40/US-287) to 3rd Ave/Barron St (US-40/Clifford St/4th Ave/US-287) due to roadwork.,,US-287 N,R,Hugo,Lincoln,CO,80821,US,US/Mountain,KLIC,2021-11-09 14:55:00,53.0,53.0,48.0,24.67,10.0,S,15.0,0.0,Fair,False,False,False,False,False,False,False,False,False,False,False,False,False,Day,Day,Day,Day
C-226957,2,2021-05-07 09:26:00.000000000,2021-05-07 10:25:00.000000000,45.641294,-118.688167,45.659124,-118.730617,2.39193216992,Slow traffic on I-84 W - Old Oregon Trail Hwy No 6 - US-30 W - Old Oregon Trl from OR-331/Market Rd/Exit 216 (I-84) to US-30/Exit 213 (I-84) due to roadwork.,,I-84 W,R,Pendleton,Umatilla,OR,97801,US,US/Pacific,KPDT,2021-05-07 09:53:00,53.0,53.0,45.0,28.55,10.0,WSW,14.0,0.0,Partly Cloudy,False,False,False,False,False,False,False,False,False,False,False,False,False,Day,Day,Day,Day
C-226958,2,2021-09-09 15:40:00.000000000,2021-09-09 17:45:18.000000000,37.223212,-107.844896,37.221348,-107.84623899999998,0.14848115384,Stationary traffic on US-550 S - US-550 N - US-160 W from S Camino del Rio to County Road 220 due to roadwork.,27153.0,Highway 160,L,Durango,La Plata,CO,81301-7917,US,US/Mountain,KDRO,2021-09-09 15:53:00,90.0,90.0,8.0,23.63,10.0,SW,9.0,0.0,Fair,False,False,False,False,False,False,False,False,False,False,False,False,False,Day,Day,Day,Day
C-226959,2,2021-03-29 22:18:48.000000000,2021-03-30 06:00:00.000000000,41.701622,-93.600491,41.702131,-93.600472,0.0351822060265,Lane closed on US-69 N from NE 66th Ave (US-69) to IA-160/Oralabor Rd (US-69) due to roadwork.,7375.0,S Ankeny Blvd,L,Ankeny,Polk,IA,50023,US,US/Central,KIKV,2021-03-29 22:15:00,64.0,64.0,37.0,28.62,10.0,S,21.0,0.0,Fair / Windy,False,False,False,False,False,False,False,False,False,False,False,False,False,Night,Night,Night,Night
C-226960,4,2021-04-30 02:49:09.000000000,2021-05-07 23:59:00.000000000,39.788582,-105.136395,39.788914,-105.136435,0.0230371101205,Closed road from Union Ct to Ward Rd / Vivian St due to roadwork.,12250.0,Union Ct,L,Wheat Ridge,Jefferson,CO,80033-2034,US,US/Mountain,KBJC,2021-04-30 02:55:00,46.0,46.0,57.0,24.6,10.0,W,3.0,0.0,Fair,False,False,False,False,False,False,False,False,False,True,False,False,False,Night,Night,Night,Night
C-226961,4,2020-09-03 15:11:36.000000000,2020-09-11 06:59:00.000000000,39.917842,-74.204201,39.920658,-74.201636,0.237342011045,Closed road from Poplar St to Spruce St due to roadwork.,36.0,Poplar St,R,Beachwood,Ocean,NJ,08722,US,US/Eastern,KMJX,2020-09-03 14:56:00,86.0,86.0,53.0,29.71,10.0,SSE,12.0,0.0,Mostly Cloudy,False,False,False,False,False,False,False,False,False,False,False,False,False,Day,Day,Day,Day
C-226962,2,2020-06-03 17:59:13.000000000,2020-06-04 01:59:13.000000000,44.10267,-121.30612,44.12877,-121.32309,1.9901355519,Between US-97 and Cook Ave/Ob Riley Rd - Maintenance work.,63397.0,Highway 20,L,Bend,Deschutes,OR,97703-8587,US,,,,,,,,,,,,,False,False,False,False,False,False,False,False,False,False,False,False,False,Day,Day,Day,Day
C-226963,2,2021-06-11 18:35:08.000000000,2021-06-11 19:14:57.000000000,40.761104,-73.98325799999998,40.759213,-73.984611,0.148609571596,Stationary traffic from W 50th St (7th Ave) to Broadway/W 45th St (7th Ave) due to roadwork.,201.0,W 50th St,R,New York,New York,NY,10019-6811,US,US/Eastern,KNYC,2021-06-11 18:51:00,68.0,68.0,63.0,29.81,10.0,ENE,8.0,0.0,Cloudy,True,False,True,False,False,False,True,False,True,False,False,True,False,Day,Day,Day,Day
C-226964,3,2021-04-20 04:05:26.000000000,2021-04-20 05:00:00.000000000,47.240898,-122.358154,,,7.51000022888,Intermittent lane closures due to construction during the night on I-5 Southbound between WA-18 and 54th Ave.,,I-5 S,R,Tacoma,Pierce,WA,98424,US,US/Pacific,KTCM,2021-04-20 03:58:00,44.0,41.0,91.0,29.85,10.0,S,5.0,0.0,Fair,False,False,False,False,False,False,False,False,False,False,False,False,False,Night,Night,Night,Night
C-226965,2,2021-10-06 06:45:30.000000000,2021-10-06 07:08:00.000000000,40.612994,-73.951025,40.611652,-73.950776,0.0936386375309,Stationary traffic from Avenue O to Kings Hwy due to roadwork.,1526.0,E 23rd St,R,Brooklyn,Kings,NY,11210-5107,US,US/Eastern,KJRB,2021-10-06 06:51:00,61.0,61.0,87.0,30.27,10.0,CALM,0.0,0.0,Cloudy,False,False,True,False,False,False,False,False,False,False,False,True,False,Night,Day,Day,Day
C-226966,2,2020-12-11 14:28:00.000000000,2020-12-12 00:57:58.000000000,26.682189,-81.895303,26.681167,-81.90150200000002,0.389161552337,Stationary traffic on FL-78 - FL-45 - US-41 S from Pacific Ave to Pineapple Ln due to roadwork.,360.0,Pine Island Rd,R,North Fort Myers,Lee,FL,33903-3744,US,US/Eastern,KFMY,2020-12-11 14:53:00,74.0,74.0,50.0,30.06,10.0,E,9.0,0.0,Fair,False,False,False,False,False,False,False,False,False,False,False,False,False,Day,Day,Day,Day
C-226967,2,2021-12-02 09:02:30.000000000,2021-12-02 11:08:46.000000000,33.494155,-112.073708,33.494796,-112.074622,0.0688116608838,Slow traffic from E Indianola Ave / W Clarendon Ave to N 1st Ave due to roadwork.,4069.0,N Central Ave,R,Phoenix,Maricopa,AZ,85012,US,US/Mountain,KPHX,2021-12-02 08:51:00,65.0,65.0,22.0,28.9,10.0,E,8.0,0.0,Fair,True,False,False,False,False,False,False,False,True,False,False,False,False,Day,Day,Day,Day
C-226968,2,2021-09-27 10:41:30.000000000,2021-09-27 12:44:45.000000000,40.007409,-105.252589,40.007543,-105.254483,0.100662533065,Slow traffic from CO-157/Foothills Pkwy (Colorado Ave) to US-36/28th St (Colorado Ave) due to roadwork.,3213.0,Colorado Ave,L,Boulder,Boulder,CO,80303,US,US/Mountain,KBDU,2021-09-27 10:35:00,79.0,79.0,17.0,24.75,10.0,CALM,0.0,0.0,Fair,False,False,False,False,False,False,False,False,True,False,False,False,False,Day,Day,Day,Day
C-226969,2,2020-05-01 07:00:00.000000000,2020-07-11 07:44:59.000000000,34.337262,-79.89894699999998,34.336939,-79.898452,0.0359946682329,Construction on MAIN ST SB near PINE ST Drive with caution.,,N Main St,R,Darlington,Darlington,SC,29540,US,US/Eastern,KUDG,2020-05-01 06:56:00,53.0,53.0,74.0,29.65,10.0,W,7.0,0.0,Cloudy,False,False,False,False,False,False,False,False,False,False,False,False,False,Day,Day,Day,Day
C-226970,2,2021-10-05 08:18:16.000000000,2021-10-05 10:35:44.000000000,40.732468,-73.76566700000002,40.735378,-73.76726,0.2176735839249999,Slow traffic from Clearview Expy S to Clearview Expy N due to roadwork.,,Union Tpke,R,Queens Village,Queens,NY,11427,US,US/Eastern,KJFK,2021-10-05 07:51:00,60.0,60.0,93.0,30.18,10.0,NE,9.0,0.0,Cloudy,False,False,False,False,False,False,False,False,False,False,False,False,False,Day,Day,Day,Day
C-226971,2,2021-12-04 22:01:00.000000000,2021-12-05 06:59:00.000000000,33.742959,-118.002929,33.741038,-118.000593,0.1887594395369999,Lane closure due to Bridge Work between Bolsa Ave and McFadden Avenue,,I-405 S,R,Westminster,Orange,CA,92683,US,US/Pacific,KSLI,2021-12-04 21:58:00,50.0,50.0,100.0,30.11,7.0,CALM,0.0,0.0,Fair,False,False,False,False,False,False,False,False,False,False,False,False,False,Night,Night,Night,Night
C-226972,2,2021-10-07 17:24:00.000000000,2021-10-07 19:45:50.000000000,42.026247,-87.74918000000002,42.02624,-87.74616999999998,0.154489716504,Slow traffic from Lincoln Ave/Niles Center Rd (Oakton St) to Crawford Ave (Oakton St) due to roadwork.,4873.0,Oakton St,L,Skokie,Cook,IL,60077-2955,US,US/Central,KORD,2021-10-07 17:23:00,68.0,68.0,84.0,29.31,10.0,SW,14.0,0.0,Light Rain with Thunder,False,False,False,False,False,False,False,False,True,False,False,True,False,Day,Day,Day,Day
C-226973,2,2020-12-21 18:34:00.000000000,2020-12-21 19:00:00.000000000,41.654888,-93.517738,41.658538,-93.532758,0.815351914733,Lane closed from exit [84] to I-80 E due to roadwork.,,US-65 N,R,Des Moines,Polk,IA,50317,US,US/Central,KIKV,2020-12-21 18:35:00,39.0,32.0,61.0,29.07,10.0,NW,12.0,0.0,Fair,False,False,False,False,False,False,False,False,False,False,False,False,False,Night,Night,Night,Night
C-226974,2,2018-09-01 12:01:22.000000000,2019-08-19 14:00:00.000000000,32.13938,-110.84063,32.14157,-110.85795,1.02453515285,Between S Houghton Rd and I-10 - Construction work.,6183.0,S Kolb Rd,L,Tucson,Pima,AZ,85756-9348,US,US/Mountain,KTUS,2018-09-01 11:53:00,93.0,,37.0,29.75,10.0,SW,13.8,,Partly Cloudy,False,False,True,False,False,False,False,False,False,False,False,True,False,Day,Day,Day,Day
C-226975,2,2018-07-23 00:00:00.000000000,2019-07-23 12:27:25.000000000,41.628932,-86.013502,41.624019,-86.155662,7.349940565730001,Between IN-19/S Nappanee St and IN-331/S Bremen Hwy - Roadwork.,59788.0,County Road 22,R,Elkhart,Elkhart,IN,46517,US,US/Eastern,KEKM,2018-07-23 06:50:00,64.4,,94.0,29.89,10.0,Calm,,,Mostly Cloudy,False,False,False,False,False,False,False,False,False,False,False,False,False,Night,Night,Night,Night
C-226976,2,2020-12-03 17:03:00.000000000,2020-12-04 03:59:32.000000000,39.727426,-86.335396,39.725765,-86.337124,0.146978909092,Slow traffic on US-40 W from N Ronald Reagan Pkwy to Wamsley Way due to roadwork.,,E Main St,R,Indianapolis,Hendricks,IN,46231,US,US/Eastern,KIND,2020-12-03 16:54:00,43.0,37.0,53.0,29.28,10.0,S,12.0,0.0,Mostly Cloudy,False,False,False,False,False,False,False,False,False,False,False,False,False,Day,Day,Day,Day
C-226977,2,2021-04-27 06:56:00.000000000,2021-04-27 18:09:13.000000000,39.609714,-104.958894,39.609341,-104.960004,0.0644613833198,Stationary traffic on CO-177 from S Long Ln / S Columbine Way to S Gaylord Way due to roadwork.,2469.0,E Orchard Rd,L,Littleton,Arapahoe,CO,80121,US,US/Mountain,KAPA,2021-04-27 06:53:00,47.0,44.0,34.0,23.96,10.0,NE,6.0,0.0,Mostly Cloudy,False,False,True,False,False,False,False,False,False,True,False,False,False,Day,Day,Day,Day
C-226978,2,2021-02-05 16:09:00.000000000,2021-02-07 19:10:12.000000000,33.29967,-96.967393,33.298699,-96.979266,0.688932230184,Roadwork on FM-2931 (Spring Hill Rd/FM-428) from US-377 (Spring Hill Rd/FM-428) to FM-428.,1264.0,Spring Hill Rd,R,Aubrey,Denton,TX,76227-3918,US,US/Central,KDTO,2021-02-05 15:53:00,56.0,56.0,21.0,29.19,10.0,E,3.0,0.0,Cloudy,False,False,False,False,False,False,False,False,False,False,False,False,False,Day,Day,Day,Day
C-226979,2,2017-06-28 08:01:47.000000000,2017-06-28 14:01:47.000000000,41.38742,-72.07893,41.38805,-72.08613000000003,0.3757598898229999,Between CT-12 and Military Hwy - Construction work.,954.0,Route 12,R,Groton,New London,CT,06340-2944,US,US/Eastern,KGON,2017-06-28 07:56:00,64.9,,63.0,30.06,10.0,NW,8.1,,Clear,False,False,True,False,False,False,False,False,False,False,False,True,False,Day,Day,Day,Day
C-226980,2,2020-10-30 12:45:00.000000000,2020-10-30 21:57:58.000000000,39.775941,-105.109632,39.77812,-105.1089,0.15549132143,Stationary traffic on County Hwy-58 - CO-391 from W 41st Ave to Jellison St due to roadwork.,4267.0,Kipling St,L,Wheat Ridge,Jefferson,CO,80033-2890,US,US/Mountain,KBJC,2020-10-30 12:45:00,64.0,64.0,21.0,24.48,10.0,SSE,6.0,0.0,Fair,False,False,False,False,False,False,False,False,True,False,False,False,False,Day,Day,Day,Day
C-226981,2,2021-10-12 17:46:30.000000000,2021-10-12 20:00:25.000000000,39.703574,-104.914128,39.701407,-104.911007,0.223479515798,Slow traffic on CO-83 from S Holly St (Leetsdale Dr/CO-83) to S Quebec St (Leetsdale Dr/S Parker Rd/CO-83) due to roadwork.,6398.0,Leetsdale Dr,R,Denver,Denver,CO,80224-1261,US,US/Mountain,KBKF,2021-10-12 17:58:00,46.0,41.0,83.0,24.0,10.0,E,8.0,0.0,Mostly Cloudy,False,False,True,False,False,False,False,False,False,True,False,False,False,Day,Day,Day,Day
C-226982,2,2021-10-19 14:03:30.000000000,2021-10-19 20:09:29.000000000,39.763723,-86.34074,39.763699,-86.33254000000002,0.4355161212899999,Slow traffic on US-36 E - US-36 W from IN-267 (US-36) to Raceway Rd (Rockville Rd/US-36) due to roadwork.,10269.0,E US Highway 36,R,Avon,Hendricks,IN,46123-7985,US,US/Eastern,KIND,2021-10-19 13:54:00,66.0,66.0,45.0,29.31,10.0,SSW,10.0,0.0,Partly Cloudy,False,False,False,False,False,False,False,False,False,False,False,True,False,Day,Day,Day,Day
C-226983,2,2021-09-14 12:09:30.000000000,2021-09-14 12:55:02.000000000,40.685308,-73.976171,40.683412,-73.97591700000002,0.13167536549,Slow traffic from Hanson Pl to Atlantic Ave due to roadwork.,40.0,Hanson Pl,R,Brooklyn,Kings,NY,11217-1431,US,US/Eastern,KJRB,2021-09-14 11:51:00,78.0,78.0,62.0,29.99,10.0,CALM,0.0,0.0,Fair,True,False,True,False,False,False,True,False,False,False,False,True,False,Day,Day,Day,Day
C-226984,2,2021-11-19 06:42:30.000000000,2021-11-19 08:53:56.000000000,29.964338,-90.147398,29.963059,-90.14705,0.0907924188738,Slow traffic on US-90 E from Oesterly St to Betz Ave due to roadwork.,325.0,Deckbar Ave,R,New Orleans,Jefferson,LA,70121-2305,US,US/Pacific,KAUD,2021-11-19 06:55:00,55.0,55.0,43.0,30.37,10.0,NNE,12.0,0.0,Partly Cloudy,False,False,False,False,False,False,False,False,False,False,False,False,False,Day,Day,Day,Day
