ID,Severity,Start_Time,End_Time,Start_Lat,Start_Lng,End_Lat,End_Lng,Distance(mi),Description,Number,Street,Side,City,County,State,Zipcode,Country,Timezone,Airport_Code,Weather_Timestamp,Temperature(F),Wind_Chill(F),Humidity(%),Pressure(in),Visibility(mi),Wind_Direction,Wind_Speed(mph),Precipitation(in),Weather_Condition,Amenity,Bump,Crossing,Give_Way,Junction,No_Exit,Railway,Roundabout,Station,Stop,Traffic_Calming,Traffic_Signal,Turning_Loop,Sunrise_Sunset,Civil_Twilight,Nautical_Twilight,Astronomical_Twilight
C-89021,2,2020-09-21 08:58:58.000000000,2021-02-10 08:43:00.000000000,42.143013,-121.698271,42.127855,-121.698393,1.04733670763,Road construction is occurring causing no to minimum delays. Use caution.,,Highway 39,R,Klamath Falls,Klamath,OR,97603,US,US/Pacific,KLMT,2020-09-21 08:53:00,47.0,47.0,63.0,25.87,10.0,CALM,0.0,0.0,Fair,False,False,False,False,False,False,False,False,False,False,False,False,False,Day,Day,Day,Day
C-89022,2,2021-01-15 05:00:00.000000000,2021-01-15 14:45:00.000000000,39.82391,-86.225756,39.81178,-86.174272,2.85788639058,Construction on I-65 SB near WHITE RIVER PKWY E DR Construction. Right lane closed.,,N Guion Rd,R,Indianapolis,Marion,IN,46228,US,US/Eastern,KEYE,2021-01-15 05:04:00,36.0,31.0,89.0,28.65,9.0,SSW,6.0,0.0,Wintry Mix,False,False,False,False,True,False,False,False,False,False,False,False,False,Night,Night,Night,Night
C-89023,2,2021-01-26 16:16:13.000000000,2021-01-27 05:39:05.000000000,26.318901,-80.090804,26.317508,-80.090069,0.1064685635549999,Slow traffic on US-1 S - FL-810 - FL-5 from NE Eller St to SE 12th Ave due to roadwork.,75.0,N Federal Hwy,L,Deerfield Beach,Broward,FL,33441-3607,US,US/Eastern,KPMP,2021-01-26 15:53:00,78.0,78.0,71.0,29.99,10.0,SSE,13.0,0.0,Fair,False,False,False,False,False,False,False,False,False,False,False,False,False,Day,Day,Day,Day
C-89024,2,2021-05-25 01:41:32.000000000,2021-05-25 16:46:09.000000000,33.876675,-118.172453,33.876095,-118.125763,2.67863731175,Roadwork on exit [13] from exit [17] to Artesia Fwy E - CA-91 E.,,Artesia Fwy E,R,Long Beach,Los Angeles,CA,90805,US,US/Pacific,KLGB,2021-05-25 01:53:00,62.0,62.0,86.0,29.89,10.0,VAR,6.0,0.0,Fair,False,False,False,False,True,False,False,False,False,False,False,False,False,Night,Night,Night,Night
C-89025,2,2021-11-07 21:00:00.000000000,2021-11-10 05:45:00.000000000,29.776837,-95.403224,29.777397,-95.406547,0.203003745725,Construction on I-10 WB near I-45 Left Lanes closed. Expect long delays.,,I-10 W,R,Houston,Harris,TX,77007,US,US/Central,KMCJ,2021-11-07 20:53:00,59.0,59.0,72.0,30.18,10.0,ESE,5.0,0.0,Fair,False,False,False,False,False,False,False,False,False,False,False,False,False,Night,Night,Night,Night
C-89026,2,2021-04-14 10:38:30.000000000,2021-04-14 13:02:00.000000000,40.008608,-75.190069,40.014465,-75.178234,0.745669728619,Slow traffic on US-1 N - Roosevelt Expy N from Ridge Ave (Roosevelt Expy/US-1) to Fox St (Roosevelt Expy/US-1) due to roadwork.,,US-1 N,R,Philadelphia,Philadelphia,PA,19129,US,US/Eastern,KLOM,2021-04-14 10:35:00,64.0,64.0,58.0,29.73,10.0,WSW,5.0,0.0,Partly Cloudy,False,False,True,False,False,False,False,False,False,False,False,True,False,Day,Day,Day,Day
C-89027,2,2021-06-29 19:09:58.000000000,2021-06-29 21:19:17.000000000,40.811374,-73.954009,40.814146,-73.955708,0.211130884573,Slow traffic from Morningside Ave to W 126th St due to roadwork.,400.0,W 125th St,L,New York,New York,NY,10027,US,US/Eastern,KNYC,2021-06-29 18:51:00,91.0,91.0,52.0,29.99,10.0,CALM,0.0,0.0,Fair,True,False,False,False,False,False,False,False,True,False,False,True,False,Day,Day,Day,Day
C-89028,2,2019-04-16 14:59:35.000000000,2019-04-17 15:00:00.000000000,40.8648,-74.42228,40.861982,-74.405156,0.915726026314,At I-287/Exit 43 - Construction work. Right lane blocked.,,I-80 E,R,Parsippany,Morris,NJ,07054,US,US/Eastern,KMMU,2019-04-16 14:50:00,63.0,63.0,19.0,29.79,10.0,NW,18.0,0.0,Fair,False,False,False,False,True,False,False,False,False,False,False,False,False,Day,Day,Day,Day
C-89029,2,2021-09-05 19:07:30.000000000,2021-09-05 22:51:57.000000000,40.68285,-73.97927800000002,40.685083,-73.98009,0.16004400128,Slow traffic from Bergen St to 3rd Ave due to roadwork.,49.0,4th Ave,L,Brooklyn,Kings,NY,11217-1903,US,US/Eastern,KJRB,2021-09-05 19:23:00,74.0,74.0,73.0,29.7,10.0,W,5.0,0.0,Cloudy,True,False,False,False,False,False,True,False,True,False,False,False,False,Day,Day,Day,Day
C-89030,2,2021-05-25 16:43:30.000000000,2021-05-25 18:31:00.000000000,33.309875,-111.85908700000002,33.306099,-111.859896,0.265045956476,Stationary traffic from W Galveston St to N Chippewa Pl due to roadwork.,405.0,N Alma School Rd,L,Chandler,Maricopa,AZ,85224-4357,US,US/Mountain,KCHD,2021-05-25 16:47:00,95.0,95.0,4.0,28.55,10.0,CALM,0.0,,Fair,False,False,False,False,False,False,False,False,False,False,False,True,False,Day,Day,Day,Day
C-89031,3,2021-09-01 23:00:00.000000000,2021-09-02 05:00:00.000000000,34.068352000000004,-117.546059,,,0.2800000011919999,Exit ramp from I-15 Southbound to I-10 Westbound intermittent ramp closures due to construction work.,,I-15 S,R,Ontario,San Bernardino,CA,91764,US,US/Pacific,KONT,2021-09-01 22:53:00,67.0,67.0,70.0,28.88,10.0,WSW,8.0,0.0,Fair,False,False,False,False,False,False,False,False,False,False,False,False,False,Night,Night,Night,Night
C-89032,2,2021-06-17 06:47:00.000000000,2021-06-17 08:49:42.000000000,39.062329,-94.87455,39.043979,-94.85761,1.56000545866,Slow traffic on KS-7 from KS-32/Kaw Dr (KS-7) to W 47th St/Wilder Rd (KS-7) due to roadwork.,,S 130th St,R,Bonner Springs,Wyandotte,KS,66012,US,US/Central,KNKA,2021-06-17 06:54:00,78.0,78.0,71.0,29.11,10.0,WSW,5.0,0.0,Fair,False,False,False,False,False,False,False,False,False,False,False,False,False,Day,Day,Day,Day
C-89033,2,2020-05-11 06:00:54.000000000,2020-05-12 06:00:54.000000000,35.02669,-81.87615,34.96362,-82.03917,10.2044150649,Between SC-110/Exit 83 and I-85-BL/Exit 69 - Construction work. Left lane blocked.,,I-85 S,R,Spartanburg,Spartanburg,SC,29307,US,US/Eastern,KSPA,2020-05-11 05:55:00,52.0,52.0,58.0,29.21,10.0,NNW,5.0,0.0,Fair,False,False,False,False,False,False,False,False,False,False,False,False,False,Night,Day,Day,Day
C-89034,2,2021-02-16 07:20:00.000000000,2021-02-16 14:05:40.000000000,35.80732800000001,-90.704442,35.812987,-90.726508,1.29675412986,Stationary traffic on US-49 S - AR-18 W - I-555 N - US-63 N from AR-1 Bus (US-63) to AR-226/Woodsprings Rd (US-63) due to roadwork.,,I-555 N,R,Jonesboro,Craighead,AR,72401,US,US/Central,KJBR,2021-02-16 06:53:00,-1.0,-16.0,69.0,29.94,10.0,WNW,9.0,0.0,Fair,False,False,False,False,False,False,False,False,False,False,False,False,False,Day,Day,Day,Day
C-89035,4,2019-01-26 01:22:56.000000000,2019-01-26 06:20:55.000000000,39.0969,-84.5223,39.094742,-84.52239,0.149181681838,At Kentucky/Ohio - Roadwork.,615.0,W 3rd St,L,Cincinnati,Hamilton,OH,45202-3411,US,US/Eastern,KLUK,2019-01-26 00:53:00,25.0,16.3,53.0,30.23,10.0,SW,8.1,,Overcast,False,False,False,False,False,False,False,False,False,False,False,False,False,Night,Night,Night,Night
C-89036,2,2020-04-02 01:01:00.000000000,2020-04-02 10:57:15.000000000,33.97746,-117.37172,33.96027,-117.37785,1.23856917719,Between Tenth St and Ivy Street - Maintenance work. Lane closed.,,CA-91 W,R,Riverside,Riverside,CA,92507,US,US/Pacific,KRAL,2020-04-02 01:00:00,55.0,55.0,86.0,29.04,10.0,CALM,0.0,0.0,Cloudy,False,False,False,False,False,False,False,False,False,False,False,False,False,Night,Night,Night,Night
C-89037,2,2021-09-23 13:09:00.000000000,2021-09-23 13:31:30.000000000,40.772454,-73.962959,40.771067,-73.959639,0.198400833857,Slow traffic from Park Ave to 3rd Ave due to roadwork.,98.0,E 74th St,R,New York,New York,NY,10021-2735,US,US/Eastern,KNYC,2021-09-23 12:51:00,78.0,,74.0,29.84,10.0,,,0.0,Cloudy,True,False,False,False,False,False,False,False,False,False,False,True,False,Day,Day,Day,Day
C-89038,2,2021-07-26 15:05:21.000000000,2021-08-31 16:30:30.000000000,30.464924,-91.104388,30.471111,-91.108771,0.500869883184,Stationary traffic on US-190 W - US-61 N from US-190/Florida Blvd (US-61) to LA-37/Greenwell Springs Rd (US-61) due to roadwork.,8067.0,Airline Hwy,L,Baton Rouge,East Baton Rouge,LA,70815-8108,US,US/Central,KBTR,2021-07-26 14:53:00,93.0,93.0,50.0,29.85,10.0,W,5.0,0.0,Fair,False,False,True,False,False,False,True,False,False,False,False,True,False,Day,Day,Day,Day
C-89039,2,2021-07-09 16:50:39.000000000,2021-07-09 19:11:01.000000000,41.032345,-85.256079,41.029227,-85.260834,0.328381032261,Stationary traffic on US-24 W from I-69/US-33/W Jefferson Blvd (US-24) to Homestead Rd (US-24) due to roadwork.,8710.0,US Highway 24 W,R,Fort Wayne,Allen,IN,46804-4746,US,US/Eastern,KFWA,2021-07-09 16:54:00,75.0,75.0,60.0,29.16,10.0,NW,5.0,0.0,Mostly Cloudy,False,False,False,False,False,False,False,False,False,False,False,True,False,Day,Day,Day,Day
C-89040,2,2020-10-22 18:22:59.000000000,2020-10-29 06:59:59.000000000,42.955764,-74.379159,42.956571,-74.377868,0.0858537456821999,Utility work on NY 30A both directions between East Main Street; Start NY 5 Overlap (Mohawk) and Town of Johnstown; Town of Mohawk Line; Fulton; Montgomery County Line (Mohawk) More specifically between Route 5 and Mills Terrace. Motorists will encounter a full road closure with a signed detour in place. Not currently scheduled,98.0,Jansen Ave,R,Fonda,Montgomery,NY,12068,US,US/Eastern,KSCH,2020-10-22 17:55:00,66.0,66.0,64.0,29.81,15.0,CALM,0.0,0.0,Partly Cloudy,False,False,True,False,False,False,False,False,False,False,False,False,False,Night,Day,Day,Day
C-89041,2,2021-06-24 12:30:48.000000000,2021-06-24 13:16:11.000000000,29.968572,-90.056703,29.968661,-90.048827,0.471462576927,Stationary traffic on LA-46 from Elysian Fields Ave (LA-46) to Poland Ave (LA-46) due to roadwork.,1099.0,Elysian Fields Ave,R,New Orleans,Orleans,LA,70117-8452,US,US/Central,KNEW,2021-06-24 12:53:00,88.0,88.0,65.0,30.06,10.0,NE,6.0,0.0,Fair,True,False,True,False,False,False,False,False,False,False,False,True,False,Day,Day,Day,Day
C-89042,2,2020-12-16 11:42:30.000000000,2020-12-16 12:16:30.000000000,39.198432,-104.854912,39.190357,-104.850751,0.600775004128,Slow traffic on US-85 S - I-25 S - US-87 S from Upper Lake Gulch Rd/Exit 172 (I-25) to Greenland Rd/Exit 167 (I-25) due to roadwork.,,I-25 S,R,Larkspur,Douglas,CO,80118,US,US/Mountain,KMNH,2020-12-16 11:35:00,32.0,26.0,48.0,23.09,10.0,NW,6.0,0.0,Fair,False,False,False,False,True,False,False,False,False,False,False,False,False,Day,Day,Day,Day
C-89043,2,2021-09-14 14:16:00.000000000,2021-09-14 14:57:00.000000000,40.681968,-116.199654,40.661931,-116.24049,2.54875025722,Slow traffic on I-80 W from NV-278/Exit 279 (I-80) to G-236A/Marys Mtn/Exit 271 (I-80) due to roadwork.,,I-80 W,R,Crescent Valley,Eureka,NV,89821,US,US/Pacific,KB23,2021-09-14 13:56:00,85.0,85.0,8.0,25.69,10.0,VAR,5.0,0.0,Fair,False,False,False,False,False,False,False,False,False,False,False,False,False,Day,Day,Day,Day
C-89044,2,2021-04-16 10:55:00.000000000,2021-04-16 15:32:43.000000000,40.748325,-73.980298,40.74579,-73.974313,0.358923124167,Slow traffic from Park Ave (E 36th St) to I-495/Queens Midtown Tunnel/2nd Ave (E 36th St) due to roadwork.,,E 36th St,R,New York,New York,NY,10016,US,US/Eastern,KNYC,2021-04-16 10:51:00,48.0,45.0,56.0,29.54,10.0,SW,6.0,0.0,Cloudy,True,False,False,False,False,False,False,False,False,False,False,True,False,Day,Day,Day,Day
C-89045,3,2021-09-30 04:01:29.000000000,2021-09-30 17:00:00.000000000,39.854839,-75.366127,,,2.02999997139,Lane closed due to construction work on I-95 Northbound between Exit 4 US-322 Commodore John Barry Brg and Exit 6 12th St.,,I-95 N,R,Chester,Delaware,PA,19013,US,US/Eastern,KPHL,2021-09-30 03:54:00,62.0,62.0,62.0,30.06,10.0,W,5.0,0.0,Mostly Cloudy,False,False,False,False,False,False,False,False,False,False,False,False,False,Night,Night,Night,Night
C-89046,2,2020-12-22 12:22:30.000000000,2020-12-23 00:31:00.000000000,38.853496,-77.005561,38.871152,-76.988922,1.51312019178,Slow traffic on I-295 N - I-695 N from Malcolm X Ave/2nd St/Exit 2 (I-695/I-295) to I-695/DC-295 (I-695/I-295) due to roadwork.,,I-295 N,R,Washington,District of Columbia,DC,20032,US,US/Eastern,KDCA,2020-12-22 12:52:00,50.0,50.0,50.0,30.01,10.0,WNW,25.0,0.0,Mostly Cloudy / Windy,False,False,False,False,False,False,False,False,False,False,False,False,False,Day,Day,Day,Day
C-89047,2,2021-03-01 05:38:30.000000000,2021-11-15 08:49:30.000000000,30.533272,-87.272824,30.532914,-87.273587,0.0517082374789,Stationary traffic on US-90 Alt W - County Hwy-95A - County Hwy-95 - FL-10 from US-90 Alt to Duke Ave due to roadwork.,4.0,E Nine Mile Rd,L,Pensacola,Escambia,FL,32534-3133,US,US/Central,KPNS,2021-03-01 05:53:00,72.0,72.0,97.0,29.88,2.0,SW,5.0,0.0,Fog,False,False,True,False,False,False,False,False,False,False,False,True,False,Night,Night,Day,Day
C-89048,2,2018-11-13 09:03:26.000000000,2018-11-17 09:03:15.000000000,25.73501,-80.25638199999999,25.73515,-80.251369,0.312159709604,At US-1/S Dixie Hwy - Construction work.,3819.0,Bird Rd,R,Miami,Miami-Dade,FL,33146-1510,US,US/Eastern,KMIA,2018-11-13 09:13:00,81.0,,88.0,30.08,10.0,East,9.2,,Mostly Cloudy,False,False,True,False,False,False,False,False,False,False,False,True,False,Day,Day,Day,Day
C-89049,2,2019-12-20 04:27:09.000000000,2019-12-20 04:56:35.000000000,27.739849,-97.668381,,,15.029999733,Intermittent lane closures due to construction work on FM-892 both ways from FM-665 to FM-2826. Look out for flagman.,4303.0,FM 2826,R,Robstown,Nueces,TX,78380,US,US/Central,KRBO,2019-12-20 04:35:00,62.0,62.0,75.0,30.14,10.0,E,5.0,0.0,Cloudy,False,False,False,False,False,False,False,False,False,False,False,False,False,Night,Night,Night,Night
C-89050,4,2019-04-28 17:01:55.000000000,2019-04-28 22:01:37.000000000,25.646749,-80.39899100000002,25.653117,-80.399303,0.440415829112,Closed at 124th St - Closed due to roadwork.,,SW 127th Ave,R,Miami,Miami-Dade,FL,33186,US,US/Eastern,KTMB,2019-04-28 16:53:00,86.0,86.0,59.0,29.96,10.0,ESE,13.0,0.0,Fair,False,False,False,False,False,False,False,False,False,False,False,False,False,Day,Day,Day,Day
C-89051,2,2019-10-17 00:01:00.000000000,2019-10-23 23:59:00.000000000,35.59249099999999,-97.594559,,,0.0,Intermittent lane closures due to construction on Cantle Rd at Cantle Cir.,12099.0,Cantle Rd,R,Oklahoma City,Oklahoma,OK,73120-8043,US,US/Central,KPWA,2019-10-17 00:53:00,47.0,43.0,68.0,28.68,10.0,SSE,8.0,0.0,Fair,False,False,False,False,False,False,False,False,False,False,False,False,False,Night,Night,Night,Night
C-89052,2,2021-02-25 04:54:00.000000000,2021-02-25 16:21:30.000000000,33.247686,-111.772574,33.248656,-111.772624,0.0670828615125,Stationary traffic from E Glacier Pl to E Ocotillo Rd due to roadwork.,22285.0,S Lindsay Rd,R,Chandler,Maricopa,AZ,85249,US,US/Mountain,KCHD,2021-02-25 05:47:00,48.0,48.0,37.0,28.68,10.0,CALM,0.0,,Fair,False,False,True,False,False,False,False,False,False,False,False,True,False,Night,Night,Night,Night
C-89053,2,2021-09-14 17:46:30.000000000,2021-09-14 18:06:30.000000000,41.992998,-87.689806,41.990542,-87.690907,0.178864760546,Slow traffic on US-14 W from W Granville Ave to N Artesian Ave due to roadwork.,6140.0,N Western Ave,L,Chicago,Cook,IL,60659-2816,US,US/Central,KORD,2021-09-14 17:51:00,77.0,77.0,50.0,29.09,10.0,NW,17.0,0.0,Mostly Cloudy,False,False,False,False,False,False,False,False,False,False,False,False,False,Day,Day,Day,Day
C-89054,2,2021-04-14 04:36:30.000000000,2021-04-14 08:31:30.000000000,42.095085,-122.605938,42.049976,-122.607421,3.1176629956,Slow traffic on OR-99 S - Pacific Highway 1 S - I-5 S from OR-99/Exit 11 (I-5) to OR-99/Exit 1 (I-5) due to roadwork.,,I-5 S,R,Ashland,Jackson,OR,97520,US,US/Pacific,KMFR,2021-04-14 03:53:00,45.0,45.0,42.0,28.61,10.0,SW,3.0,0.0,Fair,False,False,False,False,False,False,False,False,False,False,False,False,False,Night,Night,Night,Night
C-89055,2,2021-10-29 10:34:00.000000000,2021-10-29 16:59:03.000000000,36.928392,-76.268428,36.966377,-76.292887,2.95163861211,Slow traffic on I-64 W from I-564/US-460/Granby St/Exit 276 (I-64) to Ocean View Ave/Exit 272 (I-64) due to roadwork.,,I-64 W,R,Norfolk,Norfolk,VA,23511,US,US/Eastern,KNGU,2021-10-29 10:42:00,70.0,70.0,90.0,29.53,1.0,SSE,15.0,0.11,Light Rain,False,False,False,False,True,False,False,False,False,False,False,False,False,Day,Day,Day,Day
C-89056,2,2021-10-06 06:00:00.000000000,2021-10-06 10:45:00.000000000,40.68148,-74.005527,40.706392,-74.014763,1.78796692494,Construction on BROOKLYN BATTERY TUNL near BROOKLYN Allow extra time.,,Brooklyn Battery Tunl,R,Brooklyn,Kings,NY,11231,US,US/Eastern,KJRB,2021-10-06 05:51:00,61.0,61.0,87.0,30.26,10.0,CALM,0.0,0.0,Cloudy,False,False,False,False,False,False,False,False,False,False,False,False,False,Night,Night,Day,Day
C-89057,2,2021-10-05 16:13:30.000000000,2021-10-05 16:47:00.000000000,41.349747,-75.398087,41.354255,-75.410156,0.699181579874,Slow traffic on I-84 W from PA-191/Exit 17 (I-84) to PA-247/Exit 8 (I-84) due to roadwork.,,I-84 W,R,Sterling,Wayne,PA,18463,US,US/Eastern,KMPO,2021-10-05 16:15:00,61.0,61.0,97.0,28.21,10.0,CALM,0.0,0.0,Cloudy,False,False,False,False,False,False,False,False,False,False,False,False,False,Day,Day,Day,Day
C-89058,2,2020-09-19 13:13:00.000000000,2020-09-20 00:47:02.000000000,42.152452,-87.957758,42.154235,-87.95800600000004,0.123846783327,Stationary traffic on IL-83 from Weiland Rd / McHenry Rd to Weiland Rd due to roadwork.,69.0,S McHenry Rd,L,Buffalo Grove,Cook,IL,60089-6705,US,US/Central,KPWK,2020-09-19 12:52:00,62.0,62.0,41.0,29.69,10.0,VAR,3.0,0.0,Fair,False,False,False,False,False,False,False,False,False,False,False,False,False,Day,Day,Day,Day
C-89059,2,2021-02-08 13:59:30.000000000,2021-02-09 00:12:39.000000000,30.161385,-92.043474,30.155506,-92.049285,0.534335793096,Slow traffic from Camellia Blvd (Kaliste Saloom Rd/LA-3095) to LA-733/E Broussard Rd (Kaliste Saloom Rd/LA-3095) due to roadwork.,2312.0,Kaliste Saloom Rd,L,Lafayette,Lafayette,LA,70508-6808,US,US/Central,KLFT,2021-02-08 13:53:00,66.0,66.0,78.0,29.98,10.0,VAR,3.0,0.0,Partly Cloudy,False,False,False,False,False,False,False,False,False,False,False,False,False,Day,Day,Day,Day
C-89060,2,2019-01-09 07:00:00.000000000,2019-01-09 17:00:00.000000000,40.32602,-104.811731,40.327468,-104.81178,0.100080559337,At CR-396 - Construction work.,22495.0,State Highway 60,L,Milliken,Weld,CO,80543-9421,US,US/Mountain,KFNL,2019-01-09 06:56:00,24.1,19.7,62.0,30.42,10.0,North,3.5,,Clear,False,False,False,False,False,False,False,False,False,False,False,False,False,Night,Day,Day,Day
C-89061,2,2021-01-05 13:18:00.000000000,2021-01-06 02:47:53.000000000,33.567549,-112.111306,33.567585,-112.116788,0.31561408568,Slow traffic from N 24th Ave to N Black Canyon Hwy due to roadwork.,2445.0,W Dunlap Ave,L,Phoenix,Maricopa,AZ,85021-2803,US,US/Mountain,KDVT,2021-01-05 12:53:00,64.0,64.0,24.0,28.41,10.0,S,6.0,0.0,Fair,False,False,True,False,False,False,False,False,False,False,False,True,False,Day,Day,Day,Day
C-89062,4,2021-06-28 20:00:00.000000000,2021-06-29 05:30:00.000000000,32.777871999999995,-79.93222,32.777763,-79.932886,0.0394155301117,Closed road from Meeting St to King St due to roadwork.,,Queen St,R,Charleston,Charleston,SC,29401,US,US/Eastern,KJZI,2021-06-28 19:55:00,79.0,79.0,89.0,30.08,2.0,SE,12.0,0.0,Fog,True,False,False,False,False,False,False,False,False,False,False,True,False,Day,Day,Day,Day
C-89063,2,2021-12-14 13:40:30.000000000,2021-12-14 15:44:56.000000000,41.647423,-91.543107,41.648923,-91.540149,0.184565838904,Slow traffic on US-6 W - IA-1 - US-6 E from Sunset St (IA-1) to US-6/S Grand Ave/S Riverside Dr (IA-1) due to roadwork.,225.0,Highway 1 W,L,Iowa City,Johnson,IA,52246-4245,US,US/Central,KIOW,2021-12-14 13:52:00,52.0,52.0,61.0,29.36,10.0,SE,14.0,0.0,Fair,False,False,False,False,False,False,False,False,False,False,False,False,False,Day,Day,Day,Day
C-89064,2,2019-06-04 09:00:00.000000000,2019-06-04 15:00:00.000000000,40.20966,-75.254227,,,0.829999983311,Intermittent lane closures due to utility work on US-202 Dekalb Pike both ways from Hancock Rd to Swedesford Rd.,1298.0,Swedesford Rd,R,North Wales,Montgomery,PA,19454-3613,US,US/Eastern,KLOM,2019-06-04 08:55:00,59.0,59.0,50.0,29.86,10.0,NNW,5.0,0.0,Fair,False,False,False,False,False,False,False,False,False,False,False,False,False,Day,Day,Day,Day
C-89065,2,2019-01-07 21:04:58.000000000,2019-01-11 21:04:58.000000000,39.961619,-75.18265,39.948879,-75.185491,0.8930180261949999,Between Spring Garden St/Exit 343 and South St/Exit 346 - Roadwork. Lane blocked.,,I-76 E,R,Philadelphia,Philadelphia,PA,19104,US,US/Eastern,KPHL,2019-01-07 20:54:00,33.1,28.7,59.0,30.36,10.0,SSE,4.6,,Overcast,False,False,False,False,False,False,False,False,False,False,False,False,False,Night,Night,Night,Night
C-89066,4,2019-09-29 17:02:57.000000000,2019-09-29 22:02:10.000000000,42.762885,-88.21282,42.75432,-88.20909,0.621300803785,Closed at Evergreen Dr - Closed due to roadwork.,103.0,E Main St,R,Waterford,Racine,WI,53185-4301,US,US/Central,KBUU,2019-09-29 16:55:00,59.0,59.0,100.0,29.3,3.0,ESE,8.0,0.0,Cloudy,False,False,False,False,False,False,False,False,False,False,False,False,False,Day,Day,Day,Day
C-89067,2,2021-12-21 13:59:00.000000000,2021-12-21 14:19:00.000000000,41.930032,-87.675493,41.932259,-87.678063,0.202799154568,Stationary traffic from W Fullerton Ave (N Clybourn Ave) to N Damen Ave/W Diversey Pkwy (N Clybourn Ave) due to roadwork.,3055.0,N Wolcott Ave,R,Chicago,Cook,IL,60614,US,US/Central,KMDW,2021-12-21 13:53:00,43.0,35.0,53.0,29.05,10.0,WSW,18.0,0.0,Mostly Cloudy,False,False,True,False,False,False,False,False,False,False,False,True,False,Day,Day,Day,Day
C-89068,2,2021-11-10 16:40:00.000000000,2021-11-10 20:27:02.000000000,41.930982,-87.835842,41.928779,-87.836624,0.157431081548,Slow traffic on IL-171 from Oconnor Dr to Tarpey Ln due to roadwork.,,Thatcher Ave,R,River Grove,Cook,IL,60171,US,US/Central,KORD,2021-11-10 16:51:00,56.0,56.0,62.0,29.24,10.0,ESE,13.0,0.0,Cloudy,False,False,True,False,False,False,True,False,True,False,False,False,False,Night,Day,Day,Day
C-89069,2,2020-09-18 15:44:00.000000000,2020-09-19 02:41:41.000000000,34.83305,-92.230224,34.833698,-92.231684,0.0941307021858,Stationary traffic on AR-107 in Teetwood Rd due to construction work.,241.0,E Kiehl Ave,L,Sherwood,Pulaski,AR,72120-2964,US,US/Central,KLRF,2020-09-18 15:56:00,80.0,80.0,42.0,29.78,10.0,NE,10.0,0.0,Fair,False,False,True,False,False,False,False,False,False,False,False,False,False,Day,Day,Day,Day
C-89070,2,2021-10-24 12:20:52.000000000,2021-10-24 14:36:23.000000000,40.57898,-73.98475400000002,40.582342,-73.98253000000003,0.259961446965,Slow traffic from Cropsey Ave / W 17th St to Belt Pkwy E due to roadwork.,1611.0,Neptune Ave,L,Brooklyn,Kings,NY,11224-2717,US,US/Eastern,KJRB,2021-10-24 11:51:00,55.0,55.0,53.0,30.08,10.0,VAR,3.0,0.0,Cloudy,False,False,False,False,False,False,False,False,False,False,False,False,False,Day,Day,Day,Day
C-89071,2,2021-07-01 07:59:23.000000000,2021-07-01 08:19:23.000000000,36.689455,-96.725472,36.688634,-96.716778,0.485022404631,Slow traffic on US-60 W - US-60 E from 7th St (US-60) to OK-18/OK-11 (US-60) due to roadwork.,46511.0,US Highway 60,L,Burbank,Osage,OK,74633-5061,US,US/Central,KPNC,2021-07-01 07:53:00,75.0,75.0,94.0,28.92,10.0,CALM,0.0,0.0,Cloudy,False,False,False,False,False,False,False,False,False,False,False,False,False,Day,Day,Day,Day
C-89072,4,2020-06-23 08:01:00.000000000,2020-06-23 16:01:00.000000000,37.43365,-120.77926,37.43254,-120.77782,0.110107723317,Closed at Route 99 - Closed. Bridge maintenance work.,,CA-99 S,R,Delhi,Merced,CA,95315,US,US/Pacific,KMER,2020-06-23 07:45:00,77.0,77.0,50.0,29.64,10.0,NW,9.0,0.0,Fair,False,False,False,False,False,False,False,False,False,False,False,False,False,Day,Day,Day,Day
C-89073,2,2016-09-08 07:02:04.000000000,2016-09-08 13:02:04.000000000,41.64112,-81.24154,41.59343,-81.22838,3.36445222935,At Mentor Rd - Construction work.,11166.0,Colburn Rd,R,Chardon,Geauga,OH,44024-9770,US,US/Eastern,KCGF,2016-09-08 06:45:00,80.6,,74.0,29.94,15.0,SW,13.8,,Mostly Cloudy,False,False,False,False,False,False,False,False,False,True,False,False,False,Day,Day,Day,Day
C-89074,2,2021-11-19 10:11:30.000000000,2021-11-19 10:31:30.000000000,36.255709,-93.123026,36.254548,-93.122279,0.0903718720521,Roadwork on Dogwood St from Thompson Dr to AR-43 - US-62 W - US-65 S - US-62 E - US-412 W - US-65 N - US-412 E.,103.0,Highway 43 E,R,Harrison,Boone,AR,72601-2113,US,US/Central,KHRO,2021-11-19 09:53:00,42.0,36.0,43.0,28.98,10.0,SE,10.0,0.0,Fair,False,False,False,False,False,False,False,False,False,False,False,False,False,Day,Day,Day,Day
C-89075,3,2020-09-21 03:02:06.000000000,2020-09-28 18:00:00.000000000,38.58934,-104.670692,,,0.0,Lane closed due to construction work on I-25 Southbound at Pikes Peak Mdws.,,I-25 N,R,Fountain,El Paso,CO,80817,US,US/Mountain,KFCS,2020-09-21 02:58:00,66.0,66.0,31.0,24.32,10.0,NNW,17.0,0.0,Cloudy,False,False,False,False,False,False,False,False,False,False,False,False,False,Night,Night,Night,Night
C-89076,2,2020-04-16 08:01:00.000000000,2020-04-17 12:01:00.000000000,34.82584,-120.35994,34.825,-120.35896,0.080362058802,At Solomon Grade Summit - Construction work. Lane closed.,,US-101 S,R,Santa Maria,Santa Barbara,CA,93455,US,US/Pacific,KSMX,2020-04-16 07:51:00,52.0,52.0,86.0,29.68,8.0,WSW,3.0,0.0,Cloudy,False,False,False,False,False,False,False,False,False,False,False,False,False,Day,Day,Day,Day
C-89077,4,2016-11-08 14:32:26.000000000,2016-11-08 20:32:26.000000000,38.95004,-94.73847,38.939352,-94.747629,0.887458491832,At I-435/KS-10/Exit 222 - Maintenance work.,,US-56 W,R,Lenexa,Johnson,KS,66215,US,US/Central,KOJC,2016-11-08 14:53:00,64.9,,47.0,30.28,10.0,North,8.1,,Clear,False,False,False,False,False,False,False,False,False,False,False,False,False,Day,Day,Day,Day
C-89078,2,2021-09-29 09:24:30.000000000,2021-09-29 12:59:41.000000000,33.495187,-112.008017,33.495682,-112.01299,0.288573497163,Slow traffic from N 35th St to E Monterosa St due to roadwork.,3435.0,E Indian School Rd,R,Phoenix,Maricopa,AZ,85018-5112,US,US/Mountain,KPHX,2021-09-29 09:51:00,80.0,80.0,50.0,28.67,10.0,SSE,8.0,0.0,Mostly Cloudy,True,False,False,False,False,False,False,False,True,False,False,False,False,Day,Day,Day,Day
C-89079,2,2021-08-31 17:30:29.000000000,2021-08-31 17:50:29.000000000,36.407201,-84.452892,36.404134,-84.450763,0.2427387671199999,Stationary traffic on TN-63 - TN-297 from US-27/Scott Hwy (TN-63) to TN-456/Winona Rd (TN-63) due to roadwork.,5084.0,Baker Hwy,R,Huntsville,Scott,TN,37756-3165,US,US/Eastern,KOQT,2021-08-31 17:34:00,73.0,73.0,93.0,28.68,2.0,ENE,5.0,0.02,Heavy Rain,False,False,False,False,False,False,False,False,False,False,False,False,False,Day,Day,Day,Day
C-89080,2,2021-09-30 08:34:30.000000000,2021-09-30 10:46:25.000000000,33.511479,-112.047518,33.508519,-112.047532,0.2045181121779999,Slow traffic from E Colter St (N 16th St) to E Highland Ave (N 16th St) due to roadwork.,5124.0,N 16th St,L,Phoenix,Maricopa,AZ,85016-3918,US,US/Mountain,KPHX,2021-09-30 08:51:00,74.0,74.0,45.0,28.73,10.0,VAR,5.0,0.0,Fair,True,False,False,False,False,False,False,False,True,False,False,False,False,Day,Day,Day,Day
C-89081,2,2021-08-30 12:32:30.000000000,2021-08-30 13:39:00.000000000,37.300217,-76.747695,37.307142,-76.752427,0.544582803267,Stationary traffic from Humelsine Pkwy to New Point Rd due to roadwork.,4952.0,Longhill Rd,L,Williamsburg,James City,VA,23188-1573,US,US/Eastern,KJGG,2021-08-30 12:35:00,90.0,90.0,62.0,29.9,10.0,SW,3.0,0.0,,False,False,False,False,False,False,False,False,False,False,False,False,False,Day,Day,Day,Day
C-89082,2,2020-11-05 01:16:30.000000000,2020-11-05 03:07:00.000000000,39.430535,-78.713308,39.424066,-78.718026,0.513011543593,Stationary traffic on WV-28 from CR-1/Green Spring Valley Rd (Cumberland Rd/WV-28) to US-50/W Main St (N High St/WV-28) due to roadwork.,,WV-28,R,Springfield,Hampshire,WV,26763,US,US/Eastern,KCBE,2020-11-05 01:15:00,41.0,38.0,81.0,29.59,10.0,N,5.0,0.0,Fair,False,False,False,False,False,False,False,False,False,False,False,False,False,Night,Night,Night,Night
C-89083,2,2021-06-14 22:47:30.000000000,2021-06-14 23:08:00.000000000,45.278624,-123.010308,45.284201,-123.005474,0.451344201457,Stationary traffic on OR-99W from OR-18/SE Dayton Byp (OR-99W) to OR-240/Main St (1st St/Hancock St/OR-99W) due to roadwork.,628.0,N Highway 99W,L,Dundee,Yamhill,OR,97115-9832,US,US/Pacific,KMMV,2021-06-14 22:53:00,56.0,56.0,84.0,29.91,10.0,SW,5.0,0.0,Mostly Cloudy,False,False,False,False,False,False,False,False,False,False,False,False,False,Night,Night,Night,Day
C-89084,3,2019-01-23 04:29:22.000000000,2019-01-23 06:30:00.000000000,34.928127,-85.152245,,,5.769999980930001,Two lanes closed due to construction work on I-75 Northbound between Exit 345 US-41 and Exit 350 GA-2 Battlefield Pkwy.,,I-75 N,R,Ringgold,Catoosa,GA,30736,US,US/Eastern,KCHA,2019-01-23 04:53:00,46.0,41.4,58.0,30.19,10.0,South,9.2,,Overcast,False,False,False,False,False,False,False,False,False,False,False,False,False,Night,Night,Night,Night
C-89085,3,2018-03-26 00:01:00.000000000,2018-03-31 17:00:00.000000000,41.111225,-100.764137,,,20.2800006866,Intermittent lane closures and temporary width limit of 12' due to maintenance work on I-80 Eastbound between Exit 164 Hershey Dickens Rd and Exit 177 US-83 Jeffers St.,,I-80 E,R,North Platte,Lincoln,NE,69101,US,US/Central,KLBF,2018-03-26 00:17:00,35.1,29.3,96.0,29.92,2.5,ENE,6.9,,Overcast,False,False,False,False,False,False,False,False,False,False,False,False,False,Night,Night,Night,Night
C-89086,2,2020-11-03 13:54:00.000000000,2020-11-04 03:29:14.000000000,47.7417,-116.792318,47.744457,-116.793082,0.193769717905,Stationary traffic on US-95 N from W Aqua Ave to N Mineral Dr due to roadwork.,7646.0,N Highway 95,R,Coeur D Alene,Kootenai,ID,83815,US,US/Pacific,KCOE,2020-11-03 13:56:00,53.0,53.0,61.0,27.53,10.0,CALM,0.0,0.0,Fair,False,False,False,False,False,False,False,False,False,True,False,False,False,Day,Day,Day,Day
C-89087,2,2021-01-28 17:49:00.000000000,2021-01-28 23:45:00.000000000,38.495203,-77.383028,38.511573,-77.376348,1.1873306738200002,Construction on I-95 NB near MM 146 Construction. Left lane closed.,,I-95 N,R,Stafford,Stafford,VA,22554,US,US/Eastern,KRMN,2021-01-28 17:55:00,32.0,19.0,25.0,30.1,10.0,NNW,22.0,0.0,Fair / Windy,False,False,False,False,False,False,False,False,False,True,False,False,False,Night,Day,Day,Day
C-89088,2,2021-09-02 17:01:00.000000000,2021-09-02 17:30:39.000000000,30.613152000000003,-97.68752,30.607753,-97.686272,0.380345754534,Stationary traffic on TX-26 Spur from SE Inner Loop (TX-26 Spur) exit [259] to I-35 S due to roadwork.,,I-35 S,R,Georgetown,Williamson,TX,78628,US,US/Central,KGTU,2021-09-02 16:56:00,95.0,95.0,44.0,29.04,10.0,SSE,9.0,0.0,Partly Cloudy,False,False,False,False,True,False,False,False,False,False,False,False,False,Day,Day,Day,Day
C-89089,2,2020-11-20 13:21:30.000000000,2020-11-20 21:26:46.000000000,27.837792,-82.786964,27.839503000000004,-82.786966,0.118218904001,Stationary traffic on US-19 Alt N - FL-595 from FL-666 (US-19 Alt) to Park Blvd (US-19 Alt) due to roadwork.,,72nd Ave,R,Seminole,Pinellas,FL,33772,US,US/Eastern,KPIE,2020-11-20 12:53:00,77.0,77.0,64.0,30.28,10.0,NE,9.0,0.0,Fair,False,False,True,False,False,False,False,False,True,False,False,True,False,Day,Day,Day,Day
C-89090,4,2020-11-02 20:53:40.000000000,2020-11-10 07:59:00.000000000,29.743117,-95.422305,29.745097,-95.422317,0.136806864753,Closed road from Westheimer Rd to Ella Lee Ln due to roadwork.,3100.0,Locke Ln,R,Houston,Harris,TX,77019-6208,US,US/Central,KMCJ,2020-11-02 20:53:00,60.0,60.0,47.0,30.33,10.0,NE,3.0,0.0,Fair,False,False,False,False,False,False,False,False,False,False,True,False,False,Night,Night,Night,Night
C-89091,2,2021-05-21 13:18:30.000000000,2021-05-21 14:00:00.000000000,41.957057,-87.736132,41.96273400000001,-87.74531400000002,0.613524384253,Slow traffic on I-94 W - I-90 W - Kennedy Expy W from Kostner Ave exit [43D] to Kennedy Expy exit [43B] due to roadwork.,,I-90 W,R,Chicago,Cook,IL,60641,US,US/Central,KORD,2021-05-21 12:51:00,84.0,84.0,38.0,29.59,10.0,SW,13.0,0.0,Mostly Cloudy,False,False,False,False,False,False,False,False,False,False,False,False,False,Day,Day,Day,Day
C-89092,2,2017-03-02 08:02:45.000000000,2017-03-02 14:02:45.000000000,39.84344,-83.12603,39.82393,-83.14191,1.58966317981,At I-71/Lambert Rd - Construction work.,6002.0,Harrisburg Pike,L,Orient,Pickaway,OH,43146-9255,US,US/Eastern,KTZR,2017-03-02 07:50:00,33.8,26.4,70.0,30.13,10.0,WNW,9.2,,Overcast,False,False,False,False,False,False,False,False,False,False,False,True,False,Day,Day,Day,Day
C-89093,2,2021-02-16 03:49:30.000000000,2021-02-16 07:51:33.000000000,37.37998,-93.953412,37.376801,-93.953509,0.219712537345,Roadwork on US-160/4th St (Main St/MO-97) from MO-NN/MO-97 (MO-97) to MO-97.,1536.0,S Main St,R,Lockwood,Dade,MO,65682-8363,US,US/Central,KSGF,2021-02-16 03:52:00,-9.0,-22.0,79.0,28.76,10.0,NW,6.0,0.0,Fair,False,False,False,False,False,False,False,False,False,False,False,False,False,Night,Night,Night,Night
C-89094,2,2021-02-28 16:00:00.000000000,2021-12-30 17:11:52.000000000,42.08844600000001,-122.603379,42.060434,-122.607421,1.94651478722,Slow traffic on OR-99 S - Pacific Highway 1 S - I-5 S from OR-99/Exit 11 (I-5) to OR-99/Exit 1 (I-5) due to roadwork.,,I-5 S,R,Ashland,Jackson,OR,97520,US,US/Pacific,KMFR,2021-08-08 03:53:00,69.0,69.0,70.0,28.54,10.0,NW,6.0,0.0,Cloudy,False,False,False,False,False,False,False,False,False,False,False,False,False,Day,Day,Day,Day
C-89095,2,2021-03-25 04:30:30.000000000,2021-03-25 15:20:34.000000000,33.426761,-112.082433,33.429358,-112.082378,0.179463636514,Stationary traffic from W Broadway Rd (S 7th Ave) to I-17/US-60/W Maricopa Fwy (S 7th Ave) due to roadwork.,2253.0,S 7th Ave,L,Phoenix,Maricopa,AZ,85007-4301,US,US/Mountain,KPHX,2021-03-25 04:51:00,53.0,53.0,35.0,28.64,10.0,E,9.0,0.0,Partly Cloudy,False,False,False,False,False,False,False,False,False,False,False,True,False,Night,Night,Night,Night
C-89096,4,2019-03-06 05:28:28.000000000,2019-03-06 10:26:28.000000000,28.54756,-81.25305,28.54648,-81.27363000000003,1.2512972216399998,At SR-417-TOLL/Exit 18 - Roadwork.,,E West Expy W,R,Orlando,Orange,FL,32825,US,US/Eastern,KORL,2019-03-06 05:53:00,44.1,39.0,55.0,30.3,10.0,NNW,9.2,,Clear,False,False,False,False,True,False,False,False,False,False,False,False,False,Night,Night,Night,Day
C-89097,2,2021-08-07 01:34:30.000000000,2021-08-07 02:11:00.000000000,46.772573,-95.86763,46.767335,-95.872715,0.4346135112610001,Stationary traffic on County Hwy-22 from W Lake Dr / Nodaway Dr to US Highway 59 due to roadwork.,25521.0,County Highway 22,R,Detroit Lakes,Becker,MN,56501-7138,US,US/Central,KDTL,2021-08-07 01:35:00,68.0,68.0,64.0,28.43,9.0,ESE,10.0,0.0,Mostly Cloudy,False,False,False,False,False,False,False,False,False,False,False,False,False,Night,Night,Night,Night
C-89098,2,2016-04-11 08:12:42.000000000,2016-10-21 05:27:47.000000000,40.303552,-78.988948,40.309552,-78.97864,0.683265566425,At Goucher St - Roadwork. Lane blocked.,2967.0,Menoher Blvd,L,Johnstown,Cambria,PA,15905-5602,US,US/Eastern,KJST,2016-04-11 07:54:00,50.0,,61.0,30.01,10.0,SSW,13.8,,Overcast,False,False,False,False,False,False,False,False,False,False,False,False,False,Day,Day,Day,Day
C-89099,2,2021-05-03 12:37:00.000000000,2021-05-03 13:01:00.000000000,39.786905,-85.731689,39.787114,-85.72662199999998,0.269411351702,Stationary traffic on US-40 E from IN-9/State St (W Main St/US-40) to S 600 E (US-40) due to roadwork.,2265.0,E Main St,L,Greenfield,Hancock,IN,46140-8135,US,US/Eastern,KMQJ,2021-05-03 12:35:00,64.0,64.0,100.0,28.72,10.0,W,9.0,,Cloudy,False,False,False,False,False,False,False,False,False,False,False,False,False,Day,Day,Day,Day
C-89100,2,2021-06-28 17:34:37.000000000,2021-06-28 18:11:56.000000000,30.145813,-82.035026,30.15334600000001,-82.032234,0.546558586541,Stationary traffic on US-301 N - FL-200 from FL-200/CR-225/Lake St (US-301) to Max Middleburg Rd (US-301) due to roadwork.,,FL-200,R,Jacksonville,Clay,FL,32234,US,US/Eastern,KVQQ,2021-06-28 17:50:00,86.0,86.0,62.0,30.03,10.0,ENE,7.0,0.0,Fair,False,False,False,False,False,False,False,False,False,False,False,False,False,Day,Day,Day,Day
C-89101,2,2020-10-06 02:54:00.000000000,2020-10-06 12:00:00.000000000,36.829036,-76.309822,36.830206,-76.306072,0.222587944437,On I-264 in the City of Portsmouth at mile marker 6.1 motorists can expect potential delays in this area from 10/05/20 at 7:54 PM until 10/06/20 at 5:00 AM due to paving operations. The east exit ramp is closed.,,I-264 E,R,Portsmouth,Portsmouth,VA,23704,US,US/Eastern,,,,,,,,,,,,False,False,False,False,True,False,False,False,False,False,False,False,False,Night,Night,Night,Night
C-89102,2,2021-08-26 15:06:30.000000000,2021-08-26 16:43:00.000000000,39.756081,-84.176571,39.764835,-84.177024,0.605322168077,Slow traffic from US-35 (S Keowee St) to OH-4/E 1st St (N Keowee St) due to roadwork.,414.0,S Keowee St,L,Dayton,Montgomery,OH,45410,US,US/Eastern,KFFO,2021-08-26 14:56:00,78.0,78.0,58.0,29.25,10.0,S,28.0,0.0,Light Rain with Thunder,False,False,False,False,False,False,False,False,False,False,False,True,False,Day,Day,Day,Day
C-89103,2,2020-10-19 16:07:00.000000000,2020-10-19 17:59:30.000000000,41.264108,-89.362669,41.257348,-89.33514100000002,1.5041243595299998,Stationary traffic on IL-26 from I-180 (Princeton) (South) (IL-26) to I-180/IL-71 (IL-26) due to roadwork.,,I-180 S,R,Princeton,Bureau,IL,61356,US,US/Central,KVYS,2020-10-19 16:15:00,40.0,35.0,86.0,29.49,10.0,N,7.0,0.0,Cloudy,False,False,False,False,False,False,False,False,False,False,False,False,False,Day,Day,Day,Day
C-89104,2,2021-06-18 16:28:15.000000000,2021-06-18 17:10:32.000000000,40.591376,-78.712326,40.602738,-78.709061,0.803509621305,Slow traffic on US-219 N - US-219 S from PA-553/Ridge Rd (Plank Rd/US-219) to Carroll St (Main St/US-219) due to roadwork.,1931.0,Plank Rd,R,Carrolltown,Cambria,PA,15722-6410,US,US/Eastern,KJST,2021-06-18 16:54:00,76.0,76.0,50.0,27.54,10.0,SSW,14.0,0.0,Fair,False,False,False,False,False,False,False,False,False,False,False,True,False,Day,Day,Day,Day
C-89105,2,2021-03-23 05:04:00.000000000,2021-12-15 19:13:30.000000000,45.145223,-121.631638,45.227801,-121.699541,6.59454026984,Stationary traffic on US-26 E - US-26 W from S-507 Rd/East Gate Rd (US-26) to OR-35/Mount Hood Hwy (US-26) due to roadwork.,,Warm Springs Hwy,R,Maupin,Wasco,OR,97037,US,US/Pacific,KDLS,2021-12-15 11:53:00,36.0,31.0,79.0,29.64,1.0,ESE,6.0,0.01,Light Snow,False,False,False,False,False,False,False,False,False,False,False,False,False,Night,Night,Night,Night
C-89106,2,2017-01-26 10:00:00.000000000,2017-01-26 15:00:00.000000000,40.717789,-73.31433100000002,,,3.46,Intermittent lane closures due to construction work on NY-27 Sunrise Hwy Eastbound between Jefferson Ave and Exit 40 NY-231 Babylon Northport Expy.,,Sunrise Hwy E,R,West Babylon,Suffolk,NY,11704,US,US/Eastern,KFRG,2017-01-26 09:53:00,45.0,40.6,82.0,29.45,10.0,SW,8.1,0.0,Light Rain,False,False,False,False,False,False,False,False,False,False,False,False,False,Day,Day,Day,Day
C-89107,2,2021-06-18 15:29:09.000000000,2021-06-18 17:34:29.000000000,25.885372,-80.21074499999997,25.88378,-80.211286,0.115022689877,Slow traffic on FL-924 - US-441 S from NW 121st St to NW 8th Ave due to roadwork.,12080.0,NW 7th Ave,L,North Miami,Miami-Dade,FL,33168-2525,US,US/Eastern,KOPF,2021-06-18 15:53:00,86.0,86.0,61.0,30.03,10.0,E,15.0,0.0,Fair,False,False,False,False,False,False,False,False,True,False,False,False,False,Day,Day,Day,Day
C-89108,2,2020-08-27 23:56:04.000000000,2020-08-28 00:42:05.000000000,40.679602,-73.89303000000002,40.677896,-73.892605,0.119958586392,Stationary traffic from Jamaica Ave to Atlantic Ave due to roadwork.,74.0,Miller Ave,R,Brooklyn,Kings,NY,11207,US,US/Eastern,KJFK,2020-08-27 23:51:00,73.0,73.0,90.0,29.75,10.0,WSW,9.0,0.0,Cloudy,False,False,False,False,False,False,True,False,True,True,False,False,False,Night,Night,Night,Night
C-89110,2,2021-05-18 15:41:30.000000000,2021-05-18 17:42:30.000000000,37.628142,-97.355963,37.632444,-97.389091,1.83696213331,Slow traffic on I-235 N from exit [2] to exit [4] due to roadwork.,,I-235 N,R,Wichita,Sedgwick,KS,67217,US,US/Central,KICT,2021-05-18 15:39:00,64.0,64.0,96.0,28.49,6.0,SW,8.0,0.06,Light Rain with Thunder,False,False,False,False,False,False,False,False,False,False,False,False,False,Day,Day,Day,Day
C-89111,2,2020-04-23 09:43:00.000000000,2020-04-24 17:20:30.000000000,41.4248,-81.56482,41.4248,-81.56482,0.0,At OH-14/Broadway Ave/Exit 23 - Roadwork. Left lane closed.,,Lee Rd,R,Cleveland,Cuyahoga,OH,44128,US,US/Eastern,KBKL,2020-04-23 09:53:00,47.0,42.0,66.0,29.21,10.0,SE,10.0,0.0,Fair,False,False,False,False,False,False,False,False,False,False,False,False,False,Day,Day,Day,Day
C-89112,2,2021-01-19 13:13:00.000000000,2021-01-19 21:55:09.000000000,40.24097800000001,-79.57821,40.238511,-79.57994000000002,0.193338806527,Stationary traffic on US-119 S from Fairview St (US-119) to Burton Ave (US-119) due to roadwork.,112.0,N 4th St,L,Youngwood,Westmoreland,PA,15697-1308,US,US/Eastern,KLBE,2021-01-19 12:47:00,34.0,25.0,65.0,28.87,20.0,WSW,12.0,0.0,Partly Cloudy,False,False,False,False,False,False,False,False,False,False,False,False,False,Day,Day,Day,Day
C-89113,2,2017-05-10 19:30:00.000000000,2017-05-11 04:00:00.000000000,42.291637,-71.426598,,,0.0,Intermittent lane closures due to bridge maintenance work on Mount Wayte Ave both ways between Dudley Rd and Union Ave.,1.0,Mount Wayte Ave,R,Framingham,Middlesex,MA,01702-5803,US,US/Eastern,KOWD,2017-05-10 19:53:00,55.0,,49.0,30.0,10.0,Calm,,,Mostly Cloudy,False,False,False,False,False,False,False,False,False,False,False,True,False,Day,Day,Day,Day
C-89114,2,2020-08-27 03:00:00.000000000,2020-08-28 15:08:03.000000000,40.758016,-74.975135,40.758719,-74.97495699999997,0.0494579567938,Construction milling on NJ 31 both directions area of NJ 57/Washington Ave (Washington Twp) 2 right lanes closed until 6:00 A.M.,44.0,State Highway 31,R,Washington,Warren,NJ,07882-1806,US,US/Eastern,KSMQ,2020-08-27 02:53:00,64.0,64.0,93.0,29.74,10.0,CALM,0.0,0.0,Mostly Cloudy,False,False,False,False,False,False,False,False,False,False,False,False,False,Night,Night,Night,Night
C-89115,2,2021-08-03 22:01:00.000000000,2021-08-04 06:44:00.000000000,33.9114,-117.875347,33.910945,-117.87533,0.0314526151829,Construction on CASTLEGATE LN SB near CA-90 Expect delays.,1900.0,Devonshire Dr,R,Brea,Orange,CA,92821-6018,US,US/Pacific,KFUL,2021-08-03 21:53:00,74.0,74.0,55.0,29.78,10.0,CALM,0.0,0.0,Fair,False,False,False,False,False,False,False,False,False,False,False,True,False,Night,Night,Night,Night
C-89116,2,2020-01-29 20:00:00.000000000,2020-01-30 06:00:00.000000000,36.30976,-80.80468,36.30976,-80.80468,0.0,At I77 - Maintenance work. One lane closed.,,I-77 S,R,State Road,Surry,NC,28676,US,US/Eastern,KUKF,2020-01-29 19:55:00,41.0,41.0,70.0,28.71,10.0,CALM,0.0,0.0,Cloudy,False,False,False,False,False,False,False,False,False,False,False,False,False,Night,Night,Night,Night
C-89117,2,2021-05-26 09:09:10.000000000,2021-05-26 09:30:38.000000000,42.090871,-76.270891,42.092208,-76.268715,0.1448492443139999,Stationary traffic on Southern Tier Expy E - NY-17 E from CR-509/Stanton Hill Rd/Exit 63 (NY-17) to NY-434/Exit 64 (NY-17) due to roadwork.,,NY-17 E,R,Owego,Tioga,NY,13827,US,US/Eastern,KBGM,2021-05-26 08:53:00,70.0,70.0,78.0,28.29,10.0,SSW,9.0,0.0,Fair,False,False,False,False,False,False,False,False,False,False,False,False,False,Day,Day,Day,Day
C-89118,2,2021-12-23 16:46:25.000000000,2021-12-23 19:03:42.000000000,25.926223,-80.15440100000002,25.926152,-80.15678,0.1479117720859999,Stationary traffic on FL-826 from US-1/FL-5/Biscayne Blvd (FL-826) to 19th Ave (FL-826) due to roadwork.,2275.0,NE 163rd St,L,North Miami Beach,Miami-Dade,FL,33160-3701,US,US/Eastern,KHWO,2021-12-23 16:53:00,72.0,72.0,40.0,30.1,10.0,WNW,6.0,0.0,Fair,False,False,True,False,False,False,True,False,True,False,False,False,False,Day,Day,Day,Day
C-89119,2,2021-10-06 11:34:57.000000000,2021-10-07 12:27:08.000000000,45.920788,-114.109619,45.926791,-114.11587,0.512147746215,Construction on US-93 NB near MP 22 Drive with caution.,5113.0,US Highway 93 S,L,Conner,Ravalli,MT,59827-9736,US,US/Mountain,KHMM,2021-10-06 11:53:00,62.0,62.0,38.0,26.64,10.0,NNW,16.0,0.0,Fair,False,False,False,False,False,False,False,False,False,False,False,False,False,Day,Day,Day,Day
C-89120,2,2019-02-11 22:00:00.000000000,2019-02-12 10:00:00.000000000,33.071945,-96.875946,,,0.0,Intermittent lane closures due to construction during the night on TX-121-TOLL Sam Rayburn Tlwy Westbound at Plano Pkwy.,,Sam Rayburn Tollway S,R,The Colony,Denton,TX,75056,US,US/Central,KADS,2019-02-11 21:55:00,56.5,,93.0,29.78,10.0,South,9.2,,Clear,False,False,False,False,False,False,False,False,False,False,False,False,False,Night,Night,Night,Night
C-89121,2,2021-05-20 04:50:30.000000000,2021-05-20 19:41:14.000000000,28.404936,-80.707261,28.405856,-80.705662,0.116122260007,Slow traffic on FL-3 from FL-3 exit [49] to FL-528 E due to roadwork.,,Beachline Expy,R,Merritt Island,Brevard,FL,32953,US,US/Eastern,KXMR,2021-05-20 04:56:00,74.0,74.0,65.0,30.14,10.0,E,16.0,0.0,Partly Cloudy,False,False,False,False,False,False,False,False,False,False,False,True,False,Night,Night,Night,Night
C-89122,2,2021-12-17 16:02:30.000000000,2021-12-18 02:01:02.000000000,42.368662,-94.107808,42.368712,-94.106813,0.0509099693398999,Roadwork on County Hwy-D43 at Paragon Ave.,2493.0,290th St,L,Lehigh,Webster,IA,50557-7549,US,US/Central,,,,,,,,,,,,False,False,False,False,False,False,False,False,False,False,False,False,False,Day,Day,Day,Day
C-89123,2,2021-11-20 10:33:00.000000000,2021-11-20 12:33:46.000000000,39.362692,-78.045363,39.362695,-78.046062,0.0373407003054,Roadwork on US-11 (WV-51) from I-81 (WV-51) to WV-51.,4759.0,Gerrardstown Rd,R,Inwood,Berkeley,WV,25428-3460,US,US/Eastern,KMRB,2021-11-20 10:53:00,37.0,37.0,57.0,29.92,10.0,CALM,0.0,0.0,Fair,False,False,False,False,False,False,False,False,False,False,False,False,False,Day,Day,Day,Day
C-89124,4,2019-06-11 08:30:03.000000000,2019-06-11 13:29:51.000000000,40.91857,-78.98645,40.94323,-78.97235,1.85602016331,Closed at PA-36/W Mahoning St/Gilpin St - Closed due to roadwork.,21216.0,Route 119,R,Punxsutawney,Jefferson,PA,15767-7920,US,US/Eastern,KDUJ,2019-06-11 08:17:00,53.0,53.0,80.0,28.19,10.0,VAR,7.0,0.0,Fair,False,False,False,False,False,False,False,False,False,False,False,True,False,Day,Day,Day,Day
C-89125,2,2021-10-14 15:40:00.000000000,2021-10-14 16:00:00.000000000,33.010048,-117.265901,33.009747999999995,-117.266477,0.0392866644281999,Roadwork from El Camino Real (Manchester Ave) to I-5 (Manchester Ave).,,Manchester Ave,R,Cardiff By The Sea,San Diego,CA,92007,US,US/Pacific,KCRQ,2021-10-14 15:53:00,69.0,69.0,45.0,29.6,10.0,W,7.0,0.0,Fair,False,False,False,False,False,False,False,False,False,False,False,False,False,Day,Day,Day,Day
C-89126,2,2018-10-16 13:15:12.000000000,2018-10-20 13:14:59.000000000,44.092754,-116.102416,44.092878000000006,-116.102392,0.00864996590366,At NF-24/Banks Lowman Rd/Banks Grade - Roadwork.,,Highway 55,R,Banks,Boise,ID,83602,US,US/Mountain,KBOI,2018-10-16 12:53:00,57.0,,28.0,30.41,10.0,South,6.9,,Clear,False,False,False,False,False,False,False,False,False,False,False,False,False,Day,Day,Day,Day
C-89127,2,2021-03-15 06:26:00.000000000,2021-03-15 16:57:31.000000000,25.883551,-80.21345500000002,25.883047,-80.210559,0.183359192239,Stationary traffic on FL-924 - US-441 S from NW 10th Ave to NW 121st St due to roadwork.,886.0,NW 119th St,L,Miami,Miami-Dade,FL,33168-2339,US,US/Eastern,KOPF,2021-03-15 06:53:00,67.0,67.0,90.0,30.09,10.0,NNE,3.0,0.0,Partly Cloudy,False,False,False,False,False,False,False,False,False,False,False,False,False,Night,Night,Night,Day
C-89128,4,2018-10-04 21:17:10.000000000,2018-10-05 02:15:08.000000000,41.40485,-82.11077,41.404912,-82.109818,0.0495219297186,At OH-254/Exit 148 - Roadwork.,,I-90 E,R,Elyria,Lorain,OH,44035,US,US/Eastern,KLPR,2018-10-04 20:53:00,53.1,,66.0,30.19,10.0,NE,12.7,,Clear,False,False,False,False,False,False,False,False,False,False,False,False,False,Night,Night,Night,Night
C-89129,1,2021-02-27 00:00:00.000000000,2021-02-28 23:59:00.000000000,42.96637,-85.66893,,,0.10000000149,Road closed due to construction work on Pearl St Eastbound from Ottawa Ave to Ionia Ave.,122.0,Ionia Ave NW,R,Grand Rapids,Kent,MI,49503,US,US/Eastern,KGRR,2021-02-27 00:53:00,35.0,30.0,70.0,28.87,10.0,S,6.0,0.0,Cloudy,True,False,True,False,False,False,False,False,False,False,False,False,False,Night,Night,Night,Night
C-89130,2,2021-04-26 07:58:47.000000000,2021-05-26 18:34:30.000000000,41.892529,-87.643221,41.899944,-87.65973100000002,0.991699540704,Stationary traffic on I-94 W - I-90 W - Kennedy Expy W from N Kingsbury St to Augusta Blvd exit [49B] due to roadwork.,581.0,N Desplaines St,R,Chicago,Cook,IL,60654,US,US/Central,KMDW,2021-05-26 05:53:00,67.0,67.0,87.0,29.27,10.0,SSW,8.0,0.05,Light Rain,False,False,False,False,False,False,False,False,False,False,False,False,False,Day,Day,Day,Day
C-89131,2,2021-10-13 14:36:00.000000000,2021-10-13 14:46:00.000000000,41.629362,-84.76048399999998,41.628899,-84.750694,0.5066116402499999,Slow traffic on Ohio Tpke E - I-90 E - I-80 E from Westgate Toll Booth (I-90/I-80) to CR-15/Exit 13 (I-90/I-80) due to roadwork.,,I-80 E,R,Edon,Williams,OH,43518,US,US/Eastern,KANQ,2021-10-13 14:35:00,72.0,72.0,50.0,28.92,7.0,SW,9.0,0.0,Fair,False,False,False,False,False,False,False,False,False,False,False,False,False,Day,Day,Day,Day
C-89132,2,2020-07-20 16:01:00.000000000,2020-07-20 22:46:00.000000000,38.391669,-122.529411,38.387185,-122.520091,0.5922342488610001,Construction on CA-12 EB near DUNBAR RD Expect long delays.,11306.0,Highway 12,R,Glen Ellen,Sonoma,CA,95442,US,US/Pacific,KO69,2020-07-20 15:55:00,70.0,70.0,60.0,29.87,8.0,WNW,10.0,0.0,Fair,False,False,False,False,False,False,False,False,False,False,False,False,False,Day,Day,Day,Day
C-89133,2,2021-03-16 19:31:30.000000000,2021-03-16 21:46:00.000000000,32.795981,-96.625506,32.819111,-96.628862,1.6099704676700002,Stationary traffic on I-635 N - LBJ Fwy N from Gross Rd/Exit 5 (I-635) to I-30/Exit 8 (I-635) due to roadwork.,,I-635 N,R,Mesquite,Dallas,TX,75150,US,US/Central,KHQZ,2021-03-16 19:50:00,73.0,73.0,65.0,29.2,10.0,ESE,8.0,0.0,Fair,False,False,False,False,False,False,False,False,False,False,False,False,False,Day,Day,Day,Day
C-89134,2,2018-11-13 22:02:42.000000000,2018-11-17 22:02:37.000000000,25.97053,-80.16575999999998,25.94282,-80.18824000000002,2.36979613021,Between Ives Dairy Rd/203rd St/Exit 16 and SR-860/Miami Gardens Dr/Exit 14 - Construction work.,,I-95 S,R,Miami,Miami-Dade,FL,33179,US,US/Eastern,KHWO,2018-11-13 21:53:00,80.1,,87.0,30.08,10.0,Calm,,,Clear,False,False,False,False,False,False,False,False,False,False,False,False,False,Night,Night,Night,Night
C-89136,2,2021-01-29 15:26:00.000000000,2021-01-29 18:24:58.000000000,38.170549,-120.410173,38.239093,-120.36281,5.38904957416,Roadwork on Strawberry Hill Rd (CA-4) from Arnold Byway (CA-4) to CA-4.,3500.0,Tohoe Dr,L,Murphys,Calaveras,CA,95247-9321,US,US/Pacific,KO22,2021-01-29 15:35:00,46.0,46.0,81.0,27.73,9.0,CALM,0.0,0.0,Mostly Cloudy,False,False,False,False,False,False,False,False,False,False,False,False,False,Day,Day,Day,Day
C-89137,2,2020-11-17 14:00:30.000000000,2020-11-18 03:54:32.000000000,40.844731,-73.92514399999997,40.841646,-73.88835999999998,1.93445436071,Slow traffic on US-1 N - I-95 N - Cross Bronx Exp E from Alexander Hamilton Bridge (I-95) to I-895/Sheridan Expy/Exit 4A (I-95) due to roadwork.,,Cross Bronx Exp E,R,Bronx,Bronx,NY,10452,US,US/Eastern,KLGA,2020-11-17 13:51:00,49.0,42.0,52.0,29.88,10.0,NW,18.0,0.0,Cloudy,False,False,False,False,False,False,False,False,False,True,False,False,False,Day,Day,Day,Day
C-89138,2,2016-08-22 09:02:55.000000000,2016-08-22 15:02:55.000000000,39.62571,-76.65906,39.62304,-76.65805999999998,0.192002305308,Between Coachman Way and Wiseburg Rd - Construction work.,601.0,Coachmans Way,R,Parkton,Baltimore,MD,21120-9469,US,US/Eastern,KDMW,2016-08-22 08:55:00,71.6,,50.0,30.06,10.0,NNW,6.9,,Clear,False,False,False,False,False,False,False,False,False,True,False,False,False,Day,Day,Day,Day
C-89139,2,2020-09-04 08:01:30.000000000,2020-09-04 17:07:53.000000000,38.941191,-94.816228,38.941192,-94.816045,0.00983471277585,Roadwork in S Woodland Rd.,10300.0,S Woodland Rd,R,Olathe,Johnson,KS,66061,US,US/Central,KIXD,2020-09-04 07:53:00,60.0,60.0,78.0,29.03,10.0,NNE,3.0,0.0,Fair,False,False,True,False,False,False,False,False,False,False,False,False,False,Day,Day,Day,Day
C-89140,2,2020-06-21 16:21:30.000000000,2020-06-22 16:21:30.000000000,40.68198,-112.09189,40.71728,-112.09177,2.4390058102000003,Between W 4100 S and UT-201/W 2400 S - Major roadwork.,4100.0,S,R,Magna,Salt Lake,UT,84044,US,US/Mountain,KU42,2020-06-21 15:54:00,88.0,88.0,18.0,25.67,10.0,NNW,13.0,0.0,Mostly Cloudy,False,False,False,False,True,False,False,False,False,False,False,True,False,Day,Day,Day,Day
C-89141,4,2018-09-22 12:31:27.000000000,2018-09-22 14:30:45.000000000,40.37683,-77.00224,40.37938,-77.00898000000002,0.3960984469169999,At PA-325 - Roadwork.,,William Penn Hwy,R,Dauphin,Dauphin,PA,17018,US,US/Eastern,KCXY,2018-09-22 12:56:00,68.0,,52.0,30.19,10.0,North,6.9,,Overcast,False,False,False,False,True,False,False,False,False,False,False,False,False,Day,Day,Day,Day
C-89142,2,2020-08-07 12:58:34.000000000,2020-08-07 21:43:34.000000000,45.60732700000001,-121.198242,45.606337,-121.193232,0.251639801814,Construction on I-84 EB near MP 84 Expect delays.,,I-84 E,R,The Dalles,Wasco,OR,97058,US,US/Pacific,KDLS,2020-08-07 12:53:00,77.0,77.0,31.0,29.86,10.0,NNW,9.0,0.0,Fair,False,False,False,False,True,False,False,False,False,False,False,False,False,Day,Day,Day,Day
C-89143,4,2019-04-10 08:00:25.000000000,2019-04-10 12:59:54.000000000,36.006074,-79.851855,36.00305200000001,-79.841401,0.620506985329,Closed at I-85/I-85-BR/US-220/Exit 97 - Closed. Bridge maintenance work.,,I-73 S,R,Greensboro,Guilford,NC,27407,US,US/Eastern,KGSO,2019-04-10 07:54:00,56.0,56.0,49.0,28.88,10.0,NNE,6.0,0.0,Partly Cloudy,False,False,False,False,False,False,False,False,False,False,False,False,False,Day,Day,Day,Day
C-89144,2,2020-06-10 18:25:50.000000000,2020-06-10 20:25:50.000000000,40.10962,-79.38226,40.02232,-79.08626,16.773773915899998,Between Freeman Falls Rd and Somerset Interchange/Exit 110 - Roadwork. Right lane closed.,,I-70 E,R,Donegal,Westmoreland,PA,15628,US,US/Eastern,KLBE,2020-06-10 18:50:00,86.0,86.0,55.0,28.56,10.0,SSE,12.0,0.0,Mostly Cloudy,False,False,False,False,True,False,False,False,False,False,False,False,False,Day,Day,Day,Day
C-89147,3,2019-04-26 20:01:09.000000000,2019-04-30 20:00:35.000000000,41.758241,-87.88493299999998,41.74497,-87.83941999999998,2.51885531789,Between I-55/Stevenson Expy (South) and IL-171/Archer Ave - Roadwork.,,Tri State Tollway S,R,La Grange,Cook,IL,60525,US,US/Central,KMDW,2019-04-26 19:53:00,58.0,58.0,26.0,29.21,10.0,NW,14.0,0.0,Fair,False,False,False,False,False,False,False,False,False,False,False,False,False,Night,Day,Day,Day
C-89148,4,2021-08-09 09:27:30.000000000,2021-09-07 23:59:00.000000000,44.287292,-88.386535,44.287334,-88.368613,0.886433004878,County Hwy-OO is closed from N Meade St (E Northland Ave/CR-OO) to WI-441 (E Northland Ave/CR-OO) due to roadwork.,1238.0,E Northland Ave,L,Appleton,Outagamie,WI,54911-8425,US,US/Central,KATW,2021-08-09 09:45:00,68.0,68.0,94.0,28.84,5.0,ESE,5.0,0.0,Rain,False,False,True,False,False,False,False,False,False,False,False,False,False,Day,Day,Day,Day
C-89149,2,2016-06-29 19:42:05.000000000,2016-06-30 06:00:00.000000000,41.094528,-73.632339,,,0.0,Intermittent lane closures due to construction work on CT-15 Southbound between Exit 37 CT-124 South Ave and Exit 31 North St.,,CT-15 S,R,Greenwich,Fairfield,CT,06830,US,US/Eastern,KHPN,2016-06-29 19:56:00,77.0,,48.0,29.87,10.0,NW,6.9,,Partly Cloudy,False,False,False,False,False,False,False,False,False,False,False,False,False,Day,Day,Day,Day
C-89150,2,2019-10-02 20:03:23.000000000,2019-10-06 20:00:36.000000000,30.42232000000001,-91.13984,30.42574,-91.13779,0.265998234874,Between I-10 and Corporate Blvd - Construction work.,,College Dr,R,Baton Rouge,East Baton Rouge,LA,70808,US,US/Central,KBTR,2019-10-02 19:53:00,87.0,87.0,53.0,29.88,10.0,SE,3.0,0.0,Mostly Cloudy,False,False,False,False,False,False,False,False,False,False,False,True,False,Night,Night,Night,Day
C-89151,2,2020-10-29 04:00:00.000000000,2020-10-29 12:45:00.000000000,29.953334,-95.673378,29.953731,-95.673182,0.0298342768646,Construction on BARKER CYPRESS RD NB near US-290 Right lane closed. Expect delays.,,Northwest Fwy W,R,Cypress,Harris,TX,77429,US,US/Central,KDWH,2020-10-29 03:53:00,41.0,41.0,93.0,29.77,5.0,CALM,0.0,0.0,Fair,False,False,False,False,False,False,False,False,False,False,False,False,False,Night,Night,Night,Night
C-89152,2,2016-08-16 14:33:27.000000000,2016-11-04 18:00:00.000000000,42.0942,-92.02905,42.00687,-92.02876,6.03394667327,At CR-E44/70th St - Roadwork. Single alternate lane traffic.,6401.0,24th Ave,L,Vinton,Benton,IA,52349,US,US/Central,KVTI,2016-08-16 14:35:00,82.4,,62.0,30.05,10.0,SW,5.8,,Clear,False,False,False,False,False,False,False,False,False,False,False,False,False,Day,Day,Day,Day
C-89153,2,2021-08-16 00:00:00.000000000,2021-08-24 20:06:14.000000000,46.322818,-111.505834,46.327348,-111.390152,5.52846617754,Construction on US-12 EB near ROUTE 14 Drive with caution.,998.0,Broadway St,R,Townsend,Broadwater,MT,59644-2432,US,US/Mountain,KHLN,2021-08-16 00:53:00,74.0,74.0,28.0,26.0,7.0,S,5.0,0.0,Fair,False,False,False,False,False,False,False,False,False,False,False,False,False,Night,Night,Night,Night
C-89154,2,2021-09-10 23:34:00.000000000,2021-09-10 23:55:30.000000000,40.711709,-74.01034,40.714936,-74.007963,0.255362973398,Stationary traffic from Liberty St (Church St) to Chambers St (Church St) due to roadwork.,59.0,Church St,R,New York,New York,NY,10007-2967,US,US/Eastern,KJRB,2021-09-10 23:51:00,64.0,64.0,60.0,29.99,10.0,W,3.0,0.0,Fair,True,False,True,False,False,False,True,False,True,False,False,True,False,Night,Night,Night,Night
C-89155,2,2021-09-07 11:36:30.000000000,2021-09-07 12:06:00.000000000,42.672388,-82.922849,42.672211,-82.929787,0.352665352347,Stationary traffic from Card Rd (23 Mile Rd) to Romeo Plank Rd (23 Mile Rd) due to roadwork.,20167.0,23 Mile Rd,L,Macomb,Macomb,MI,48042-4207,US,US/Eastern,KMTC,2021-09-07 11:49:00,76.0,76.0,67.0,29.23,10.0,SSE,10.0,0.0,Partly Cloudy,False,False,True,False,False,False,False,False,False,False,False,False,False,Day,Day,Day,Day
C-89156,2,2021-02-09 19:49:00.000000000,2021-02-10 01:23:33.000000000,36.04531,-86.602244,36.042854,-86.606544,0.294116210846,Stationary traffic on TN-171 from Stewarts Ferry Pike (S Mount Juliet Rd/TN-171) to US-41/TN-1/Murfreesboro Pike (Old Hickory Blvd/Hobson Pike/TN-171) due to roadwork.,1821.0,Hobson Pike,R,Antioch,Davidson,TN,37013-2400,US,US/Central,KBNA,2021-02-09 19:53:00,46.0,41.0,66.0,29.56,10.0,N,9.0,0.0,Cloudy,False,False,False,False,False,False,False,False,False,False,False,False,False,Night,Night,Night,Night
C-89157,2,2020-10-26 15:43:52.000000000,2020-10-27 16:31:35.000000000,38.79107800000001,-76.839237,38.791902,-76.838332,0.0749446772393,Construction on MD-223 NB near SHERWOOD DR Expect long delays.,,Woodyard Rd,R,Upper Marlboro,Prince George's,MD,20772,US,US/Eastern,KADW,2020-10-26 15:56:00,63.0,63.0,79.0,29.78,10.0,WNW,5.0,0.0,Mostly Cloudy,False,False,False,False,False,False,False,False,False,False,False,False,False,Day,Day,Day,Day
C-89158,2,2020-08-26 13:04:30.000000000,2020-08-27 01:24:35.000000000,28.043842,-82.678952,28.044336,-82.677238,0.1099531460569999,Stationary traffic on County Hwy-752 - FL-584 from Old Village Way to Lakeview Dr due to accident resurfacing work.,3744.0,Tampa Rd,L,Oldsmar,Pinellas,FL,34677-6306,US,US/Eastern,KPIE,2020-08-26 12:53:00,90.0,90.0,68.0,30.01,10.0,ESE,10.0,0.0,Partly Cloudy,False,False,False,False,False,False,False,False,False,False,False,False,False,Day,Day,Day,Day
C-89159,2,2020-10-16 05:25:30.000000000,2020-10-16 06:13:00.000000000,41.126128,-100.725477,41.108458,-100.725507,1.22088172211,Stationary traffic on NE-56G from E Philip Ave / E Golden Rd to I-80 W due to roadwork.,798.0,Newberry Access,L,North Platte,Lincoln,NE,69101,US,US/Central,KLBF,2020-10-16 05:53:00,31.0,25.0,82.0,27.41,10.0,NW,6.0,0.0,Fair,False,False,False,False,False,False,False,False,False,False,False,False,False,Night,Night,Night,Night
C-89160,2,2021-09-29 16:21:06.000000000,2021-11-23 18:45:37.000000000,45.22449500000001,-93.403085,45.224697,-93.396964,0.298202420329,Stationary traffic on County Hwy-116 from Sunfish Lake Blvd (CR-116) to MN-47 (CR-116) due to roadwork.,650.0,Bunker Lake Blvd NW,R,Anoka,Anoka,MN,55303-5013,US,US/Central,KANE,2021-09-29 16:45:00,84.0,84.0,42.0,28.99,10.0,SE,9.0,0.0,Mostly Cloudy,False,False,True,False,False,False,False,False,False,False,False,True,False,Day,Day,Day,Day
C-89161,2,2021-03-29 06:32:00.000000000,2021-10-13 09:49:05.000000000,41.645965,-91.540118,41.648623,-91.540091,0.183655599758,Slow traffic on US-6 W - IA-1 from Airport Rd to Highway 1 W due to roadwork.,1398.0,Cole's Mobile Home Ct,L,Iowa City,Johnson,IA,52246,US,US/Central,KIOW,2021-10-13 07:33:00,59.0,59.0,78.0,29.12,10.0,ESE,8.0,0.02,Light Rain with Thunder,False,False,False,False,False,False,False,False,True,False,False,False,False,Night,Day,Day,Day
C-89162,2,2020-12-07 15:01:00.000000000,2020-12-08 00:15:00.000000000,38.708323,-121.308818,38.682623,-121.336972,2.33626739262,Lane closure due to Electrical Work between Cirby Way Oc and Foothill Farms Poc,,I-80 W,R,Citrus Heights,Sacramento,CA,95621,US,US/Pacific,KMCC,2020-12-07 14:55:00,73.0,73.0,19.0,30.04,10.0,NW,14.0,,Fair,False,False,False,False,False,False,False,False,False,False,False,False,False,Day,Day,Day,Day
C-89163,2,2021-12-05 14:24:30.000000000,2021-12-05 16:51:54.000000000,35.163654,-101.885992,35.163814,-101.881801,0.236984667297,Stationary traffic from Bell St (SW 45th Ave) to I-27/Canyon Dr (SW 45th Ave) due to roadwork.,4279.0,SW 45th Ave,L,Amarillo,Randall,TX,79109-5401,US,US/Central,KAMA,2021-12-05 14:53:00,73.0,73.0,14.0,26.04,10.0,WSW,15.0,0.0,Fair,False,False,False,False,False,False,False,False,False,False,False,False,False,Day,Day,Day,Day
C-89164,2,2021-11-04 18:08:30.000000000,2021-11-04 20:10:58.000000000,33.482109,-112.073884,33.480165,-112.071914,0.175868965029,Stationary traffic from W Catalina Dr to N 3rd St due to roadwork.,,N Central Ave,R,Phoenix,Maricopa,AZ,85012,US,US/Mountain,KPHX,2021-11-04 17:51:00,88.0,88.0,14.0,28.69,10.0,SW,6.0,0.0,Fair,False,False,True,False,False,False,True,False,False,False,False,True,False,Night,Night,Day,Day
C-89165,2,2017-04-26 06:31:16.000000000,2017-04-26 12:31:16.000000000,41.992504,-75.131998,42.0402,-75.0673,4.67870343533,Between RT-17/CR-17/Old State Rd and River Rd/Trout Brook Rd - Construction work.,,Southern Tier Expy W,R,East Branch,Delaware,NY,13756,US,US/Eastern,KMSV,2017-04-26 06:35:00,50.0,,100.0,29.82,9.0,East,11.5,,Overcast,False,False,False,False,False,False,False,False,False,False,False,False,False,Day,Day,Day,Day
C-89166,2,2017-01-07 07:01:08.000000000,2017-01-07 13:01:08.000000000,42.110899,-75.898308,42.129994,-75.893811,1.33931704646,Between Frederick St and Old State Rd - Construction work.,,NY-7 E,R,Binghamton,Broome,NY,13901,US,US/Eastern,KBGM,2017-01-07 06:53:00,8.1,,83.0,30.33,10.0,Calm,,,Clear,False,False,False,False,False,False,False,False,False,False,False,False,False,Night,Day,Day,Day
C-89167,2,2021-04-10 06:30:00.000000000,2021-04-10 19:45:00.000000000,37.607664,-97.325519,37.605435,-97.324589,0.1622042586879999,Slow traffic on I-135 S from 47th St/Exit 1 (I-135) to I-135/I-35 Toll Booth (I-135) due to roadwork.,,I-135 S,R,Wichita,Sedgwick,KS,67216,US,US/Central,KIAB,2021-04-10 06:56:00,44.0,37.0,99.0,28.37,10.0,NW,16.0,0.0,Cloudy,False,False,False,False,False,False,False,False,False,False,False,False,False,Night,Night,Day,Day
C-89168,2,2016-11-16 09:30:44.000000000,2016-11-16 15:30:44.000000000,39.26313,-76.66591,39.265954,-76.667087,0.20502697804,At US-1-ALT/Caton Ave/Exit 50 - Construction work.,1415.0,S Caton Ave,L,Halethorpe,Baltimore,MD,21227-1041,US,US/Eastern,KBWI,2016-11-16 09:54:00,55.0,,45.0,29.87,10.0,WSW,6.9,,Mostly Cloudy,False,False,False,False,False,False,False,False,False,False,False,False,False,Day,Day,Day,Day
C-89169,2,2021-04-09 07:12:30.000000000,2021-04-09 18:57:30.000000000,47.241552,-122.390801,47.233358,-122.4334,2.07704317017,Slow traffic on I-5 S from Port of Tacoma Rd/Exit 136 (I-5) to I-705/WA-7/Exit 133 (I-5) due to roadwork.,,I-5 S,R,Tacoma,Pierce,WA,98424,US,US/Pacific,KTCM,2021-04-09 06:58:00,29.0,22.0,92.0,29.88,10.0,S,7.0,0.0,Fair,False,False,False,False,False,False,False,False,False,False,False,False,False,Day,Day,Day,Day
C-89170,2,2021-07-21 16:35:18.000000000,2021-07-21 17:03:16.000000000,46.952737,-122.941074,46.952735,-122.944931,0.181908773428,Stationary traffic from I-5 (93rd Ave) to Littlerock Rd (93rd Ave) due to roadwork.,2736.0,93rd Ave SW,L,Olympia,Thurston,WA,98512-9132,US,US/Pacific,KOLM,2021-07-21 16:54:00,73.0,73.0,38.0,29.92,10.0,W,9.0,0.0,Cloudy,False,False,False,False,False,False,False,False,False,False,False,False,False,Day,Day,Day,Day
C-89171,2,2017-09-11 09:50:00.000000000,2021-12-31 21:25:29.000000000,25.928151,-80.200342,25.927753,-80.204358,0.251059958149,Slow traffic on FL-826 from NE 167th St / N Miami Ave to Florida's Tpke S / NW 2nd Ave due to roadwork.,16700.0,N Miami Ave,L,North Miami Beach,Miami-Dade,FL,33169-6033,US,US/Eastern,KHWO,2021-03-30 05:53:00,74.0,74.0,85.0,30.12,10.0,E,5.0,0.0,Fair,False,False,False,False,False,False,False,False,True,False,False,True,False,Day,Day,Day,Day
C-89172,2,2021-07-08 12:01:47.000000000,2021-07-08 15:01:00.000000000,37.879051,-122.530327,,,0.4199999868869999,Single alternate line traffic due to utility work on CA-1 Eastbound from Pine Hill Rd / Pine St to Tennessee Ave.,301.0,Tennessee Ave,L,Mill Valley,Marin,CA,94941-3831,US,US/Pacific,KDVO,2021-07-08 11:55:00,77.0,77.0,44.0,29.76,10.0,W,7.0,0.0,Fair,False,False,False,False,False,False,False,False,False,False,False,False,False,Day,Day,Day,Day
C-89173,2,2021-08-29 18:44:00.000000000,2021-08-29 18:58:00.000000000,35.135335999999995,-107.843277,35.153584,-107.873122,2.10543647021,Slow traffic on I-40 W from I-40/Exit 85 (I-40) to NM-53/Exit 81 (I-40) due to roadwork.,,I-40 W,R,Grants,Cibola,NM,87020,US,US/Mountain,KGNT,2021-08-29 18:53:00,83.0,83.0,20.0,23.72,10.0,SSW,12.0,0.0,Fair,False,False,False,False,False,False,False,False,False,False,False,False,False,Day,Day,Day,Day
C-89174,2,2021-10-08 07:57:00.000000000,2021-10-08 08:54:30.000000000,39.703473,-104.996161,39.696714,-104.992919,0.497789497122,Slow traffic on US-85 S from I-25/US-87 (Denver) (S Santa Fe Dr/US-85) to W Florida Ave (S Santa Fe Dr/US-85) due to roadwork.,,S Kalamath St,R,Denver,Denver,CO,80223,US,US/Mountain,KAPA,2021-10-08 07:53:00,51.0,51.0,50.0,24.26,10.0,ESE,5.0,0.0,Partly Cloudy,False,False,True,False,False,False,False,False,False,False,False,True,False,Day,Day,Day,Day
C-89175,2,2021-11-22 08:18:30.000000000,2021-11-22 08:40:00.000000000,41.425379,-84.871223,41.429718,-84.871344,0.299861874849,Stationary traffic on IN-1 from CR-40 (IN-1) to US-6 (IN-1) due to roadwork.,498.0,S Broadway St,L,Butler,DeKalb,IN,46721-1432,US,US/Eastern,KGWB,2021-11-22 08:15:00,32.0,25.0,75.0,29.18,10.0,WNW,8.0,0.0,Cloudy,False,False,False,False,False,False,False,False,False,False,False,True,False,Day,Day,Day,Day
C-89176,2,2021-11-19 13:48:30.000000000,2021-11-19 14:49:00.000000000,27.916646000000004,-82.795097,27.91664500000001,-82.787873,0.441046835167,Stationary traffic on FL-686 from FL-686/Clearwater Largo Rd/W Bay Dr (US-19 Alt) to FL-686/Missouri Ave/Bay Dr (US-19 Alt) due to roadwork.,675.0,W Bay Dr,L,Largo,Pinellas,FL,33770,US,US/Eastern,KPIE,2021-11-19 13:53:00,79.0,79.0,66.0,30.09,10.0,NE,8.0,0.0,Fair,False,False,False,False,False,False,False,False,True,False,False,True,False,Day,Day,Day,Day
C-89177,2,2021-07-29 15:49:30.000000000,2021-07-29 20:26:30.000000000,37.634487,-122.086611,37.584625,-122.051032,3.95744727078,Slow traffic on Nimitz Fwy S - I-880 S from CA-92/Jackson St (I-880) to Alvarado Blvd/Fremont Blvd (I-880) due to roadwork.,,I-880 S,R,Hayward,Alameda,CA,94545,US,US/Pacific,KHWD,2021-07-29 15:54:00,76.0,76.0,56.0,29.84,10.0,WNW,14.0,0.0,Fair,False,False,False,False,False,False,False,False,False,False,False,False,False,Day,Day,Day,Day
C-89178,2,2019-10-01 04:52:15.000000000,2020-06-12 23:59:00.000000000,40.969601,-81.354362,,,0.0,One lane closed due to construction work on OH-619 Maple St both ways at Market Ave.,101.0,Market Ave N,L,Hartville,Stark,OH,44632-8519,US,US/Eastern,KCAK,2019-10-01 04:51:00,70.0,70.0,90.0,28.76,8.0,SSW,6.0,0.0,Fair,False,False,False,False,False,False,False,False,False,False,False,True,False,Night,Night,Night,Night
C-89179,4,2019-04-24 00:04:55.000000000,2019-04-24 05:03:15.000000000,33.74662,-84.362259,33.74665,-84.36309200000002,0.0479018285299,Closed at Pearl St SE - Closed due to roadwork.,344.0,Pearl St SE,L,Atlanta,Fulton,GA,30316,US,US/Eastern,KATL,2019-04-24 00:52:00,70.0,70.0,53.0,28.94,10.0,WSW,7.0,0.0,Cloudy,False,False,True,False,False,False,False,False,False,False,False,False,False,Night,Night,Night,Night
C-89180,2,2020-11-24 14:00:00.000000000,2020-11-25 00:06:03.000000000,33.712297,-112.20186,33.711438,-112.20314,0.0945237980941999,Stationary traffic from 66th Ave to W West Wind Dr due to roadwork.,,W Happy Valley Rd,R,Phoenix,Maricopa,AZ,85083,US,US/Mountain,KDVT,2020-11-24 13:53:00,67.0,67.0,19.0,28.36,10.0,WSW,7.0,0.0,Fair,False,False,False,False,False,False,False,False,False,True,False,False,False,Day,Day,Day,Day
C-89181,2,2020-09-21 16:30:00.000000000,2020-09-22 00:46:00.000000000,40.079203,-120.929207,40.078677,-120.932706,0.188519318124,Construction on CA-89 SB near WOLF CREEK RD Expect delays.,14301.0,State Highway 89,L,Greenville,Plumas,CA,95947,US,US/Pacific,KCIC,2020-09-21 16:53:00,88.0,88.0,25.0,29.59,5.0,SE,14.0,0.0,Smoke,False,False,False,False,False,False,False,False,False,False,False,False,False,Day,Day,Day,Day
C-89182,2,2021-09-02 13:25:00.000000000,2021-09-02 13:45:00.000000000,32.285065,-106.75128,32.286025,-106.743412,0.464342346324,Slow traffic from S Solano Dr (E University Ave) to I-25 (E University Ave) due to roadwork.,2698.0,Chaparral St,R,Las Cruces,Doa Ana,NM,88001-5704,US,US/Mountain,KLRU,2021-09-02 13:35:00,83.0,83.0,46.0,25.52,10.0,SSE,6.0,0.0,Mostly Cloudy,False,False,True,False,False,False,False,False,False,False,False,True,False,Day,Day,Day,Day
C-89183,2,2021-12-08 13:13:00.000000000,2021-12-08 15:50:55.000000000,40.881083,-73.87849399999998,40.883135,-73.882086,0.235182225659,Slow traffic from Bronx River Pkwy (E Gun Hill Rd) to Mosholu Pkwy (W Gun Hill Rd) due to roadwork.,3498.0,Bainbridge Ave,R,Bronx,Bronx,NY,10467-2802,US,US/Eastern,KLGA,2021-12-08 12:51:00,42.0,38.0,62.0,29.92,10.0,E,6.0,0.0,Cloudy,False,False,False,False,False,False,False,False,False,False,False,True,False,Day,Day,Day,Day
C-89184,2,2021-06-09 14:00:25.000000000,2021-06-09 16:03:01.000000000,25.899583,-80.183492,25.899995,-80.186824,0.20904319299,Slow traffic on FL-916 - FL-915 from NE 8th Ave to NE 137th St due to roadwork.,752.0,NE 135th St,R,Miami,Miami-Dade,FL,33161,US,US/Eastern,KOPF,2021-06-09 13:53:00,88.0,88.0,53.0,30.13,10.0,ESE,10.0,0.0,Partly Cloudy,False,False,False,False,False,False,False,False,False,False,False,False,False,Day,Day,Day,Day
C-89185,4,2018-02-20 14:23:01.000000000,2018-02-20 20:23:01.000000000,40.44285,-79.99094000000002,40.45905,-79.999131,1.19930483975,Between Bedford Ave/Mario Lemieux Pl and I-279 - Roadwork.,,Mario Lemieux Pl,R,Pittsburgh,Allegheny,PA,15219,US,US/Eastern,KAGC,2018-02-20 14:53:00,77.0,,39.0,30.15,10.0,SSW,18.4,,Scattered Clouds,False,False,False,False,True,False,False,False,False,False,False,True,False,Day,Day,Day,Day
C-89186,2,2021-09-30 17:24:44.000000000,2021-09-30 19:27:50.000000000,28.556764,-81.37690400000002,28.560174,-81.37585200000002,0.244105020368,Stationary traffic on FL-527 from US-92/FL-50/Colonial Dr (FL-527) to Virginia Dr (FL-527) due to roadwork.,900.0,N Magnolia Ave,L,Orlando,Orange,FL,32803-3834,US,US/Eastern,KORL,2021-09-30 17:53:00,84.0,84.0,53.0,29.91,10.0,E,14.0,0.0,Fair,False,False,True,False,False,False,False,False,True,False,False,True,False,Day,Day,Day,Day
C-89187,2,2021-06-03 14:09:22.000000000,2021-06-03 16:13:12.000000000,27.887019,-82.506337,27.893795,-82.507356,0.472294451246,Slow traffic on US-92 E - US-92 W - FL-573 from W Rogers Ave to Selmon Connector E due to roadwork.,5350.0,S Dale Mabry Hwy,L,Tampa,Hillsborough,FL,33611,US,US/Eastern,KMCF,2021-06-03 13:56:00,77.0,77.0,79.0,30.0,9.0,S,10.0,0.0,Light Rain,False,False,False,False,False,False,False,False,True,False,False,False,False,Day,Day,Day,Day
C-89188,2,2020-02-05 04:14:33.000000000,2020-02-05 05:01:00.000000000,37.144306,-121.984688,,,11.529999733,One lane closed due to construction on CA-17 Northbound between Exit 5 Granite Creek Rd and CA-35 Summit Rd.,22907.0,Santa Cruz Hwy,L,Los Gatos,Santa Clara,CA,95033-9012,US,US/Pacific,KSJC,2020-02-05 03:53:00,38.0,38.0,60.0,30.21,10.0,SSE,3.0,0.0,Fair,False,False,False,False,False,False,False,False,False,False,False,False,False,Night,Night,Night,Night
C-89189,2,2021-02-10 05:30:00.000000000,2021-02-10 09:46:00.000000000,34.650225,-118.753807,34.589329,-118.711814,4.83780233519,Construction on I-5 SB near VISTA DEL LAGO Expect long delays.,,Golden State Fwy S,R,Lebec,Los Angeles,CA,93243,US,US/Pacific,KSDB,2021-02-10 05:53:00,42.0,36.0,79.0,25.43,4.0,N,10.0,0.0,Haze,False,False,False,False,False,False,False,False,False,False,False,False,False,Night,Night,Night,Day
C-89190,2,2020-09-15 16:45:30.000000000,2020-09-16 01:16:30.000000000,28.401129,-81.828052,28.39363,-81.826171,0.530594728284,Stationary traffic on FL-33 from CR-561 (FL-33) to Bronson Ranch Rd (Commonwealth Ave/FL-33) due to roadwork.,3698.0,State Road 33,R,Clermont,Lake,FL,34714-8620,US,US/Eastern,KISM,2020-09-15 16:56:00,89.0,89.0,57.0,29.87,10.0,S,6.0,0.0,Fair,False,False,False,False,False,False,False,False,False,False,False,False,False,Day,Day,Day,Day
C-89191,3,2019-01-31 23:11:09.000000000,2019-02-01 06:01:00.000000000,34.499432,-118.626572,,,0.5,Exit ramp from I-5 Southbound at Exit 176 to Lake Hughes Rd closed due to paving repairs.,,Golden State Fwy S,R,Castaic,Los Angeles,CA,91384,US,US/Pacific,K3A6,2019-01-31 22:51:00,50.0,50.0,83.0,29.11,10.0,CALM,0.0,0.0,Fair,False,False,False,False,False,False,False,False,False,False,False,False,False,Night,Night,Night,Night
C-89192,2,2021-06-16 01:05:55.000000000,2021-12-11 14:16:17.000000000,40.71794000000001,-73.832027,40.716352,-73.823153,0.4774958973920001,NYSDOT - Region 11: Construction construction on Grand Central Parkway eastbound between Exit 13 - I-678 - Van Wyck Expressway; Jackie Robinson Parkway (New York) and Union Turnpike (New York) 1 Right lane of 4 lanes closed until 5:00 A.M.,,Grand Central Pkwy E,R,Forest Hills,Queens,NY,11375,US,US/Eastern,KLGA,2021-06-16 00:51:00,67.0,67.0,63.0,29.76,10.0,NNW,12.0,0.0,Fair,False,False,False,False,True,False,False,False,False,False,False,False,False,Night,Night,Night,Night
C-89193,2,2021-02-21 19:19:00.000000000,2021-02-22 10:22:13.000000000,34.886387,-87.94462299999998,34.887446999999995,-87.927603,0.967403938619,Roadwork on CR-8 (CR-14) from Natchez Trace Pkwy (CR-14) to County Hwy-14.,1.0,County Road 194,L,Waterloo,Lauderdale,AL,35677-3545,US,US/Central,KMSL,2021-02-21 18:53:00,53.0,53.0,35.0,29.54,10.0,SSE,13.0,0.0,Mostly Cloudy,False,False,False,False,False,False,False,False,False,False,False,False,False,Night,Night,Night,Night
C-89194,2,2020-10-10 04:26:00.000000000,2020-10-10 06:34:30.000000000,40.275018,-76.817228,40.285563,-76.820944,0.754459946666,Slow traffic on I-83 from US-322/Derry St/Exit 47 (I-83) to US-22/Jonestown Rd/Exit 50 (I-83) due to roadwork.,,I-83 N,R,Harrisburg,Dauphin,PA,17109,US,US/Eastern,KCXY,2020-10-10 04:56:00,55.0,55.0,74.0,29.67,10.0,WNW,3.0,0.0,Fair,False,False,False,False,False,False,False,False,False,False,False,False,False,Night,Night,Night,Night
C-89195,4,2021-12-28 11:22:13.000000000,2021-12-30 23:59:00.000000000,39.73934000000001,-104.834781,39.739336,-104.83408,0.0372452478498,Closed road from South Aurora to E Colfax Ave due to roadwork.,13314.0,E Colfax Ave,R,Aurora,Arapahoe,CO,80011-5518,US,US/Mountain,KBKF,2021-12-28 10:58:00,28.0,18.0,35.0,23.96,10.0,E,12.0,0.0,Fair,False,False,True,False,False,False,False,False,False,False,False,False,False,Day,Day,Day,Day
C-89196,2,2021-06-01 00:44:56.000000000,2021-06-04 23:59:59.000000000,40.786238,-73.388918,40.787888,-73.377438,0.611284705574,NYSDOT - Region 10: roadwork on I-495 eastbound between Exit 50 - Bagatelle Road (Huntington) and Exit 51 - Deer Park Avenue; NY 231 (Huntington) from 10:00 A.M. until 3:00 P.M. Not currently scheduled,,Long Island Expy E,R,Huntington Station,Suffolk,NY,11746,US,US/Eastern,KFRG,2021-06-01 00:53:00,56.0,56.0,84.0,30.15,10.0,CALM,0.0,0.0,Fair,False,False,False,False,False,False,False,False,False,False,False,False,False,Night,Night,Night,Night
C-89197,3,2019-04-22 09:57:29.000000000,2019-04-22 14:00:00.000000000,32.583771,-117.090569,,,0.6100000143050001,Entry ramp to I-5 Northbound from Palm Ave closed due to bridge maintenance work.,,Palm Ave,R,San Diego,San Diego,CA,92154,US,US/Pacific,KNRS,2019-04-22 09:56:00,64.0,64.0,54.0,30.01,10.0,W,10.0,0.0,Fair,False,False,False,False,False,False,False,False,False,False,False,False,False,Day,Day,Day,Day
C-89198,2,2021-04-29 06:00:00.000000000,2021-07-30 23:59:59.000000000,42.929779,-74.197518,42.928166,-74.198723,0.127030860005,Bridge work on NY 30 both directions between NY 5S (Amsterdam) and West Main Street; NY 5 (Amsterdam) More specifically the Bridge over the Mohawk River/Canal.Motorists will encounter a south bound right lane closure the north bound Auxiliary lane is closed. Route 30north bound ramp to Route 5 east bound as well as the Erie Street Ramp to Route 30north bound are closed. Route 5 east bound to Route 30 south bound is closed. The Route 30 south bound ramp to Bridge Street is closed Continuous Thursday April 29th 2021 6:00 AM thru Friday July 30th 2021 6:00 PM,9999.0,State Highway 30,L,Amsterdam,Montgomery,NY,12010-8801,US,US/Eastern,KSCH,2021-04-29 07:53:00,57.0,57.0,100.0,29.36,2.0,NE,3.0,0.0,Fog,False,False,False,False,False,False,False,False,False,False,False,False,False,Day,Day,Day,Day
C-89199,2,2021-03-23 05:21:30.000000000,2021-03-23 18:15:39.000000000,32.868251,-96.667767,32.872411,-96.679659,0.747576111637,Slow traffic on I-635 W - LBJ Fwy W from Northwest Hwy/Exit 11 (I-635) to Jupiter Rd/Exit 13 (I-635) due to roadwork.,4198.0,S Garland Ave,L,Garland,Dallas,TX,75041,US,US/Central,KHQZ,2021-03-23 05:15:00,54.0,54.0,66.0,29.22,10.0,W,13.0,0.0,Fair,False,False,False,False,True,False,False,False,False,False,False,False,False,Night,Night,Night,Night
C-89200,2,2021-05-05 06:00:00.000000000,2021-11-22 19:52:38.000000000,32.951485,-96.838783,32.954386,-96.839387,0.20347601106,Slow traffic from Beltwood Pkwy to Runyon Rd due to roadwork.,14910.0,Midway Rd,L,Addison,Dallas,TX,75001-4907,US,US/Central,KADS,2021-09-23 18:47:00,81.0,81.0,20.0,29.33,13.0,E,5.0,0.0,Fair,True,False,False,False,False,False,False,False,False,False,False,False,False,Night,Night,Day,Day
C-89201,2,2017-09-22 05:18:26.000000000,2017-09-22 06:00:00.000000000,40.62653,-74.300545,,,3.16000008583,Intermittent lane closures due to construction work on County Hwy-632 Walnut Ave Southbound between County Hwy-610 South Ave and County Hwy-608 Valley Rd.,1.0,Walnut Ave,R,Clark,Union,NJ,07066-1605,US,US/Eastern,KLDJ,2017-09-22 05:35:00,66.9,,59.0,30.01,10.0,North,6.9,,Clear,False,False,False,False,False,False,False,False,False,False,False,False,False,Night,Night,Night,Day
C-89202,3,2018-05-07 20:44:49.000000000,2018-05-08 02:44:49.000000000,41.74773,-72.65890999999998,41.77167100000001,-72.66855,1.72717050015,Between US-5/Exit 29 and I-84/CT-2/Exit 30 - Construction work. Right lane blocked. Center lane blocked.,,I-91 N,R,Hartford,Hartford,CT,06114,US,US/Eastern,KHFD,2018-05-07 20:53:00,61.0,,72.0,30.15,10.0,South,11.5,,Overcast,False,False,False,False,False,False,False,False,False,False,False,False,False,Night,Night,Day,Day
C-89203,2,2021-09-30 15:15:30.000000000,2021-09-30 15:47:00.000000000,41.691472,-87.706941,41.691116,-87.700806,0.317488170242,Stationary traffic from S Trumbull Ave to W 112th St due to roadwork.,11101.0,S Trumbull Ave,L,Chicago,Cook,IL,60655-3528,US,US/Central,KMDW,2021-09-30 14:53:00,78.0,78.0,37.0,29.48,10.0,E,10.0,0.0,Mostly Cloudy,False,False,True,False,False,False,False,False,False,False,False,False,False,Day,Day,Day,Day
C-89204,2,2021-06-07 12:28:25.000000000,2021-06-07 15:03:42.000000000,26.033467,-80.146475,26.032791,-80.143291,0.2031161623229999,Stationary traffic on US-1 N - FL-822 - US-1 S - FL-5 from N 21st Ave / SW 4th Ave to Sherman St due to roadwork.,1936.0,Sheridan St,L,Hollywood,Broward,FL,33020-2119,US,US/Eastern,KFLL,2021-06-07 12:53:00,86.0,86.0,65.0,30.12,10.0,ESE,17.0,0.0,Partly Cloudy,False,False,False,False,False,False,False,False,False,False,False,False,False,Day,Day,Day,Day
C-89205,2,2017-05-18 10:16:06.000000000,2017-05-18 16:16:06.000000000,40.745306,-73.73454100000002,40.745759,-73.735091,0.0425269015524,Between Grand Central Pky/Exit 29 and W Alley Rd - Construction work.,,Cross Island Pkwy N,R,Little Neck,Queens,NY,11362,US,US/Eastern,KLGA,2017-05-18 09:51:00,88.0,,42.0,29.93,10.0,SW,8.1,,Mostly Cloudy,False,False,False,False,False,False,False,False,False,False,False,False,False,Day,Day,Day,Day
C-89206,3,2020-10-30 01:23:04.000000000,2020-10-30 05:00:00.000000000,47.240177,-122.400978,,,0.0,Intermittent lane closures due to construction during the night on I-5 Southbound at WA-167.,,I-5 S,R,Tacoma,Pierce,WA,98404,US,US/Pacific,KTCM,2020-10-30 00:58:00,41.0,41.0,95.0,29.6,10.0,CALM,0.0,0.0,Fair,False,False,False,False,False,False,True,False,False,False,False,False,False,Night,Night,Night,Night
C-89207,2,2021-07-12 12:45:00.000000000,2021-07-21 16:33:55.000000000,33.626246,-112.014547,33.627152,-112.013324,0.0941768146518999,Stationary traffic from 31st St / Janice Way to E Tierra Buena Ln due to roadwork.,3145.0,E Greenway Rd,L,Phoenix,Maricopa,AZ,85032-4445,US,US/Mountain,KSDL,2021-07-21 14:53:00,103.0,103.0,28.0,28.18,10.0,CALM,0.0,0.0,Fair,True,False,False,False,False,False,False,False,True,False,False,False,False,Day,Day,Day,Day
C-89208,2,2021-11-22 13:22:00.000000000,2021-11-22 15:24:15.000000000,40.368975,-80.04938,40.374125,-80.048513,0.358745938391,Slow traffic on US-19 N - US-19 Trk N - US-19 Trk S - US-19 S from Beadling Rd to Jefferson Dr due to roadwork.,1123.0,Washington Rd,L,Pittsburgh,Allegheny,PA,15228-1816,US,US/Eastern,KAGC,2021-11-22 12:53:00,36.0,27.0,50.0,28.66,10.0,NNW,15.0,0.0,Mostly Cloudy,False,False,True,False,False,False,False,False,False,True,False,False,False,Day,Day,Day,Day
C-89209,2,2021-01-27 05:37:00.000000000,2021-01-27 18:34:14.000000000,39.813449,-97.38537,39.813414,-97.406044,1.09723317018,Roadwork on KS-15 (17th Rd/US-36) from CR-29 (US-36) to US-36 E - US-36 W.,3015.0,US Highway 36,R,Cuba,Republic,KS,66940,US,US/Central,KCNK,2021-01-27 05:52:00,16.0,7.0,86.0,28.67,5.0,N,6.0,0.0,Light Snow,False,False,False,False,False,False,False,False,False,True,False,False,False,Night,Night,Night,Night
C-89210,2,2021-12-15 19:00:00.000000000,2021-12-17 20:45:00.000000000,40.585438,-75.599337,40.592438,-75.582987,0.984818855767,Construction on US-22 EB near I-78 Allow extra time.,,I-78 E,R,Allentown,Lehigh,PA,18104,US,US/Eastern,KXLL,2021-12-15 18:55:00,52.0,52.0,67.0,29.94,10.0,SSE,7.0,0.0,Cloudy,False,False,False,False,False,False,False,False,False,False,False,False,False,Night,Night,Night,Night
C-89212,2,2021-04-26 13:58:30.000000000,2021-04-26 20:40:30.000000000,29.670074,-95.262975,29.686765,-95.27893,1.49909524208,Slow traffic on I-45 N - I-45 S from TX-3/Monroe Rd/Exit 38 (I-45 HOV) to I-610/Exit 40 (I-45 HOV) due to roadwork.,,I-45 N,R,Houston,Harris,TX,77017,US,US/Central,KHOU,2021-04-26 13:53:00,82.0,82.0,49.0,29.89,10.0,SSE,16.0,0.0,Mostly Cloudy,False,False,False,False,False,False,False,False,False,False,False,False,False,Day,Day,Day,Day
C-89213,2,2016-05-02 07:15:51.000000000,2016-05-02 13:15:51.000000000,42.09611,-71.22636999999997,42.09285,-71.22479,0.239368343422,At Main St/Mechanic St/Exit 8 - Roadwork.,,I-95 S,R,Sharon,Norfolk,MA,02067,US,US/Eastern,KOWD,2016-05-02 06:53:00,46.9,,93.0,30.05,2.0,NE,4.6,,Overcast,False,False,False,False,False,False,False,False,False,False,False,False,False,Day,Day,Day,Day
C-89214,2,2021-12-25 05:30:30.000000000,2021-12-25 05:51:30.000000000,30.081037,-90.961396,30.078569,-90.964133,0.236339467487,Stationary traffic on LA-70 from LA-3120 (LA-70) to LA-3127 (LA-70) due to roadwork.,,Highway 70,R,Donaldsonville,Ascension,LA,70346,US,US/Central,KL38,2021-12-25 05:53:00,65.0,65.0,87.0,29.91,10.0,S,5.0,0.0,Cloudy,False,False,False,False,False,False,False,False,False,False,False,False,False,Night,Night,Night,Night
C-89215,3,2020-01-22 04:03:41.000000000,2020-01-22 05:15:00.000000000,43.052982,-78.99086,,,2.75999999046,Left lane closed and slow moving maintenance vehicles due to maintenance work on I-190 Southbound from Exit 21 NY-384 Buffalo Ave to Exit 20A River Rd.,,I-190 S,R,Grand Island,Erie,NY,14072,US,US/Eastern,KIAG,2020-01-22 03:53:00,28.0,15.0,78.0,29.72,10.0,WSW,18.0,0.0,Cloudy,False,False,False,False,False,False,False,False,False,False,False,False,False,Night,Night,Night,Night
C-89216,2,2021-12-17 10:15:00.000000000,2021-12-17 12:56:55.000000000,25.682681,-80.416411,25.685397,-80.417449,0.198476306883,Stationary traffic on FL-825 - FL-94 from SW 96th St to SW 137th Ct due to roadwork.,9033.0,SW 137th Ave,L,Miami,Miami-Dade,FL,33186,US,US/Eastern,KTMB,2021-12-17 09:53:00,82.0,82.0,67.0,30.18,10.0,ESE,14.0,0.0,Partly Cloudy,False,False,True,False,False,False,False,False,True,False,False,False,False,Day,Day,Day,Day
C-89217,2,2020-09-08 14:03:00.000000000,2020-09-08 23:31:42.000000000,26.527523,-80.093176,26.527715,-80.08716,0.37214087448,Slow traffic on FL-804 from Lawrence Rd (FL-804) to I-95 (FL-804) due to resurfacing work.,1538.0,W Boynton Beach Blvd,L,Boynton Beach,Palm Beach,FL,33436-4606,US,US/Eastern,KBCT,2020-09-08 13:53:00,87.0,87.0,72.0,29.85,10.0,SSE,12.0,0.0,Thunder in the Vicinity,False,False,False,False,False,False,False,False,False,False,False,False,False,Day,Day,Day,Day
C-89218,2,2021-07-26 15:52:30.000000000,2021-07-26 19:08:15.000000000,33.449224,-112.203471,33.45158,-112.204164,0.167614813686,Stationary traffic from S 67th Ave to N 69th Ave due to roadwork.,87.0,N 67th Ave,R,Phoenix,Maricopa,AZ,85043,US,US/Mountain,KGEU,2021-07-26 15:56:00,94.0,94.0,35.0,28.74,10.0,CALM,0.0,0.0,Fair,False,False,False,False,False,False,False,False,True,False,False,False,False,Day,Day,Day,Day
C-89219,2,2019-09-17 10:36:26.000000000,2019-09-21 10:37:56.000000000,41.6416,-75.529782,41.65256,-75.51759,0.984727423354,At PA-2023 (East) - Roadwork. Open.,3707.0,State Route 247,L,Carbondale,Susquehanna,PA,18407,US,US/Eastern,KAVP,2019-09-17 10:54:00,66.0,66.0,52.0,29.18,10.0,CALM,0.0,0.0,Fair,False,False,False,False,False,False,False,False,False,False,False,False,False,Day,Day,Day,Day
C-89220,2,2021-08-14 13:13:00.000000000,2021-08-14 13:54:00.000000000,42.152685,-87.963387,42.154608,-87.959361,0.245317266982,Slow traffic on IL-83 from Raupp Blvd to Bank Ln due to roadwork.,,W Lake Cook Rd,R,Buffalo Grove,Cook,IL,60089,US,US/Central,KPWK,2021-08-14 12:52:00,77.0,77.0,39.0,29.58,10.0,E,12.0,0.0,Fair,False,False,True,False,False,False,False,False,False,False,False,False,False,Day,Day,Day,Day
C-89221,4,2020-07-17 15:00:00.000000000,2020-07-18 06:59:59.000000000,40.878201,-74.118891,40.878766,-74.11654399999998,0.128675361219,Construction on Dewitt Street both directions between River Drive (Garfield) and Elm Street (Garfield) Friday July 17th 2020 08:00 AM thru 04:00 PM all lanes closed,632.0,River Dr,R,Garfield,Bergen,NJ,07026-3820,US,US/Eastern,KTEB,2020-07-17 14:51:00,82.0,82.0,71.0,30.06,10.0,SSW,5.0,0.0,Mostly Cloudy,False,False,False,False,False,False,False,False,False,False,False,False,False,Day,Day,Day,Day
C-89222,2,2020-09-24 21:30:30.000000000,2020-09-25 01:55:12.000000000,39.596277,-104.885565,39.608254,-104.892476,0.905631252744,Slow traffic on I-25 from Dry Creek Rd/Exit 196 (I-25) to Orchard Rd/Exit 198 (I-25) due to maintenance work.,,I-25 N,R,Englewood,Arapahoe,CO,80111,US,US/Mountain,KAPA,2020-09-24 21:53:00,70.0,70.0,22.0,24.17,10.0,S,13.0,0.0,Fair,False,False,False,False,False,False,False,False,False,False,False,False,False,Night,Night,Night,Night
C-89223,2,2017-06-19 09:30:00.000000000,2017-06-19 15:00:00.000000000,41.625404,-73.774231,,,17.0900001526,Intermittent lane closures due to construction work on Taconic State Pkwy both ways between NY-52 and NY-82.,,Route 82,R,Lagrangeville,Dutchess,NY,12540,US,US/Eastern,KPOU,2017-06-19 09:53:00,82.0,,71.0,29.79,10.0,South,6.9,,Overcast,False,False,False,False,False,False,False,False,False,False,False,False,False,Day,Day,Day,Day
C-89224,2,2021-05-11 20:37:00.000000000,2021-12-27 18:48:00.000000000,37.240958,-80.220603,37.234489,-80.236743,0.993983437638,Construction on I-81 SB near MM 130 Construction. Right lane closed.,,I-81 S,R,Elliston,Montgomery,VA,24087,US,US/Eastern,KBCB,2021-05-11 20:35:00,57.0,57.0,49.0,27.91,10.0,CALM,0.0,0.0,Fair,False,False,False,False,True,False,False,False,False,False,False,False,False,Night,Day,Day,Day
C-89225,2,2020-10-01 11:10:00.000000000,2020-10-01 14:02:30.000000000,40.682985,-75.273123,40.683477,-75.302892,1.56012542375,Stationary traffic on US-22 from PA-248/25th St (US-22) to PA-191/Nazareth Pike (US-22) due to roadwork.,,US-22 W,R,Easton,Northampton,PA,18045,US,US/Eastern,KABE,2020-10-01 10:51:00,64.0,64.0,56.0,29.51,10.0,W,8.0,0.0,Fair,False,False,False,False,False,False,False,False,False,False,False,False,False,Day,Day,Day,Day
C-89226,4,2020-11-01 06:16:00.000000000,2020-11-08 07:59:00.000000000,33.976398,-118.417444,33.97674,-118.416669,0.0503009226307,Closed road from McConnell Ave to Village Dr / Village Ln due to roadwork.,,Runway Rd,R,Playa Vista,Los Angeles,CA,90094,US,US/Pacific,KLAX,2020-11-01 05:53:00,56.0,56.0,90.0,29.93,10.0,CALM,0.0,0.0,Partly Cloudy,True,False,True,False,False,False,False,False,False,False,False,False,False,Day,Day,Day,Day
C-89227,2,2019-09-09 22:59:00.000000000,2019-09-10 05:00:00.000000000,40.741581,-73.844597,,,0.52999997139,Exit ramp from Grand Central Pkwy Westbound at Exits 10E-W 10W-E to I-495 lane closed due to construction work.,,Perimeter Rd,R,Corona,Queens,NY,11368,US,US/Eastern,KLGA,2019-09-09 22:51:00,70.0,70.0,78.0,30.27,10.0,SE,5.0,0.0,Fair,False,False,False,False,False,False,False,False,False,False,False,False,False,Night,Night,Night,Night
C-89228,2,2019-06-28 08:56:09.000000000,2019-07-02 08:58:36.000000000,40.614644,-75.533742,40.61552,-75.53409,0.0632180282541,At Walbert Ave - Roadwork. Lane blocked.,1648.0,N Cedar Crest Blvd,L,Allentown,Lehigh,PA,18104-2318,US,US/Eastern,KXLL,2019-06-28 08:55:00,,,,29.79,10.0,CALM,0.0,0.0,Fair,False,False,False,False,False,False,False,False,False,False,False,True,False,Day,Day,Day,Day
C-89229,2,2021-11-14 14:08:30.000000000,2021-11-14 14:29:00.000000000,36.841697,-78.97591899999998,36.831274,-78.96884399999998,0.819573043874,Slow traffic on US-501 N - US-501 S from Liberty Rd/Meadville Rd (L P Bailey Memorial Hwy/US-501) to VA-360/Bethel Rd (Main St/L P Bailey Memorial Hwy/US-501) due to roadwork.,6160.0,L.P. Bailey Memorial Hwy,R,Halifax,Halifax,VA,24558,US,US/Eastern,KDAN,2021-11-14 13:53:00,55.0,55.0,34.0,29.29,10.0,SW,9.0,0.0,Fair,False,False,False,False,False,False,False,False,False,False,False,False,False,Day,Day,Day,Day
C-89230,2,2020-06-11 09:00:00.000000000,2020-06-12 05:00:00.000000000,42.738281,-73.67012,,,0.0,Right lane closed due to construction work on NY-7 Hoosick St Westbound at Burdett Ave.,271.0,Hoosick St,L,Troy,Rensselaer,NY,12180-2428,US,US/Eastern,KALB,2020-06-11 08:51:00,74.0,74.0,87.0,29.57,5.0,SSE,12.0,0.13,Light Rain,False,False,False,False,False,False,False,False,False,False,False,True,False,Day,Day,Day,Day
C-89231,2,2021-05-19 16:58:30.000000000,2021-05-19 20:36:32.000000000,41.076134,-85.62216,41.075387,-85.62061,0.0958207478046,Roadwork on IN-5/S State St (Mulberry St/W Wayne St/IN-14) from IN-9 (IN-14) to IN-14 - IN-5.,5958.0,S State Road 5,L,South Whitley,Whitley,IN,46787-9701,US,US/Eastern,KASW,2021-05-19 16:55:00,77.0,77.0,57.0,29.34,10.0,S,7.0,0.0,Cloudy,True,False,False,False,False,False,False,False,False,False,False,False,False,Day,Day,Day,Day
C-89232,2,2021-09-09 08:19:30.000000000,2021-09-09 08:33:00.000000000,41.478952,-90.632139,41.484991,-90.640002,0.582886468049,Slow traffic on I-280 W from IA--IL State Border (I-280) to IA-22/Rockingham Rd/Exit 8 (I-280) due to roadwork.,,I-280 W,R,Milan,Rock Island,IL,61264,US,US/Central,KMLI,2021-09-09 07:52:00,61.0,61.0,78.0,29.43,10.0,W,5.0,0.0,Fair,False,False,False,False,False,False,False,False,False,False,False,False,False,Day,Day,Day,Day
C-89233,2,2020-05-24 07:00:00.000000000,2020-05-24 17:01:00.000000000,40.710232,-104.791382,,,0.0,Road closed due to maintenance work on County Road 29 both ways from County Road 90 to County Road 100.,13997.0,County Road 100,R,Nunn,Weld,CO,80648-8704,US,US/Mountain,KGXY,2020-05-24 06:56:00,49.0,45.0,74.0,25.3,10.0,WNW,8.0,0.0,Mostly Cloudy,False,False,False,False,False,False,False,False,False,False,False,False,False,Day,Day,Day,Day
C-89234,2,2020-09-28 16:00:00.000000000,2020-10-03 06:59:00.000000000,41.589982,-74.24267900000002,41.570717,-74.19676,2.7210582562,Roadwork on NY 52 both directions between Boniface Drive (Crawford) and Wallkill Road (Crawford) Res 8-5 RW Monday September 28th 2020 thru Friday October 2nd 2020 Monday thru Friday 09:00 AM thru 03:00 PM alternate lanes closure,1666.0,State Route 52,R,Walden,Orange,NY,12586-2208,US,US/Eastern,KMGJ,2020-09-28 15:54:00,77.0,77.0,64.0,29.48,10.0,SSW,12.0,0.0,Mostly Cloudy,False,False,False,False,False,False,False,False,False,False,False,False,False,Day,Day,Day,Day
C-89235,2,2021-02-24 11:29:00.000000000,2021-02-24 12:36:30.000000000,38.320427,-121.324981,38.351827,-121.340112,2.31933975104,Stationary traffic on CA-99 N from Mingo Rd/Exit 278 (CA-99) to Eschinger Rd (CA-99) due to roadwork.,,CA-99 N,R,Galt,Sacramento,CA,95632,US,US/Pacific,KSAC,2021-02-24 11:53:00,64.0,64.0,20.0,30.17,10.0,NNW,22.0,0.0,Fair / Windy,False,False,False,False,False,False,False,False,False,False,False,False,False,Day,Day,Day,Day
C-89236,2,2020-09-27 13:58:30.000000000,2020-09-28 02:20:00.000000000,40.78497,-73.98264300000002,40.7832,-73.98057299999998,0.163351558827,Queuing traffic from Henry Hudson Pkwy N to W 78th St due to roadwork.,334.0,W 79th St,L,New York,New York,NY,10024-6116,US,US/Eastern,KNYC,2020-09-27 13:51:00,79.0,79.0,60.0,29.87,10.0,ENE,6.0,0.0,Cloudy,True,False,True,False,False,False,True,False,True,False,False,True,False,Day,Day,Day,Day
C-89237,2,2021-11-15 16:51:42.000000000,2021-11-15 19:16:06.000000000,40.674639,-73.804516,40.673572,-73.801693,0.1652844375579999,Slow traffic from 134th St to Queens due to roadwork.,13400.0,Rockaway Blvd,R,South Ozone Park,Queens,NY,11420-3021,US,US/Eastern,KJFK,2021-11-15 16:51:00,48.0,41.0,48.0,29.87,10.0,W,20.0,0.0,Partly Cloudy,False,False,False,False,True,False,False,False,False,True,False,False,False,Night,Day,Day,Day
C-89238,2,2019-05-10 21:53:14.000000000,2020-07-20 01:53:14.000000000,41.69373,-91.63767,41.74752,-91.64214,3.72367744606,Between I-80/Exit 0 and County Rd F-28/Exit 4 - Roadwork. Hard shoulder closed.,,IA-27 N,R,Iowa City,Johnson,IA,52240,US,US/Central,KIOW,2019-05-10 21:52:00,52.0,52.0,63.0,29.44,10.0,CALM,0.0,0.0,Fair,False,False,False,False,False,False,False,False,False,False,False,False,False,Night,Night,Night,Day
C-89239,2,2019-01-06 22:01:00.000000000,2019-01-10 22:00:56.000000000,26.10952,-80.16929,26.10304,-80.16926,0.447729227735,Ramp to I-595 - Construction work.,,I-95 S,R,Fort Lauderdale,Broward,FL,33312,US,US/Eastern,KFLL,2019-01-06 21:53:00,71.1,,68.0,30.15,10.0,Variable,3.5,,Overcast,False,False,False,False,False,False,False,False,False,False,False,False,False,Night,Night,Night,Night
C-89240,2,2021-12-27 17:30:30.000000000,2021-12-27 17:50:30.000000000,47.603383,-122.709483,47.594946,-122.698618,0.7720529978540001,Slow traffic on WA-3 S from Newberry Hill Rd (WA-3) to Austin Dr (WA-3) due to roadwork.,,WA-3 S,R,Bremerton,Kitsap,WA,98312,US,US/Pacific,KPWT,2021-12-27 17:49:00,21.0,21.0,80.0,29.3,10.0,CALM,0.0,0.0,Light Snow,False,False,False,False,False,False,False,False,False,False,False,False,False,Night,Night,Day,Day
C-89241,2,2020-05-12 00:21:45.000000000,2020-05-16 00:22:03.000000000,40.58036,-75.71143000000002,40.5792,-75.62796,4.38094782213,Between PA-737/Exit 40 and PA-100/Exit 49 - Roadwork. Lane blocked.,,I-78 E,R,Kutztown,Lehigh,PA,19530,US,US/Eastern,KRDG,2020-05-12 00:54:00,44.0,39.0,68.0,29.64,10.0,W,9.0,0.0,Fair,False,False,False,False,False,False,False,False,False,False,False,False,False,Night,Night,Night,Night
C-89242,2,2021-12-14 17:14:28.000000000,2021-12-14 17:52:39.000000000,40.878697,-73.872027,40.88271,-73.881231,0.555033596256,Slow traffic from Bronx River Pkwy (E Gun Hill Rd) to Jerome Ave (Gun Hill Rd) due to roadwork.,382.0,E Gun Hill Rd,R,Bronx,Bronx,NY,10467-2202,US,US/Eastern,KLGA,2021-12-14 16:51:00,51.0,51.0,23.0,30.54,10.0,NNE,8.0,0.0,Partly Cloudy,True,False,False,False,False,False,False,False,False,False,False,True,False,Night,Night,Day,Day
C-89243,2,2019-12-09 07:00:00.000000000,2019-12-09 16:00:00.000000000,41.66713,-70.144707,,,4.01000022888,Intermittent lane closures due to construction work on MA-28 Main St both ways between Upper County Rd and Shad Hole Rd.,51.0,Route 28,L,Dennis Port,Barnstable,MA,02639-1314,US,US/Eastern,KHYA,2019-12-09 06:56:00,48.0,45.0,86.0,30.2,6.0,SSW,6.0,0.0,Cloudy,False,False,False,False,False,False,False,False,False,False,False,False,False,Day,Day,Day,Day
C-89244,2,2016-08-24 06:01:52.000000000,2016-08-24 12:01:52.000000000,34.68388,-119.35495,34.614379,-119.371212,4.89021225352,Between Ozena Sta and NF-6N31/Rose Valley Rd/Sespe Riv Rd - Construction work.,,Maricopa Hwy,R,Maricopa,Ventura,CA,93252,US,US/Pacific,KBFL,2016-08-24 05:54:00,72.0,,46.0,30.01,10.0,Calm,,,Clear,False,False,False,False,False,False,False,False,False,False,False,False,False,Night,Day,Day,Day
C-89245,2,2020-07-23 19:00:00.000000000,2020-07-24 06:59:59.000000000,40.269605,-74.712554,40.269977,-74.71225799999998,0.0300689413724,Bridge work on US 1 Business northbound at Allen Ln (Lawrence Twp) Thursday July 23rd 2020 12:00 PM thru 01:30 PM right shoulder closed,2864.0,US Highway 1,R,Lawrence Township,Mercer,NJ,08648-2402,US,US/Eastern,KTTN,2020-07-23 18:53:00,85.0,85.0,65.0,29.78,10.0,WSW,17.0,0.0,Partly Cloudy,False,False,False,False,False,False,False,False,False,False,False,False,False,Day,Day,Day,Day
C-89246,2,2021-11-17 15:04:00.000000000,2021-11-17 17:33:10.000000000,25.943271,-80.181217,25.94277,-80.186173,0.309860077538,Slow traffic on FL-860 from NE 10th Ave to I-95 N due to roadwork.,981.0,NE Miami Gardens Dr,R,Miami,Miami-Dade,FL,33162,US,US/Eastern,KHWO,2021-11-17 14:53:00,79.0,79.0,64.0,30.13,10.0,E,14.0,0.0,Cloudy,False,False,False,False,False,False,False,False,True,False,False,False,False,Day,Day,Day,Day
C-89247,2,2020-07-13 12:30:00.000000000,2020-07-13 23:45:00.000000000,39.228546,-121.41205,39.227175,-121.416818,0.272208416151,Construction on CA-20 WB near MARYSVILLE RD Expect delays.,5249.0,State Highway 20,L,Browns Valley,Yuba,CA,95918-9696,US,US/Pacific,KBAB,2020-07-13 12:58:00,88.0,88.0,37.0,29.67,10.0,SSW,8.0,0.0,Fair,False,False,False,False,False,False,False,False,False,False,False,False,False,Day,Day,Day,Day
